[{"id":16814,"crm_id":999,"name":"Kendall Subaru of Fairbanks","dealerSlug":"kendall+subaru+of+fairbanks","city_state_slug":"Fairbanks.AK","brand":"Subaru","website":"KendallSubaruFairbanks.dealer.subaru.com","address":"1001 Cadillac Ct","city":"Fairbanks","state":"AK","zip":99701,"latitude":64.852778,"longitude":-147.749167,"phone_number_service":"5749467501","phone_number_main":"","service_hours":"","utc_offset":"","gplace_id":0,"gplace_url":"","dealerID":60164,"trusted":false,"image_id":"v1597283982/subaru_ms.png","phone":"5749467501","cityStateSlug":"fairbanks.ak","slug":"Fairbanks.AK/kendall+subaru+of+fairbanks","location":"64.852778,-147.749167","brandsList":["subaru"]},{"id":16812,"crm_id":999,"name":"Kendall Dodge Chrysler Jeep RAM","dealerSlug":"kendall+dodge+chrysler+jeep+ram","city_state_slug":"Soldotna.AK","brand":"Chrysler,Dodge,Jeep,RAM","website":"www.kendalldcjrofsoldotna.com","address":"44055 Sterling Hwy","city":"Soldotna","state":"AK","zip":33186,"latitude":60.484548,"longitude":-151.062241,"phone_number_service":"9072833949","phone_number_main":"","service_hours":"Mo-Sa 08:00 - 19:00 | Su Closed","utc_offset":"","gplace_id":0,"gplace_url":"","dealerID":60318,"trusted":false,"image_id":"v1597283975/chrysler_RM.png","phone":"9072833949","cityStateSlug":"soldotna.ak","slug":"Soldotna.AK/kendall+dodge+chrysler+jeep+ram","location":"60.484548,-151.062241","brandsList":["chrysler","dodge","jeep","ram"]},{"id":16815,"crm_id":999,"name":"Kendall Toyota of Fairbanks","dealerSlug":"kendall+toyota+of+fairbanks","city_state_slug":"Fairbanks.AK","brand":"Toyota","website":"www.kendalltoyotaoffairbanks.com","address":"1000 Cadillac Court","city":"Fairbanks","state":"AK","zip":99701,"latitude":64.853266,"longitude":-147.748194,"phone_number_service":"8125372525","phone_number_main":"","service_hours":"","utc_offset":"","gplace_id":0,"gplace_url":"","dealerID":60394,"trusted":false,"image_id":"v1597284039/toyota_ms.png","phone":"8125372525","cityStateSlug":"fairbanks.ak","slug":"Fairbanks.AK/kendall+toyota+of+fairbanks","location":"64.853266,-147.748194","brandsList":["toyota"]},{"id":16813,"crm_id":999,"name":"Kendall Ford of Wasilla","dealerSlug":"kendall+ford+of+wasilla","city_state_slug":"Wasilla.AK","brand":"Ford","website":"www.kendallfordwasilla.net","address":"2701 E. Mountain Village Drive","city":"Wasilla","state":"AK","zip":99654,"latitude":61.572272,"longitude":-149.381307,"phone_number_service":"8556060623","phone_number_main":"","service_hours":"Mo-Fr 08:00 - 21:00 | Sa 09:00 - 21:00 | Su 10:00 - 20:00","utc_offset":"","gplace_id":0,"gplace_url":"","dealerID":61014,"trusted":false,"image_id":"v1597283967/ford_RM.png","phone":"8556060623","cityStateSlug":"wasilla.ak","slug":"Wasilla.AK/kendall+ford+of+wasilla","location":"61.572272,-149.381307","brandsList":["ford"]},{"id":16177,"crm_id":999,"name":"Continental Nissan Of Anchorage","dealerSlug":"continental+nissan+of+anchorage","city_state_slug":"Anchorage.AK","brand":"Nissan","website":"www.continental-nissan.com","address":"5115 OLD SEWARD HWY.","city":"Anchorage","state":"AK","zip":99503,"latitude":61.174238,"longitude":-149.868153,"phone_number_service":"9075622427","phone_number_main":"","service_hours":"Mo-Sa 09:00 - 20:00\n | Su 11:00 - 18:00","utc_offset":"","gplace_id":0,"gplace_url":"","dealerID":61369,"trusted":false,"image_id":"v1597283926/nissan_RM.png","phone":"9075622427","cityStateSlug":"anchorage.ak","slug":"Anchorage.AK/continental+nissan+of+anchorage","location":"61.174238,-149.868153","brandsList":["nissan"]},{"id":17022,"crm_id":999,"name":"Mendenhall Toyota","dealerSlug":"mendenhall+toyota","city_state_slug":"Juneau.AK","brand":"Toyota","website":"www.mendenhalltoyota.com","address":"8602 Teal Street","city":"Juneau","state":"AK","zip":99801,"latitude":58.36115,"longitude":-134.57431,"phone_number_service":"6517770300","phone_number_main":"","service_hours":"Mo-Fr 07:00 - 18:00 | Sa 10:00 - 06:00","utc_offset":"","gplace_id":0,"gplace_url":"","dealerID":61639,"trusted":false,"image_id":"v1597284039/toyota_ms.png","phone":"6517770300","cityStateSlug":"juneau.ak","slug":"Juneau.AK/mendenhall+toyota","location":"58.36115,-134.57431","brandsList":["toyota"]},{"id":8886,"crm_id":51927493,"name":"Lithia Hyundai of Anchorage","dealerSlug":"lithia+hyundai+of+anchorage","city_state_slug":"Anchorage.AK","brand":"Hyundai","website":"www.lithiahyundaianchorage.com","address":"5400 Old Seward Hwy","city":"Anchorage","state":"AK","zip":99518,"latitude":61.1718883,"longitude":-149.8695814,"phone_number_service":"8779622042","phone_number_main":"9072029778","service_hours":"Mo-Fr 07:00 - 18:00 | Sa 08:00 - 17:00","utc_offset":"-480","gplace_id":null,"gplace_url":"https://maps.google.com/?cid=17059078272915521814","dealerID":62210,"trusted":false,"image_id":"v1597283959/hyundai_RM.png","phone":"8779622042","cityStateSlug":"anchorage.ak","slug":"Anchorage.AK/lithia+hyundai+of+anchorage","location":"61.1718883,-149.8695814","brandsList":["hyundai"]},{"id":7824,"crm_id":67035547,"name":"Kendall Lexus of Alaska","dealerSlug":"kendall+lexus+of+alaska","city_state_slug":"Anchorage.AK","brand":"Lexus","website":"www.kendalllexusofalaska.com","address":"6930 Old Seward Hwy","city":"Anchorage","state":"AK","zip":99518,"latitude":61.157461,"longitude":-149.8659002,"phone_number_service":"8665480133","phone_number_main":"8559815464","service_hours":"Mo-Fr 07:00 - 18:00 | Sa 07:00 - 18:00","utc_offset":"-480","gplace_id":null,"gplace_url":"https://maps.google.com/?cid=18355588761611888278","dealerID":63737,"trusted":false,"image_id":"v1597284042/lexus_ms.png","phone":"8665480133","cityStateSlug":"anchorage.ak","slug":"Anchorage.AK/kendall+lexus+of+alaska","location":"61.157461,-149.8659002","brandsList":["lexus"]},{"id":301,"crm_id":67036294,"name":"Anchorage Chrysler Dodge Jeep RAM","dealerSlug":"anchorage+chrysler+dodge+jeep+ram","city_state_slug":"Anchorage.AK","brand":"Chrysler,Dodge,Jeep,RAM","website":"anchoragechryslercenter.com","address":"2601 E 5th Ave","city":"Anchorage","state":"AK","zip":99501,"latitude":61.217796,"longitude":-149.832575,"phone_number_service":"8557161738","phone_number_main":"9072761331","service_hours":"Mo-Fr 07:00 - 19:00 | Sa 08:00 - 16:00","utc_offset":"-480","gplace_id":null,"gplace_url":"https://maps.google.com/?cid=8974456023064614113","dealerID":63939,"trusted":false,"image_id":"v1597283975/chrysler_RM.png","phone":"8557161738","cityStateSlug":"anchorage.ak","slug":"Anchorage.AK/anchorage+chrysler+dodge+jeep+ram","location":"61.217796,-149.832575","brandsList":["chrysler","dodge","jeep","ram"]},{"id":1621,"crm_id":67037584,"name":"BMW of Anchorage","dealerSlug":"bmw+of+anchorage","city_state_slug":"Anchorage.AK","brand":"BMW","website":"www.bmwofanchorage.com","address":"730 E 5th Ave","city":"Anchorage","state":"AK","zip":99501,"latitude":61.2172222,"longitude":-149.8697222,"phone_number_service":"8669538180","phone_number_main":"9072054754","service_hours":"Mo-Fr 07:30 - 18:00 | Sa 09:00 - 17:00","utc_offset":"-480","gplace_id":null,"gplace_url":"https://maps.google.com/?cid=2833931413688495674","dealerID":64304,"trusted":false,"image_id":"v1597283982/bmw_RM.png","phone":"8669538180","cityStateSlug":"anchorage.ak","slug":"Anchorage.AK/bmw+of+anchorage","location":"61.2172222,-149.8697222","brandsList":["bmw"]},{"id":2889,"crm_id":67037770,"name":"Chevrolet of Wasilla","dealerSlug":"chevrolet+of+wasilla","city_state_slug":"Wasilla.AK","brand":"Chevrolet","website":"www.wasillachevrolet.com","address":"3700 E Parks Hwy","city":"Wasilla","state":"AK","zip":99654,"latitude":61.5695112,"longitude":-149.3563626,"phone_number_service":"8443613006","phone_number_main":"9072027325","service_hours":"Mo-Fr 07:30 - 18:00 |Sa 08:00 - 17:00","utc_offset":"-480","gplace_id":null,"gplace_url":"https://maps.google.com/?cid=2105119792551073182","dealerID":64354,"trusted":false,"image_id":"v1597284079/chevy_ms.png","phone":"8443613006","cityStateSlug":"wasilla.ak","slug":"Wasilla.AK/chevrolet+of+wasilla","location":"61.5695112,-149.3563626","brandsList":["chevrolet"]},{"id":11642,"crm_id":67038979,"name":"Porsche Anchorage","dealerSlug":"porsche+anchorage","city_state_slug":"Anchorage.AK","brand":"Porsche","website":"www.porscheanchorage.com","address":"6115 Old Seward Hwy","city":"Anchorage","state":"AK","zip":99518,"latitude":61.1658015,"longitude":-149.8665156,"phone_number_service":"9072725522","phone_number_main":"8559815398","service_hours":"Mo-Fr 07:00 - 18:00","utc_offset":"-480","gplace_id":null,"gplace_url":"https://maps.google.com/?cid=17937268642077800659","dealerID":64688,"trusted":false,"image_id":"v1597283919/porsche.jpg","phone":"9072725522","cityStateSlug":"anchorage.ak","slug":"Anchorage.AK/porsche+anchorage","location":"61.1658015,-149.8665156","brandsList":["porsche"]},{"id":8890,"crm_id":67038994,"name":"Lithia Kia of Anchorage","dealerSlug":"lithia+kia+of+anchorage","city_state_slug":"Anchorage.AK","brand":"Kia","website":"www.lithiakiaanchorage.com","address":"4434 Old Seward Hwy","city":"Anchorage","state":"AK","zip":99503,"latitude":61.1802793,"longitude":-149.8689982,"phone_number_service":"8887122966","phone_number_main":"9072029779","service_hours":"Mo-Fr 07:00 - 18:00 | Sa 08:00 - 17:00","utc_offset":"-480","gplace_id":null,"gplace_url":"https://maps.google.com/?cid=5249876178703077712","dealerID":64692,"trusted":false,"image_id":"v1597283948/kia_RM.png","phone":"8887122966","cityStateSlug":"anchorage.ak","slug":"Anchorage.AK/lithia+kia+of+anchorage","location":"61.1802793,-149.8689982","brandsList":["kia"]},{"id":3288,"crm_id":67040128,"name":"Continental Mazda","dealerSlug":"continental+mazda","city_state_slug":"Anchorage.AK","brand":"Mazda","website":"continental-mazda.com","address":"4800 Old Seward Hwy","city":"Anchorage","state":"AK","zip":99503,"latitude":61.177,"longitude":-149.869,"phone_number_service":"9075632277","phone_number_main":"9075632277","service_hours":"Mo-Fr 07:00 - 18:00","utc_offset":"-480","gplace_id":null,"gplace_url":"https://maps.google.com/?cid=13191705380880705415","dealerID":65002,"trusted":false,"image_id":"v1597283937/mazda.png","phone":"9075632277","cityStateSlug":"anchorage.ak","slug":"Anchorage.AK/continental+mazda","location":"61.177,-149.869","brandsList":["mazda"]},{"id":13006,"crm_id":67049317,"name":"Seekins Ford Lincoln","dealerSlug":"seekins+ford+lincoln","city_state_slug":"Fairbanks.AK","brand":"Ford,Lincoln","website":"www.seekinsford.net","address":"1625 Seekins Ford Dr","city":"Fairbanks","state":"AK","zip":99701,"latitude":64.8570828,"longitude":-147.6787749,"phone_number_service":"9074594038","phone_number_main":"9074594000","service_hours":"Mo-Fr 07:00 - 18:00","utc_offset":"-480","gplace_id":null,"gplace_url":"https://maps.google.com/?cid=3806333680130746861","dealerID":67460,"trusted":false,"image_id":"v1597283967/ford_RM.png","phone":"9074594038","cityStateSlug":"fairbanks.ak","slug":"Fairbanks.AK/seekins+ford+lincoln","location":"64.8570828,-147.6787749","brandsList":["ford","lincoln"]},{"id":9644,"crm_id":67058140,"name":"Mendenhall Auto Center","dealerSlug":"mendenhall+auto+center","city_state_slug":"Juneau.AK","brand":"Chrysler,Dodge,Jeep,RAM","website":"www.mendenhallautocenter.com","address":"8725 Mallard St #8052","city":"Juneau","state":"AK","zip":99801,"latitude":58.3618,"longitude":-134.5754001,"phone_number_service":"9077891386","phone_number_main":"9077891386","service_hours":"Mo-Fr 07:00 - 18:00","utc_offset":"-480","gplace_id":null,"gplace_url":"https://maps.google.com/?cid=2035453524606631822","dealerID":69878,"trusted":false,"image_id":"v1597283975/chrysler_RM.png","phone":"9077891386","cityStateSlug":"juneau.ak","slug":"Juneau.AK/mendenhall+auto+center","location":"58.3618,-134.5754001","brandsList":["chrysler","dodge","jeep","ram"]},{"id":8859,"crm_id":67060708,"name":"Lithia Chrysler Dodge Jeep RAM FIAT of Anchorage","dealerSlug":"lithia+chrysler+dodge+jeep+ram+fiat+of+anchorage","city_state_slug":"Anchorage.AK","brand":"Chrysler,Dodge,Jeep,RAM,Fiat","website":"www.lithiachrysleranchorage.com","address":"9600 Old Seward Hwy","city":"Anchorage","state":"AK","zip":99515,"latitude":61.1334475,"longitude":-149.865284,"phone_number_service":"8556033084","phone_number_main":"9078856241","service_hours":"Mo-Fr 07:00 - 18:00 | Sa 07:00 - 18:00","utc_offset":"-480","gplace_id":null,"gplace_url":"https://maps.google.com/?cid=7545553293116613044","dealerID":70591,"trusted":false,"image_id":"v1597283975/chrysler_RM.png","phone":"8556033084","cityStateSlug":"anchorage.ak","slug":"Anchorage.AK/lithia+chrysler+dodge+jeep+ram+fiat+of+anchorage","location":"61.1334475,-149.865284","brandsList":["chrysler","dodge","jeep","ram","fiat"]},{"id":9670,"crm_id":67079581,"name":"Mercedes-Benz of Anchorage","dealerSlug":"mercedes+benz+of+anchorage","city_state_slug":"Anchorage.AK","brand":"Mercedes-Benz","website":"www.mbofanchorage.com","address":"1000 E 6th Ave","city":"Anchorage","state":"AK","zip":99501,"latitude":61.216164,"longitude":-149.8644873,"phone_number_service":"9072773383","phone_number_main":"8666132217","service_hours":"Mo-Fr 07:30 - 18:00","utc_offset":"-480","gplace_id":null,"gplace_url":"https://maps.google.com/?cid=18149293677953041429","dealerID":74824,"trusted":false,"image_id":"v1597283934/mercedes_RM.png","phone":"9072773383","cityStateSlug":"anchorage.ak","slug":"Anchorage.AK/mercedes+benz+of+anchorage","location":"61.216164,-149.8644873","brandsList":["mercedes-benz"]},{"id":171,"crm_id":67079584,"name":"Alaska Sales And - Anchorage","dealerSlug":"alaska+sales+and+anchorage","city_state_slug":"Anchorage.AK","brand":"Buick,Cadillac,Chevrolet,GMC","website":"www.aksalesanchorage.com","address":"1300 E 5th Ave","city":"Anchorage","state":"AK","zip":99501,"latitude":61.217083,"longitude":-149.857259,"phone_number_service":"8882740578","phone_number_main":"9072028553","service_hours":"Mo-Fr 07:00 - 18:00 | Sa 08:00 - 16:30","utc_offset":"-480","gplace_id":null,"gplace_url":"https://maps.google.com/?cid=8222056877114430643","dealerID":74825,"trusted":false,"image_id":"v1597283981/buick_RM.png","phone":"8882740578","cityStateSlug":"anchorage.ak","slug":"Anchorage.AK/alaska+sales+and+anchorage","location":"61.217083,-149.857259","brandsList":["buick","cadillac","chevrolet","gmc"]},{"id":7816,"crm_id":67079587,"name":"Kendall Ford of Anchorage","dealerSlug":"kendall+ford+of+anchorage","city_state_slug":"Anchorage.AK","brand":"Ford","website":"www.kendallfordanchorage.com","address":"1950 Gambell","city":"Anchorage","state":"AK","zip":99501,"latitude":61.202668,"longitude":-149.8692011,"phone_number_service":"8669380354","phone_number_main":"8665913517","service_hours":"Mo-Fr 07:00 - 18:00 | Sa 08:00 - 18:00","utc_offset":"-480","gplace_id":null,"gplace_url":"https://maps.google.com/?cid=13505932318396983771","dealerID":74826,"trusted":false,"image_id":"v1597283967/ford_RM.png","phone":"8669380354","cityStateSlug":"anchorage.ak","slug":"Anchorage.AK/kendall+ford+of+anchorage","location":"61.202668,-149.8692011","brandsList":["ford"]},{"id":3294,"crm_id":67079590,"name":"Continental Volvo Cars Anchorage","dealerSlug":"continental+volvo+cars+anchorage","city_state_slug":"Anchorage.AK","brand":"Volvo","website":"www.anchoragevolvocars.com","address":"4800 Old Seward Hwy","city":"Anchorage","state":"AK","zip":99503,"latitude":61.1769563,"longitude":-149.8690853,"phone_number_service":"9075632277","phone_number_main":"9075616686","service_hours":"Mo-Fr 07:00 - 18:00","utc_offset":"-480","gplace_id":null,"gplace_url":"https://maps.google.com/?cid=1840495272520764826","dealerID":74827,"trusted":false,"image_id":"v1597283901/volvo.jpg","phone":"9075632277","cityStateSlug":"anchorage.ak","slug":"Anchorage.AK/continental+volvo+cars+anchorage","location":"61.1769563,-149.8690853","brandsList":["volvo"]},{"id":3292,"crm_id":67079593,"name":"Continental Subaru","dealerSlug":"continental+subaru","city_state_slug":"Anchorage.AK","brand":"Subaru","website":"continental-subaru.com","address":"4900 Old Seward Hwy","city":"Anchorage","state":"AK","zip":99503,"latitude":61.1757035,"longitude":-149.8690889,"phone_number_service":"8888570871","phone_number_main":"9075622722","service_hours":"Mo-Fr 07:00 - 18:00","utc_offset":"-480","gplace_id":null,"gplace_url":"https://maps.google.com/?cid=511826243203749347","dealerID":74828,"trusted":false,"image_id":"v1597283982/subaru_ms.png","phone":"8888570871","cityStateSlug":"anchorage.ak","slug":"Anchorage.AK/continental+subaru","location":"61.1757035,-149.8690889","brandsList":["subaru"]},{"id":3282,"crm_id":67079596,"name":"Continental Acura","dealerSlug":"continental+acura","city_state_slug":"Anchorage.AK","brand":"Acura","website":"www.continental-acura.com","address":"5001 Old Seward Hwy","city":"Anchorage","state":"AK","zip":99503,"latitude":61.1754959,"longitude":-149.8666368,"phone_number_service":"9075632277","phone_number_main":"9075632277","service_hours":"Mo-Fr 07:00 - 18:00","utc_offset":"-480","gplace_id":null,"gplace_url":"https://maps.google.com/?cid=16133390482379748940","dealerID":74829,"trusted":false,"image_id":"v1597283988/acura.png","phone":"9075632277","cityStateSlug":"anchorage.ak","slug":"Anchorage.AK/continental+acura","location":"61.1754959,-149.8666368","brandsList":["acura"]},{"id":2884,"crm_id":67079599,"name":"Chevrolet of South Anchorage","dealerSlug":"chevrolet+of+south+anchorage","city_state_slug":"Anchorage.AK","brand":"Chevrolet","website":"www.anchoragechevrolet.com","address":"9100 Old Seward Hwy","city":"Anchorage","state":"AK","zip":99515,"latitude":61.1384044,"longitude":-149.8666965,"phone_number_service":"8669632695","phone_number_main":"9072054776","service_hours":"Mo-Fr 07:00 - 18:00 | Sa 08:00 - 17:00","utc_offset":"-480","gplace_id":null,"gplace_url":"https://maps.google.com/?cid=2855023763530123724","dealerID":74830,"trusted":false,"image_id":"v1597284079/chevy_ms.png","phone":"8669632695","cityStateSlug":"anchorage.ak","slug":"Anchorage.AK/chevrolet+of+south+anchorage","location":"61.1384044,-149.8666965","brandsList":["chevrolet"]},{"id":7818,"crm_id":67079602,"name":"Kendall Ford of Kenai","dealerSlug":"kendall+ford+of+kenai","city_state_slug":"Kenai.AK","brand":"Ford","website":"www.kendallfordkenai.com","address":"10288 Kenai Spur Hwy","city":"Kenai","state":"AK","zip":99611,"latitude":60.5615704,"longitude":-151.2307756,"phone_number_service":"8884335651","phone_number_main":"8663877984","service_hours":"Mo-Fr 07:30 - 17:30","utc_offset":"-480","gplace_id":null,"gplace_url":"https://maps.google.com/?cid=15021528580199293117","dealerID":74831,"trusted":false,"image_id":"v1597283967/ford_RM.png","phone":"8884335651","cityStateSlug":"kenai.ak","slug":"Kenai.AK/kendall+ford+of+kenai","location":"60.5615704,-151.2307756","brandsList":["ford"]},{"id":2867,"crm_id":67079608,"name":"Chevrolet Buick GMC of Fairbanks","dealerSlug":"chevrolet+buick+gmc+of+fairbanks","city_state_slug":"Fairbanks.AK","brand":"Buick,Chevrolet,GMC","website":"www.fairbankschevy.com","address":"3300 S Cushman St","city":"Fairbanks","state":"AK","zip":99701,"latitude":64.8157319,"longitude":-147.7131551,"phone_number_service":"9078850345","phone_number_main":"9072027398","service_hours":"Mo-Fr 07:30 - 18:00","utc_offset":"-480","gplace_id":null,"gplace_url":"https://maps.google.com/?cid=17059288635203281616","dealerID":74832,"trusted":false,"image_id":"v1597283981/buick_RM.png","phone":"9078850345","cityStateSlug":"fairbanks.ak","slug":"Fairbanks.AK/chevrolet+buick+gmc+of+fairbanks","location":"64.8157319,-147.7131551","brandsList":["buick","chevrolet","gmc"]},{"id":5466,"crm_id":67079611,"name":"Gene's Chrysler Dodge Jeep RAM","dealerSlug":"genes+chrysler+dodge+jeep+ram","city_state_slug":"Fairbanks.AK","brand":"Chrysler,Dodge,Jeep,RAM","website":"geneschrysler.com","address":"3400 S Cushman St","city":"Fairbanks","state":"AK","zip":99701,"latitude":64.8135399,"longitude":-147.7125165,"phone_number_service":"9074527117","phone_number_main":"9074527117","service_hours":"Mo-Fr 08:30 - 17:30","utc_offset":"-480","gplace_id":null,"gplace_url":"https://maps.google.com/?cid=12854581792587445797","dealerID":74833,"trusted":false,"image_id":"v1597283975/chrysler_RM.png","phone":"9074527117","cityStateSlug":"fairbanks.ak","slug":"Fairbanks.AK/genes+chrysler+dodge+jeep+ram","location":"64.8135399,-147.7125165","brandsList":["chrysler","dodge","jeep","ram"]},{"id":8877,"crm_id":101322685,"name":"Lithia Chrysler Jeep Dodge RAM of Wasilla","dealerSlug":"lithia+chrysler+jeep+dodge+ram+of+wasilla","city_state_slug":"Wasilla.AK","brand":"Chrysler,Dodge,Jeep,RAM","website":"www.wasilladodge.com","address":"2891 E Sun Mountain Ave","city":"Wasilla","state":"AK","zip":99654,"latitude":61.5724601,"longitude":-149.3761443,"phone_number_service":"8442856081","phone_number_main":"9072054755","service_hours":"Mo-Fr 07:00 - 18:00 | Sa 08:00 - 16:00","utc_offset":"-480","gplace_id":null,"gplace_url":"https://maps.google.com/?cid=17555150654811400396","dealerID":76570,"trusted":false,"image_id":"v1597283975/chrysler_RM.png","phone":"8442856081","cityStateSlug":"wasilla.ak","slug":"Wasilla.AK/lithia+chrysler+jeep+dodge+ram+of+wasilla","location":"61.5724601,-149.3761443","brandsList":["chrysler","dodge","jeep","ram"]},{"id":10124,"crm_id":114975427,"name":"MINI of Anchorage","dealerSlug":"mini+of+anchorage","city_state_slug":"Anchorage.AK","brand":"MINI","website":"www.minianchorage.com","address":"800 E 5th Ave","city":"Anchorage","state":"AK","zip":99501,"latitude":61.2171263,"longitude":-149.868367,"phone_number_service":"8555533128","phone_number_main":"9072029780","service_hours":"Mo-Fr 07:30 - 18:00 | Sa 09:00 - 17:00","utc_offset":"-480","gplace_id":null,"gplace_url":"https://maps.google.com/?cid=12169850619252107702","dealerID":76945,"trusted":false,"image_id":"v1597283930/mini_RM.png","phone":"8555533128","cityStateSlug":"anchorage.ak","slug":"Anchorage.AK/mini+of+anchorage","location":"61.2171263,-149.868367","brandsList":["mini"]}]