[{"id":17930,"crm_id":999,"name":"McLarty Nissan of Little Rock","dealerSlug":"mclarty+nissan+of+little+rock","city_state_slug":"Little-Rock.AR","brand":"Nissan","website":"www.mclartyauto.com","address":"1 Colonel Glenn Plaza Dr","city":"Little Rock","state":"AR","zip":72210,"latitude":34.711555,"longitude":-92.404399,"phone_number_service":"5017813429","phone_number_main":"5017125476","service_hours":"Mo-Sa 08:00 - 18:00","utc_offset":"","gplace_id":0,"gplace_url":"","dealerID":60018,"trusted":false,"image_id":"v1597283926/nissan_RM.png","phone":"5017813429","cityStateSlug":"little-rock.ar","slug":"Little-Rock.AR/mclarty+nissan+of+little+rock","location":"34.711555,-92.404399","brandsList":["nissan"]},{"id":17931,"crm_id":999,"name":"McLarty Volvo","dealerSlug":"mclarty+volvo","city_state_slug":"Little-Rock.AR","brand":"Volvo","website":"www.mclartyauto.com","address":"1500 North Shackleford Rd","city":"Little Rock","state":"AR","zip":72211,"latitude":34.768557,"longitude":-92.396919,"phone_number_service":"8442639438","phone_number_main":"8442639434","service_hours":"Mo-Fr 08:30 - 18:00 | Sa 09:00 -18:00","utc_offset":"","gplace_id":0,"gplace_url":"","dealerID":60019,"trusted":false,"image_id":"v1597283901/volvo.jpg","phone":"8442639438","cityStateSlug":"little-rock.ar","slug":"Little-Rock.AR/mclarty+volvo","location":"34.768557,-92.396919","brandsList":["volvo"]},{"id":17929,"crm_id":999,"name":"McLarty Lincoln","dealerSlug":"mclarty+lincoln","city_state_slug":"Little-Rock.AR","brand":"Lincoln","website":"www.mclartyauto.com","address":"4400 Landers Rd","city":"Little Rock","state":"AR","zip":72211,"latitude":34.79871,"longitude":-92.213401,"phone_number_service":"8883029550","phone_number_main":"","service_hours":"Mo-Fr 07:00 - 18:00 | Sa 08:00 - 17:00","utc_offset":"","gplace_id":0,"gplace_url":"","dealerID":60020,"trusted":false,"image_id":"v1597283942/lincoln_RM.png","phone":"8883029550","cityStateSlug":"little-rock.ar","slug":"Little-Rock.AR/mclarty+lincoln","location":"34.79871,-92.213401","brandsList":["lincoln"]},{"id":16217,"crm_id":999,"name":"Crain Hyundai Of Conway","dealerSlug":"crain+hyundai+of+conway","city_state_slug":"Conway.AR","brand":"Hyundai","website":"www.crainhyundaiofconway.com","address":"1003 N. Museum Road","city":"Conway","state":"AR","zip":72032,"latitude":35.0932824,"longitude":-92.4198789,"phone_number_service":"5014707300","phone_number_main":"","service_hours":"Mo-Fr 07:00 - 18:00 | Sa 08:00 - 15:00","utc_offset":"","gplace_id":0,"gplace_url":"","dealerID":60148,"trusted":false,"image_id":"v1597283959/hyundai_RM.png","phone":"5014707300","cityStateSlug":"conway.ar","slug":"Conway.AR/crain+hyundai+of+conway","location":"35.0932824,-92.4198789","brandsList":["hyundai"]},{"id":15927,"crm_id":999,"name":"Bayird Dodge Chryler Jeep RAM","dealerSlug":"bayird+dodge+chryler+jeep+ram","city_state_slug":"West-Memphis.AR","brand":"Chrysler,Dodge,Jeep,RAM","website":"www.bayirdofwestmemphis.com/","address":"1901 E Service Rd","city":"West Memphis","state":"AR","zip":72301,"latitude":35.158888,"longitude":-90.162215,"phone_number_service":"8702155300","phone_number_main":"","service_hours":"Mo-Fr 08:30 - 19:00 | Sa 08:30 - 17:00 | Su Closed","utc_offset":"","gplace_id":0,"gplace_url":"","dealerID":60305,"trusted":false,"image_id":"v1597283975/chrysler_RM.png","phone":"8702155300","cityStateSlug":"west-memphis.ar","slug":"West-Memphis.AR/bayird+dodge+chryler+jeep+ram","location":"35.158888,-90.162215","brandsList":["chrysler","dodge","jeep","ram"]},{"id":17284,"crm_id":999,"name":"Petrus Auto Sales","dealerSlug":"petrus+auto+sales","city_state_slug":"Stuttgart.AR","brand":"Chrysler,Dodge,Jeep,RAM","website":"www.petrusauto.net","address":"2350 Highway 63 N","city":"Stuttgart","state":"AR","zip":72160,"latitude":34.535867,"longitude":-91.556079,"phone_number_service":"8706734602","phone_number_main":"","service_hours":"Mo-Fr 08:00 - 17:30 | Sa 09:00 - 15:00 | Su Closed","utc_offset":"","gplace_id":0,"gplace_url":"","dealerID":60306,"trusted":false,"image_id":"v1597283975/chrysler_RM.png","phone":"8706734602","cityStateSlug":"stuttgart.ar","slug":"Stuttgart.AR/petrus+auto+sales","location":"34.535867,-91.556079","brandsList":["chrysler","dodge","jeep","ram"]},{"id":17285,"crm_id":999,"name":"Petrus Auto Sales","dealerSlug":"petrus+auto+sales","city_state_slug":"Stuttgart.AR","brand":"Ford","website":"www.petrusauto.com","address":"2350 Highway 63 North","city":"Stuttgart","state":"AR","zip":72160,"latitude":34.49586,"longitude":-91.540449,"phone_number_service":"8706734602","phone_number_main":"","service_hours":"Mo-Fr 08:00 - 17:30 | Sa 09:00 - 15:00 | Su Closed","utc_offset":"","gplace_id":0,"gplace_url":"","dealerID":60307,"trusted":false,"image_id":"v1597283967/ford_RM.png","phone":"8706734602","cityStateSlug":"stuttgart.ar","slug":"Stuttgart.AR/petrus+auto+sales","location":"34.49586,-91.540449","brandsList":["ford"]},{"id":16095,"crm_id":999,"name":"Cannon Ford of Blytheville","dealerSlug":"cannon+ford+of+blytheville","city_state_slug":"Blytheville.AR","brand":"Ford","website":"www.cannonfordblytheville.com","address":"305 North Service Road","city":"Blytheville","state":"AR","zip":72315,"latitude":35.932069,"longitude":-89.874938,"phone_number_service":"8707634453","phone_number_main":"","service_hours":"Mo-Fr 08:00 - 18:00 | Sa 08:00 - 17:00 | Su Closed","utc_offset":"","gplace_id":0,"gplace_url":"","dealerID":60309,"trusted":false,"image_id":"v1597283967/ford_RM.png","phone":"8707634453","cityStateSlug":"blytheville.ar","slug":"Blytheville.AR/cannon+ford+of+blytheville","location":"35.932069,-89.874938","brandsList":["ford"]},{"id":17897,"crm_id":999,"name":"York Gary Autoplex","dealerSlug":"york+gary+autoplex","city_state_slug":"Nashville.AR","brand":"Chrysler,Dodge,Jeep,RAM","website":"www.yorkgaryautoplex.net","address":"1420 West Leslie","city":"Nashville","state":"AR","zip":71852,"latitude":33.952029,"longitude":-93.860415,"phone_number_service":"8708451536","phone_number_main":"","service_hours":"Mo-Fr 07:30 - 17:30 | Sa 07:30 - 24:00 | Su Closed","utc_offset":"","gplace_id":0,"gplace_url":"","dealerID":60638,"trusted":false,"image_id":"v1597283975/chrysler_RM.png","phone":"8708451536","cityStateSlug":"nashville.ar","slug":"Nashville.AR/york+gary+autoplex","location":"33.952029,-93.860415","brandsList":["chrysler","dodge","jeep","ram"]},{"id":17462,"crm_id":999,"name":"Ryburn Motor Company","dealerSlug":"ryburn+motor+company","city_state_slug":"Monticello.AR","brand":"Chrysler,Dodge,Jeep,RAM","website":"www.ryburnmotor.com","address":"156 Highway 425 S","city":"Monticello","state":"AR","zip":71655,"latitude":33.627033,"longitude":-91.803087,"phone_number_service":"8703678531","phone_number_main":"","service_hours":"Mo-Fr 08:00 - 18:00 | Sa 09:00 - 15:00 | Su Closed","utc_offset":"","gplace_id":0,"gplace_url":"","dealerID":60688,"trusted":false,"image_id":"v1597283975/chrysler_RM.png","phone":"8703678531","cityStateSlug":"monticello.ar","slug":"Monticello.AR/ryburn+motor+company","location":"33.627033,-91.803087","brandsList":["chrysler","dodge","jeep","ram"]},{"id":16971,"crm_id":999,"name":"Mark Martin Chrysler Dodge Jeep RAM","dealerSlug":"mark+martin+chrysler+dodge+jeep+ram","city_state_slug":"Melbourne.AR","brand":"Chrysler,Dodge,Jeep,RAM","website":"www.markmartincdjr.com","address":"1570 East Main Street","city":"Melbourne","state":"AR","zip":72556,"latitude":36.058526,"longitude":-91.879264,"phone_number_service":"8703687329","phone_number_main":"","service_hours":"Mo-Fr 08:00 - 18:00 | Sa 09:00 - 16:00 | Su Closed","utc_offset":"","gplace_id":0,"gplace_url":"","dealerID":60694,"trusted":false,"image_id":"v1597283975/chrysler_RM.png","phone":"8703687329","cityStateSlug":"melbourne.ar","slug":"Melbourne.AR/mark+martin+chrysler+dodge+jeep+ram","location":"36.058526,-91.879264","brandsList":["chrysler","dodge","jeep","ram"]},{"id":16218,"crm_id":999,"name":"Crain Hyundai Of Fayetteville","dealerSlug":"crain+hyundai+of+fayetteville","city_state_slug":"Fayetteville.AR","brand":"Hyundai","website":"www.crainhyundaioffayetteville.com","address":"1919 W Foxglove Drive","city":"Fayetteville","state":"AR","zip":72704,"latitude":36.100921,"longitude":-94.185533,"phone_number_service":"4797504997","phone_number_main":"","service_hours":"Mo-Fr 07:00 - 18:00 | Sa 07:30 - 15:00","utc_offset":"","gplace_id":0,"gplace_url":"","dealerID":60796,"trusted":false,"image_id":"v1597283959/hyundai_RM.png","phone":"4797504997","cityStateSlug":"fayetteville.ar","slug":"Fayetteville.AR/crain+hyundai+of+fayetteville","location":"36.100921,-94.185533","brandsList":["hyundai"]},{"id":16383,"crm_id":999,"name":"Everett Ford","dealerSlug":"everett+ford","city_state_slug":"Benton.AR","brand":"Ford","website":"www.everettford.com","address":"19723 Interstate 30","city":"Benton","state":"AR","zip":72015,"latitude":34.599587,"longitude":-92.549636,"phone_number_service":"5013154700","phone_number_main":"","service_hours":"Mo-Sa 08:00 - 19:00 | Su Closed","utc_offset":"","gplace_id":0,"gplace_url":"","dealerID":60804,"trusted":false,"image_id":"v1597283967/ford_RM.png","phone":"5013154700","cityStateSlug":"benton.ar","slug":"Benton.AR/everett+ford","location":"34.599587,-92.549636","brandsList":["ford"]},{"id":17013,"crm_id":999,"name":"Mclarty Nissan Of Benton","dealerSlug":"mclarty+nissan+of+benton","city_state_slug":"Benton.AR","brand":"Nissan","website":"www.mclartynissanbenton.com","address":"19960 I-30 NORTH","city":"Benton","state":"AR","zip":72019,"latitude":34.6022584,"longitude":-92.5466093,"phone_number_service":"5015750995","phone_number_main":"","service_hours":"Mo-Sa 10:00 - 18:00\n | Su Closed","utc_offset":"","gplace_id":0,"gplace_url":"","dealerID":60806,"trusted":false,"image_id":"v1597283926/nissan_RM.png","phone":"5015750995","cityStateSlug":"benton.ar","slug":"Benton.AR/mclarty+nissan+of+benton","location":"34.6022584,-92.5466093","brandsList":["nissan"]},{"id":17398,"crm_id":999,"name":"Riser Harness Ford","dealerSlug":"riser+harness+ford","city_state_slug":"Searcy.AR","brand":"Ford","website":"www.riserharnessford.com","address":"2000 East Race","city":"Searcy","state":"AR","zip":72143,"latitude":35.250754,"longitude":-91.714666,"phone_number_service":"5012682486","phone_number_main":"","service_hours":"Mo-Fr 08:30 - 19:00 | Sa 08:30 - 17:00 | Su Closed","utc_offset":"","gplace_id":0,"gplace_url":"","dealerID":60818,"trusted":false,"image_id":"v1597283967/ford_RM.png","phone":"5012682486","cityStateSlug":"searcy.ar","slug":"Searcy.AR/riser+harness+ford","location":"35.250754,-91.714666","brandsList":["ford"]},{"id":2678,"crm_id":999,"name":"Cavenaugh Hyundai Jonesboro","dealerSlug":"cavenaugh+hyundai+jonesboro","city_state_slug":"Jonesboro.AR","brand":"Hyundai","website":"www.cavenaughhyundai.com/","address":"2020 Wilkins Avenue","city":"Jonesboro","state":"AR","zip":72401,"latitude":35.8257878,"longitude":-90.6802775,"phone_number_service":"8708024451","phone_number_main":"8708862414","service_hours":"Mo-Fr 07:30 - 17:30 | Sa 08:00 - 12:00","utc_offset":"-300","gplace_id":null,"gplace_url":"https://maps.google.com/?cid=9918096735769375892","dealerID":60833,"trusted":false,"image_id":"v1597283959/hyundai_RM.png","phone":"8708024451","cityStateSlug":"jonesboro.ar","slug":"Jonesboro.AR/cavenaugh+hyundai+jonesboro","location":"35.8257878,-90.6802775","brandsList":["hyundai"]},{"id":17011,"crm_id":999,"name":"McLarty Daniel Ford","dealerSlug":"mclarty+daniel+ford","city_state_slug":"Bentonville.AR","brand":"Ford","website":"www.bentonvilleford.com","address":"2609 South Walton Boulevard","city":"Bentonville","state":"AR","zip":72712,"latitude":36.345652,"longitude":-94.210711,"phone_number_service":"4792552424","phone_number_main":"","service_hours":"Mo-Sa 08:00 - 19:00 | Su Closed","utc_offset":"","gplace_id":0,"gplace_url":"","dealerID":61001,"trusted":false,"image_id":"v1597283967/ford_RM.png","phone":"4792552424","cityStateSlug":"bentonville.ar","slug":"Bentonville.AR/mclarty+daniel+ford","location":"36.345652,-94.210711","brandsList":["ford"]},{"id":16098,"crm_id":999,"name":"Cannon Nissan/blytheville","dealerSlug":"cannon+nissan+blytheville","city_state_slug":"Blytheville.AR","brand":"Nissan","website":"www.cannonnissanblytheville.com","address":"305 NORTH SERVICE RD","city":"Blytheville","state":"AR","zip":72315,"latitude":35.9321157,"longitude":-89.8762029,"phone_number_service":"8707632800","phone_number_main":"","service_hours":"Mo-Fr 09:00 - 18:00\n | Sa 08:00 - 18:00\n | Su Closed","utc_offset":"","gplace_id":0,"gplace_url":"","dealerID":61092,"trusted":false,"image_id":"v1597283926/nissan_RM.png","phone":"8707632800","cityStateSlug":"blytheville.ar","slug":"Blytheville.AR/cannon+nissan+blytheville","location":"35.9321157,-89.8762029","brandsList":["nissan"]},{"id":16219,"crm_id":999,"name":"Crain Hyundai Of Fort Smith","dealerSlug":"crain+hyundai+of+fort+smith","city_state_slug":"Fort-Smith.AR","brand":"Hyundai","website":"www.crainhyundaiftsmith.com","address":"3600 S Zero Street","city":"Fort Smith","state":"AR","zip":72908,"latitude":35.2994544,"longitude":-94.4079213,"phone_number_service":"4794242440","phone_number_main":"","service_hours":"Mo-Fr 07:00 - 18:00 | Sa 08:00 - 15:00","utc_offset":"","gplace_id":0,"gplace_url":"","dealerID":61192,"trusted":false,"image_id":"v1597283959/hyundai_RM.png","phone":"4794242440","cityStateSlug":"fort-smith.ar","slug":"Fort-Smith.AR/crain+hyundai+of+fort+smith","location":"35.2994544,-94.4079213","brandsList":["hyundai"]},{"id":17009,"crm_id":999,"name":"McLarty Daniel Chrysler, Dodge, Jeep, RAM, FIAT of Springdale","dealerSlug":"mclarty+daniel+chrysler+dodge+jeep+ram+fiat+of+springdale","city_state_slug":"Springdale.AR","brand":"Chrysler,Dodge,Jeep,RAM,Fiat","website":"www.springdalecdjr.com","address":"3709 S Thompson St","city":"Springdale","state":"AR","zip":72764,"latitude":36.151428,"longitude":-94.142798,"phone_number_service":"4797514563","phone_number_main":"","service_hours":"Mo-Sa 08:30 - 19:00 | Su Closed","utc_offset":"","gplace_id":0,"gplace_url":"","dealerID":61207,"trusted":false,"image_id":"v1597283975/chrysler_RM.png","phone":"4797514563","cityStateSlug":"springdale.ar","slug":"Springdale.AR/mclarty+daniel+chrysler+dodge+jeep+ram+fiat+of+springdale","location":"36.151428,-94.142798","brandsList":["chrysler","dodge","jeep","ram","fiat"]},{"id":15931,"crm_id":999,"name":"Bayird Dodge Chrysler Jeep RAM","dealerSlug":"bayird+dodge+chrysler+jeep+ram","city_state_slug":"Blytheville.AR","brand":"Chrysler,Dodge,Jeep,RAM","website":"www.bayirddodgechryslerjeepram.net","address":"3910 E. Main St.","city":"Blytheville","state":"AR","zip":72315,"latitude":35.928827,"longitude":-89.863254,"phone_number_service":"8707806500","phone_number_main":"","service_hours":"Mo-Fr 08:00 - 19:00 | Sa 08:00 - 17:00 | Su Closed","utc_offset":"","gplace_id":0,"gplace_url":"","dealerID":61222,"trusted":false,"image_id":"v1597283975/chrysler_RM.png","phone":"8707806500","cityStateSlug":"blytheville.ar","slug":"Blytheville.AR/bayird+dodge+chrysler+jeep+ram","location":"35.928827,-89.863254","brandsList":["chrysler","dodge","jeep","ram"]},{"id":16524,"crm_id":999,"name":"Gregg Orr Honda","dealerSlug":"gregg+orr+honda","city_state_slug":"Hot-Springs.AR","brand":"Honda","website":"www.hondaofhotsprings.com/","address":"4701 Central Ave","city":"Hot Springs","state":"AR","zip":71913,"latitude":34.447247,"longitude":-93.08886,"phone_number_service":"5015254565","phone_number_main":"","service_hours":"Mo-Fr 08:30 - 19:00 | Sa 09:00 - 18:00 | Su Closed","utc_offset":"","gplace_id":0,"gplace_url":"","dealerID":61321,"trusted":false,"image_id":"v1597284047/honda_ms.png","phone":"5015254565","cityStateSlug":"hot-springs.ar","slug":"Hot-Springs.AR/gregg+orr+honda","location":"34.447247,-93.08886","brandsList":["honda"]},{"id":16525,"crm_id":999,"name":"Gregg Orr Toyota","dealerSlug":"gregg+orr+toyota","city_state_slug":"Hot-Springs.AR","brand":"Toyota","website":"www.orrtoyota.com","address":"4709 Central Avenue","city":"Hot Springs","state":"AR","zip":71913,"latitude":34.445749,"longitude":-93.089124,"phone_number_service":"18504329903","phone_number_main":"","service_hours":"Mo-Fr 08:30 - 19:00 | Sa 08:30 - 18:00","utc_offset":"","gplace_id":0,"gplace_url":"","dealerID":61323,"trusted":false,"image_id":"v1597284039/toyota_ms.png","phone":"18504329903","cityStateSlug":"hot-springs.ar","slug":"Hot-Springs.AR/gregg+orr+toyota","location":"34.445749,-93.089124","brandsList":["toyota"]},{"id":15928,"crm_id":999,"name":"Bayird Dodge Chrysler Jeep","dealerSlug":"bayird+dodge+chrysler+jeep","city_state_slug":"Paragould.AR","brand":"Chrysler,Dodge,Jeep,RAM","website":"www.bayirddodgechryslerjeep.net","address":"6340 Highway 49 S","city":"Paragould","state":"AR","zip":72450,"latitude":35.982629,"longitude":-90.544368,"phone_number_service":"8707255093","phone_number_main":"8705207693","service_hours":"Mo-Fr 08:30 - 19:00 | Sa 08:00 - 17:00 | Su Closed","utc_offset":"","gplace_id":0,"gplace_url":"","dealerID":61473,"trusted":false,"image_id":"v1597283975/chrysler_RM.png","phone":"8707255093","cityStateSlug":"paragould.ar","slug":"Paragould.AR/bayird+dodge+chrysler+jeep","location":"35.982629,-90.544368","brandsList":["chrysler","dodge","jeep","ram"]},{"id":17369,"crm_id":999,"name":"Red River Dodge Chrysler Jeep of Malvern","dealerSlug":"red+river+dodge+chrysler+jeep+of+malvern","city_state_slug":"Malvern.AR","brand":"Chrysler,Dodge,Jeep","website":"www.redriverdcjofmalvern.com","address":"716 Martin Luther King Blvd","city":"Malvern","state":"AR","zip":72104,"latitude":34.375218,"longitude":-92.826317,"phone_number_service":"5013379600","phone_number_main":"","service_hours":"Mo-Fr 09:00 - 19:00 | Sa 09:00 - 18:00 | Su Closed","utc_offset":"","gplace_id":0,"gplace_url":"","dealerID":61534,"trusted":false,"image_id":"v1597283975/chrysler_RM.png","phone":"5013379600","cityStateSlug":"malvern.ar","slug":"Malvern.AR/red+river+dodge+chrysler+jeep+of+malvern","location":"34.375218,-92.826317","brandsList":["chrysler","dodge","jeep"]},{"id":12360,"crm_id":51925216,"name":"Riser Ford Lincoln","dealerSlug":"riser+ford+lincoln","city_state_slug":"Hot-Springs.AR","brand":"Ford,Lincoln","website":"www.riserford.com","address":"4201 Central Ave","city":"Hot Springs","state":"AR","zip":71913,"latitude":34.451501,"longitude":-93.069995,"phone_number_service":"5015005349","phone_number_main":"5014431851","service_hours":"Mo-Fr 08:00 - 17:00 | Sa 08:00 - 12:00","utc_offset":"-300","gplace_id":null,"gplace_url":"https://maps.google.com/?cid=7542036932570514348","dealerID":61929,"trusted":false,"image_id":"v1597283967/ford_RM.png","phone":"5015005349","cityStateSlug":"hot-springs.ar","slug":"Hot-Springs.AR/riser+ford+lincoln","location":"34.451501,-93.069995","brandsList":["ford","lincoln"]},{"id":80,"crm_id":51926068,"name":"Acura of Little Rock","dealerSlug":"acura+of+little+rock","city_state_slug":"Little-Rock.AR","brand":"Acura","website":"www.acuraoflittlerock.com","address":"13701 David O Dodd Rd","city":"Little Rock","state":"AR","zip":72210,"latitude":34.7091686,"longitude":-92.4096945,"phone_number_service":"8883278978","phone_number_main":"5014488000","service_hours":"Mo-Fr 07:30 - 18:00 | Sa 08:00 - 12:00","utc_offset":"-300","gplace_id":null,"gplace_url":"https://maps.google.com/?cid=2846351079050133373","dealerID":62078,"trusted":false,"image_id":"v1597283988/acura.png","phone":"8883278978","cityStateSlug":"little-rock.ar","slug":"Little-Rock.AR/acura+of+little+rock","location":"34.7091686,-92.4096945","brandsList":["acura"]},{"id":12079,"crm_id":64845793,"name":"Randall Ford","dealerSlug":"randall+ford","city_state_slug":"Fort-Smith.AR","brand":"Ford","website":"www.randallford.net","address":"5500 Rogers Ave","city":"Fort Smith","state":"AR","zip":72903,"latitude":35.3605019,"longitude":-94.371204,"phone_number_service":"8886193677","phone_number_main":"4794521311","service_hours":"Mo-Fr 07:00 - 18:00| Sa 07:00 - 13:00","utc_offset":"-300","gplace_id":null,"gplace_url":"https://maps.google.com/?cid=10248946677128329234","dealerID":62580,"trusted":false,"image_id":"v1597283967/ford_RM.png","phone":"8886193677","cityStateSlug":"fort-smith.ar","slug":"Fort-Smith.AR/randall+ford","location":"35.3605019,-94.371204","brandsList":["ford"]},{"id":14637,"crm_id":67032175,"name":"Trotter Ford Lincoln","dealerSlug":"trotter+ford+lincoln","city_state_slug":"Pine-Bluff.AR","brand":"Ford,Lincoln","website":"www.trotterford.com","address":"3801 Bobo Rd","city":"Pine Bluff","state":"AR","zip":71603,"latitude":34.1794768,"longitude":-92.0412095,"phone_number_service":"8703991243","phone_number_main":"8705354321","service_hours":"Mo-Fr 07:30 - 17:30","utc_offset":"-300","gplace_id":null,"gplace_url":"https://maps.google.com/?cid=8042428554296286590","dealerID":62806,"trusted":false,"image_id":"v1597283967/ford_RM.png","phone":"8703991243","cityStateSlug":"pine-bluff.ar","slug":"Pine-Bluff.AR/trotter+ford+lincoln","location":"34.1794768,-92.0412095","brandsList":["ford","lincoln"]},{"id":3443,"crm_id":67032355,"name":"Crain Buick GMC","dealerSlug":"crain+buick+gmc","city_state_slug":"Conway.AR","brand":"Buick,GMC","website":"www.crainteamconway.com","address":"710 S Amity Rd","city":"Conway","state":"AR","zip":72032,"latitude":35.070491,"longitude":-92.4151615,"phone_number_service":"8778922241","phone_number_main":"5013296825","service_hours":"Mo-Fr 07:00 - 18:00 | Sa 08:00 - 15:00","utc_offset":"-300","gplace_id":null,"gplace_url":"https://maps.google.com/?cid=16982637068029150468","dealerID":62856,"trusted":false,"image_id":"v1597283981/buick_RM.png","phone":"8778922241","cityStateSlug":"conway.ar","slug":"Conway.AR/crain+buick+gmc","location":"35.070491,-92.4151615","brandsList":["buick","gmc"]},{"id":1528,"crm_id":67032415,"name":"Bill White Imports","dealerSlug":"bill+white+imports","city_state_slug":"Fort-Smith.AR","brand":"Volkswagen","website":"www.billwhitevw.com","address":"3510 S Zero St","city":"Fort Smith","state":"AR","zip":72908,"latitude":35.327006,"longitude":-94.396519,"phone_number_service":"8557684745","phone_number_main":"4796483510","service_hours":"Mo-Fr 07:30 - 17:30 | Sa 08:00 - 13:00","utc_offset":"-300","gplace_id":null,"gplace_url":"https://maps.google.com/?cid=10753051516256136953","dealerID":62873,"trusted":false,"image_id":"v1597283902/volkswagen.png","phone":"8557684745","cityStateSlug":"fort-smith.ar","slug":"Fort-Smith.AR/bill+white+imports","location":"35.327006,-94.396519","brandsList":["volkswagen"]},{"id":14638,"crm_id":67032424,"name":"Trotter Nissan","dealerSlug":"trotter+nissan","city_state_slug":"El-Dorado.AR","brand":"Nissan","website":"www.trotternissan.com","address":"1910 West Hillsboro","city":"El Dorado","state":"AR","zip":71730,"latitude":33.208174,"longitude":-92.689732,"phone_number_service":"8889281827","phone_number_main":"8708644700","service_hours":"Mo-Fr  08:00 - 17:00 | Sa 08:00 - 14:00","utc_offset":"-300","gplace_id":null,"gplace_url":"https://maps.google.com/?cid=14693275944786354295","dealerID":62875,"trusted":false,"image_id":"v1597283926/nissan_RM.png","phone":"8889281827","cityStateSlug":"el-dorado.ar","slug":"El-Dorado.AR/trotter+nissan","location":"33.208174,-92.689732","brandsList":["nissan"]},{"id":5496,"crm_id":67032733,"name":"George Nunnally Chevrolet","dealerSlug":"george+nunnally+chevrolet","city_state_slug":"Bentonville.AR","brand":"Chevrolet","website":"www.bentonvillechevrolet.com","address":"2700 SE Moberly Ln","city":"Bentonville","state":"AR","zip":72712,"latitude":36.3434902,"longitude":-94.184926,"phone_number_service":"8882853506","phone_number_main":"4792735555","service_hours":"Mo-Fr 07:00 - 17:30 | Sa 08:00 - 12:00","utc_offset":"-300","gplace_id":null,"gplace_url":"https://maps.google.com/?cid=11166398586213941578","dealerID":62963,"trusted":false,"image_id":"v1597284079/chevy_ms.png","phone":"8882853506","cityStateSlug":"bentonville.ar","slug":"Bentonville.AR/george+nunnally+chevrolet","location":"36.3434902,-94.184926","brandsList":["chevrolet"]},{"id":6124,"crm_id":67033153,"name":"Harris Ford","dealerSlug":"harris+ford","city_state_slug":"Newport.AR","brand":"Ford","website":"www.harris-ford.com","address":"3710 South Van Dyke Road","city":"Newport","state":"AR","zip":72112,"latitude":35.640384,"longitude":-91.2408746,"phone_number_service":"8885238737","phone_number_main":"8705235559","service_hours":"Mo-Fr 07:30 - 17:00","utc_offset":"-300","gplace_id":null,"gplace_url":"https://maps.google.com/?cid=17647862330859465239","dealerID":63077,"trusted":false,"image_id":"v1597283967/ford_RM.png","phone":"8885238737","cityStateSlug":"newport.ar","slug":"Newport.AR/harris+ford","location":"35.640384,-91.2408746","brandsList":["ford"]},{"id":12746,"crm_id":67033156,"name":"Ryburn Motor Company","dealerSlug":"ryburn+motor+company","city_state_slug":"Monticello.AR","brand":"Ford","website":"www.ryburnford.com","address":"156 Highway 425 South","city":"Monticello","state":"AR","zip":71655,"latitude":33.6271505,"longitude":-91.803541,"phone_number_service":"8776922205","phone_number_main":"8703675353","service_hours":"Mo-Fr 07:30 - 18:00","utc_offset":"-300","gplace_id":null,"gplace_url":"https://maps.google.com/?cid=11576639263752147207","dealerID":63078,"trusted":false,"image_id":"v1597283967/ford_RM.png","phone":"8776922205","cityStateSlug":"monticello.ar","slug":"Monticello.AR/ryburn+motor+company","location":"33.6271505,-91.803541","brandsList":["ford"]},{"id":1213,"crm_id":67034284,"name":"Ben Eddings Auto Group","dealerSlug":"ben+eddings+auto+group","city_state_slug":"Harrison.AR","brand":"Buick,Cadillac,GMC","website":"www.beneddings.com","address":"200 Highway 65 Bypass South","city":"Harrison","state":"AR","zip":72601,"latitude":36.2316819,"longitude":-93.0928908,"phone_number_service":"8772419635","phone_number_main":"8707412911","service_hours":"Mo-Fr 08:00 - 17:00","utc_offset":"-300","gplace_id":null,"gplace_url":"https://maps.google.com/?cid=9676589193960779594","dealerID":63389,"trusted":false,"image_id":"v1597283981/buick_RM.png","phone":"8772419635","cityStateSlug":"harrison.ar","slug":"Harrison.AR/ben+eddings+auto+group","location":"36.2316819,-93.0928908","brandsList":["buick","cadillac","gmc"]},{"id":13920,"crm_id":67034296,"name":"Superior Buick GMC","dealerSlug":"superior+buick+gmc","city_state_slug":"Fayetteville.AR","brand":"Buick,GMC","website":"www.superiorgmcnwa.com","address":"4264 N College Ave","city":"Fayetteville","state":"AR","zip":72703,"latitude":36.1289296,"longitude":-94.1440575,"phone_number_service":"4796956303","phone_number_main":"4796956303","service_hours":"Mo-Fr 07:00 - 18:00 | Sa 08:00 - 15:00","utc_offset":"-300","gplace_id":null,"gplace_url":"https://maps.google.com/?cid=10349424316240158919","dealerID":63393,"trusted":false,"image_id":"v1597283981/buick_RM.png","phone":"4796956303","cityStateSlug":"fayetteville.ar","slug":"Fayetteville.AR/superior+buick+gmc","location":"36.1289296,-94.1440575","brandsList":["buick","gmc"]},{"id":6538,"crm_id":67034602,"name":"Holt Auto Group","dealerSlug":"holt+auto+group","city_state_slug":"Crossett.AR","brand":"Buick,Chevrolet,GMC","website":"www.holtautogroup.net","address":"905 Unity Rd","city":"Crossett","state":"AR","zip":71635,"latitude":33.1390886,"longitude":-91.9429271,"phone_number_service":"8702290030","phone_number_main":"8706264623","service_hours":"Mo-Fr 08:00 - 17:00","utc_offset":"-300","gplace_id":null,"gplace_url":"https://maps.google.com/?cid=8186784916291932431","dealerID":63482,"trusted":false,"image_id":"v1597283981/buick_RM.png","phone":"8702290030","cityStateSlug":"crossett.ar","slug":"Crossett.AR/holt+auto+group","location":"33.1390886,-91.9429271","brandsList":["buick","chevrolet","gmc"]},{"id":11196,"crm_id":67034851,"name":"Parker Lexus","dealerSlug":"parker+lexus","city_state_slug":"Little-Rock.AR","brand":"Lexus","website":"parkerlexus.com","address":"1 Shackleford W Blvd","city":"Little Rock","state":"AR","zip":72211,"latitude":34.7407133,"longitude":-92.3953841,"phone_number_service":"8552585713","phone_number_main":"8558298170","service_hours":"Mo-Fr 07:30 - 17:30","utc_offset":"-300","gplace_id":null,"gplace_url":"https://maps.google.com/?cid=4211719353829363977","dealerID":63552,"trusted":false,"image_id":"v1597284042/lexus_ms.png","phone":"8552585713","cityStateSlug":"little-rock.ar","slug":"Little-Rock.AR/parker+lexus","location":"34.7407133,-92.3953841","brandsList":["lexus"]},{"id":4596,"crm_id":67035382,"name":"Everett Buick GMC","dealerSlug":"everett+buick+gmc","city_state_slug":"Bryant.AR","brand":"Buick,GMC","website":"www.everettbgmc.com","address":"21115 Interstate 30","city":"Bryant","state":"AR","zip":72022,"latitude":34.6058648,"longitude":-92.5293219,"phone_number_service":"5014294142","phone_number_main":"5015749944","service_hours":"Mo-Fr 07:00 - 18:00 | Sa 07:00 - 17:00","utc_offset":"-300","gplace_id":null,"gplace_url":"https://maps.google.com/?cid=3691262042077217127","dealerID":63692,"trusted":false,"image_id":"v1597283981/buick_RM.png","phone":"5014294142","cityStateSlug":"bryant.ar","slug":"Bryant.AR/everett+buick+gmc","location":"34.6058648,-92.5293219","brandsList":["buick","gmc"]},{"id":6753,"crm_id":67035823,"name":"Hug Chevrolet Buick GMC","dealerSlug":"hug+chevrolet+buick+gmc","city_state_slug":"Charleston.AR","brand":"Buick,Chevrolet,GMC","website":"www.huggm.com","address":"415 E Main St","city":"Charleston","state":"AR","zip":72933,"latitude":35.2968843,"longitude":-94.0389423,"phone_number_service":"8668457679","phone_number_main":"8666052851","service_hours":"Mo-Fr 08:00 - 17:00","utc_offset":"-300","gplace_id":null,"gplace_url":"https://maps.google.com/?cid=4644859080257988914","dealerID":63815,"trusted":false,"image_id":"v1597283981/buick_RM.png","phone":"8668457679","cityStateSlug":"charleston.ar","slug":"Charleston.AR/hug+chevrolet+buick+gmc","location":"35.2968843,-94.0389423","brandsList":["buick","chevrolet","gmc"]},{"id":13634,"crm_id":67035871,"name":"Steve Landers Chrysler Dodge Jeep RAM","dealerSlug":"steve+landers+chrysler+dodge+jeep+ram","city_state_slug":"Little-Rock.AR","brand":"Kia","website":"landerscountry.com","address":"401 Colonel Glenn Plaza Loop","city":"Little Rock","state":"AR","zip":72210,"latitude":34.7060635,"longitude":-92.4059269,"phone_number_service":"8559789693","phone_number_main":"5014049103","service_hours":"Mo-Fr 07:00 - 18:00 | Sa 08:00 - 15:00","utc_offset":"-300","gplace_id":null,"gplace_url":"https://maps.google.com/?cid=11158802487400302804","dealerID":63828,"trusted":false,"image_id":"v1597283948/kia_RM.png","phone":"8559789693","cityStateSlug":"little-rock.ar","slug":"Little-Rock.AR/steve+landers+chrysler+dodge+jeep+ram","location":"34.7060635,-92.4059269","brandsList":["kia"]},{"id":3452,"crm_id":67036360,"name":"Crain Kia of Sherwood","dealerSlug":"crain+kia+of+sherwood","city_state_slug":"Sherwood.AR","brand":"Kia","website":"www.crainkia.com","address":"5830 Warden Rd","city":"Sherwood","state":"AR","zip":72120,"latitude":34.8093869,"longitude":-92.2085791,"phone_number_service":"5015425200","phone_number_main":"5014364852","service_hours":"Mo-Fr 07:00 - 18:00 | Sa 07:30 - 15:00","utc_offset":"-300","gplace_id":null,"gplace_url":"https://maps.google.com/?cid=5349958045369642878","dealerID":63955,"trusted":false,"image_id":"v1597283948/kia_RM.png","phone":"5015425200","cityStateSlug":"sherwood.ar","slug":"Sherwood.AR/crain+kia+of+sherwood","location":"34.8093869,-92.2085791","brandsList":["kia"]},{"id":13924,"crm_id":67036867,"name":"Superior Chevrolet Buick GMC","dealerSlug":"superior+chevrolet+buick+gmc","city_state_slug":"Siloam-Springs.AR","brand":"Buick,Chevrolet,GMC","website":"www.superiorchevroletnwa.com","address":"490 E. Highway 412","city":"Siloam Springs","state":"AR","zip":72761,"latitude":36.1716258,"longitude":-94.5374744,"phone_number_service":"4792821645","phone_number_main":"4792821645","service_hours":"Mo-Fr 07:00 - 18:00 | Sa 08:00 - 15:00","utc_offset":"-300","gplace_id":null,"gplace_url":"https://maps.google.com/?cid=7977130194301327244","dealerID":64101,"trusted":false,"image_id":"v1597283981/buick_RM.png","phone":"4792821645","cityStateSlug":"siloam-springs.ar","slug":"Siloam-Springs.AR/superior+chevrolet+buick+gmc","location":"36.1716258,-94.5374744","brandsList":["buick","chevrolet","gmc"]},{"id":14697,"crm_id":67037434,"name":"Tyler Ford","dealerSlug":"tyler+ford","city_state_slug":"Booneville.AR","brand":"Ford","website":"www.randaltylerford.com","address":"1837 AR-10","city":"Booneville","state":"AR","zip":72927,"latitude":35.1414366,"longitude":-93.9512442,"phone_number_service":"8889288330","phone_number_main":"4796752313","service_hours":"Mo-Fr 08:00 - 17:00","utc_offset":"-300","gplace_id":null,"gplace_url":"https://maps.google.com/?cid=10310332493540927048","dealerID":64258,"trusted":false,"image_id":"v1597283967/ford_RM.png","phone":"8889288330","cityStateSlug":"booneville.ar","slug":"Booneville.AR/tyler+ford","location":"35.1414366,-93.9512442","brandsList":["ford"]},{"id":11034,"crm_id":67037455,"name":"Orr Chrysler Dodge Jeep RAM of Russellville","dealerSlug":"orr+chrysler+dodge+jeep+ram+of+russellville","city_state_slug":"Russellville.AR","brand":"Chrysler,Dodge,Jeep,RAM","website":"orrchryslerdodgejeepramofrussellville.com","address":"3115 E Main St","city":"Russellville","state":"AR","zip":72802,"latitude":35.2776984,"longitude":-93.0914969,"phone_number_service":"4794395633","phone_number_main":"4799684566","service_hours":"Mo-Fr 07:30 - 17:30 | Sa 08:00 - 12:00","utc_offset":"-300","gplace_id":null,"gplace_url":"https://maps.google.com/?cid=6256004349281397868","dealerID":64264,"trusted":false,"image_id":"v1597283975/chrysler_RM.png","phone":"4794395633","cityStateSlug":"russellville.ar","slug":"Russellville.AR/orr+chrysler+dodge+jeep+ram+of+russellville","location":"35.2776984,-93.0914969","brandsList":["chrysler","dodge","jeep","ram"]},{"id":12262,"crm_id":67037536,"name":"Rhodes Chevrolet","dealerSlug":"rhodes+chevrolet","city_state_slug":"Van-Buren.AR","brand":"Chevrolet","website":"www.rhodeschevy.com","address":"2800 Alma Hwy","city":"Van Buren","state":"AR","zip":72956,"latitude":35.4408898,"longitude":-94.3286426,"phone_number_service":"4796894134","phone_number_main":"4794744000","service_hours":"Mo-Fr 07:30 - 17:30 | Sa 08:00 - 13:00","utc_offset":"-300","gplace_id":null,"gplace_url":"https://maps.google.com/?cid=5470434707801095002","dealerID":64291,"trusted":false,"image_id":"v1597284079/chevy_ms.png","phone":"4796894134","cityStateSlug":"van-buren.ar","slug":"Van-Buren.AR/rhodes+chevrolet","location":"35.4408898,-94.3286426","brandsList":["chevrolet"]},{"id":73,"crm_id":67038529,"name":"Acura of Fayetteville","dealerSlug":"acura+of+fayetteville","city_state_slug":"Fayetteville.AR","brand":"Acura","website":"www.acuraoffayetteville.com","address":"1418 W Showroom Dr","city":"Fayetteville","state":"AR","zip":72704,"latitude":36.108304,"longitude":-94.1793354,"phone_number_service":"8884361562","phone_number_main":"4793680181","service_hours":"Mo-Fr 08:00 - 17:00","utc_offset":"-300","gplace_id":null,"gplace_url":"https://maps.google.com/?cid=3047716235401810420","dealerID":64564,"trusted":false,"image_id":"v1597283988/acura.png","phone":"8884361562","cityStateSlug":"fayetteville.ar","slug":"Fayetteville.AR/acura+of+fayetteville","location":"36.108304,-94.1793354","brandsList":["acura"]},{"id":9474,"crm_id":67039459,"name":"McClung Ford","dealerSlug":"mcclung+ford","city_state_slug":"Mountain-View.AR","brand":"Ford","website":"www.mcclungford.com","address":"707 E Main St","city":"Mountain View","state":"AR","zip":72560,"latitude":35.8642551,"longitude":-92.1076866,"phone_number_service":"8888483038","phone_number_main":"8702693866","service_hours":"Mo-Fr 07:30 - 17:30 | Sa 07:30 - 13:00","utc_offset":"-300","gplace_id":null,"gplace_url":"https://maps.google.com/?cid=15264951018781949131","dealerID":64815,"trusted":false,"image_id":"v1597283967/ford_RM.png","phone":"8888483038","cityStateSlug":"mountain-view.ar","slug":"Mountain-View.AR/mcclung+ford","location":"35.8642551,-92.1076866","brandsList":["ford"]},{"id":15718,"crm_id":67039609,"name":"York Gary Autoplex","dealerSlug":"york+gary+autoplex","city_state_slug":"Nashville.AR","brand":"Buick,Chevrolet,GMC","website":"www.yorkgary.com","address":"1420 Leslie St","city":"Nashville","state":"AR","zip":71852,"latitude":33.9523912,"longitude":-93.8637568,"phone_number_service":"8666884083","phone_number_main":"8778094344","service_hours":"Mo-Fr  08:00 - 17:00","utc_offset":"-300","gplace_id":null,"gplace_url":"https://maps.google.com/?cid=14803087700402317222","dealerID":64862,"trusted":false,"image_id":"v1597283981/buick_RM.png","phone":"8666884083","cityStateSlug":"nashville.ar","slug":"Nashville.AR/york+gary+autoplex","location":"33.9523912,-93.8637568","brandsList":["buick","chevrolet","gmc"]},{"id":7025,"crm_id":67040368,"name":"J. Pauley Toyota","dealerSlug":"j+pauley+toyota","city_state_slug":"Fort-Smith.AR","brand":"Toyota","website":"www.jpauleytoyota.com","address":"6200 S 36th St","city":"Fort Smith","state":"AR","zip":72908,"latitude":35.3233598,"longitude":-94.3968554,"phone_number_service":"4796467800","phone_number_main":"4796467800","service_hours":"Mo-Fr 07:30 - 17:30 | Sa 08:00 - 15:00","utc_offset":"-300","gplace_id":null,"gplace_url":"https://maps.google.com/?cid=10795440830338625638","dealerID":65064,"trusted":false,"image_id":"v1597284039/toyota_ms.png","phone":"4796467800","cityStateSlug":"fort-smith.ar","slug":"Fort-Smith.AR/j+pauley+toyota","location":"35.3233598,-94.3968554","brandsList":["toyota"]},{"id":14459,"crm_id":67040425,"name":"Toyota of Fayetteville","dealerSlug":"toyota+of+fayetteville","city_state_slug":"Fayetteville.AR","brand":"Toyota","website":"www.toyotaoffayetteville.com","address":"1352 W Showroom Dr","city":"Fayetteville","state":"AR","zip":72704,"latitude":36.1087723,"longitude":-94.1780551,"phone_number_service":"4799358028","phone_number_main":"4794357586","service_hours":"Mo-Fr 07:00 - 18:00","utc_offset":"-300","gplace_id":null,"gplace_url":"https://maps.google.com/?cid=3218692831257214920","dealerID":65083,"trusted":false,"image_id":"v1597284039/toyota_ms.png","phone":"4799358028","cityStateSlug":"fayetteville.ar","slug":"Fayetteville.AR/toyota+of+fayetteville","location":"36.1087723,-94.1780551","brandsList":["toyota"]},{"id":8659,"crm_id":67041181,"name":"Lewis Chrysler Dodge Jeep RAM","dealerSlug":"lewis+chrysler+dodge+jeep+ram","city_state_slug":"Fayetteville.AR","brand":"Chrysler,Dodge,Jeep,RAM","website":"www.lewischryslerdodge.com","address":"3311 North College Avenue","city":"Fayetteville","state":"AR","zip":72703,"latitude":36.1116739,"longitude":-94.1481023,"phone_number_service":"4793166335","phone_number_main":"7856283359","service_hours":"Mo-Fr 07:00 - 18:00 | Sa 08:00 -15:00","utc_offset":"-300","gplace_id":null,"gplace_url":"https://maps.google.com/?cid=15742264297446428557","dealerID":65274,"trusted":false,"image_id":"v1597283975/chrysler_RM.png","phone":"4793166335","cityStateSlug":"fayetteville.ar","slug":"Fayetteville.AR/lewis+chrysler+dodge+jeep+ram","location":"36.1116739,-94.1481023","brandsList":["chrysler","dodge","jeep","ram"]},{"id":13278,"crm_id":67041214,"name":"Smackover Ford Motors","dealerSlug":"smackover+ford+motors","city_state_slug":"Smackover.AR","brand":"Ford","website":"www.smackovermotors.com","address":"4355 Smackover Hwy","city":"Smackover","state":"AR","zip":71762,"latitude":33.3450108,"longitude":-92.7291101,"phone_number_service":"8886017502","phone_number_main":"8707253961","service_hours":"Mo-Fr 07:00 - 17:00","utc_offset":"-300","gplace_id":null,"gplace_url":"https://maps.google.com/?cid=417405999473906859","dealerID":65280,"trusted":false,"image_id":"v1597283967/ford_RM.png","phone":"8886017502","cityStateSlug":"smackover.ar","slug":"Smackover.AR/smackover+ford+motors","location":"33.3450108,-92.7291101","brandsList":["ford"]},{"id":5955,"crm_id":67041265,"name":"Gwatney Chevrolet","dealerSlug":"gwatney+chevrolet","city_state_slug":"Jacksonville.AR","brand":"Chevrolet","website":"www.gwatneychevrolet.com","address":"1301 T P White Dr","city":"Jacksonville","state":"AR","zip":72076,"latitude":34.8795774,"longitude":-92.1125102,"phone_number_service":"8772594183","phone_number_main":"5012954448","service_hours":"Mo-Fr 07:00 - 17:30 | Sa 07:00 - 12:00","utc_offset":"-300","gplace_id":null,"gplace_url":"https://maps.google.com/?cid=9296634666863141041","dealerID":65294,"trusted":false,"image_id":"v1597284079/chevy_ms.png","phone":"8772594183","cityStateSlug":"jacksonville.ar","slug":"Jacksonville.AR/gwatney+chevrolet","location":"34.8795774,-92.1125102","brandsList":["chevrolet"]},{"id":6218,"crm_id":67041490,"name":"Heartland Chrysler Dodge Jeep RAM","dealerSlug":"heartland+chrysler+dodge+jeep+ram","city_state_slug":"Wynne.AR","brand":"Chrysler,Dodge,Jeep,RAM","website":"www.heartlandchryslerjeep.com","address":"1110 Falls Blvd N","city":"Wynne","state":"AR","zip":72396,"latitude":35.2310676,"longitude":-90.784878,"phone_number_service":"8706674299","phone_number_main":"8702388175","service_hours":"Mo-Fr  08:00 - 17:00","utc_offset":"-300","gplace_id":null,"gplace_url":"https://maps.google.com/?cid=7008235937465804809","dealerID":65351,"trusted":false,"image_id":"v1597283975/chrysler_RM.png","phone":"8706674299","cityStateSlug":"wynne.ar","slug":"Wynne.AR/heartland+chrysler+dodge+jeep+ram","location":"35.2310676,-90.784878","brandsList":["chrysler","dodge","jeep","ram"]},{"id":5848,"crm_id":67041637,"name":"Gregg Orr Chrysler Jeep Dodge RAM","dealerSlug":"gregg+orr+chrysler+jeep+dodge+ram","city_state_slug":"Searcy.AR","brand":"Chrysler,Dodge,Jeep,RAM","website":"www.orrchryslerdodgejeep.com","address":"900 Truman Baker Dr","city":"Searcy","state":"AR","zip":72143,"latitude":35.2378682,"longitude":-91.6970783,"phone_number_service":"5012784377","phone_number_main":"5012793311","service_hours":"Mo-Fr 07:30 - 18:00 | Sa 08:00 - 13:00","utc_offset":"-300","gplace_id":null,"gplace_url":"https://maps.google.com/?cid=17726482285378127637","dealerID":65390,"trusted":false,"image_id":"v1597283975/chrysler_RM.png","phone":"5012784377","cityStateSlug":"searcy.ar","slug":"Searcy.AR/gregg+orr+chrysler+jeep+dodge+ram","location":"35.2378682,-91.6970783","brandsList":["chrysler","dodge","jeep","ram"]},{"id":3449,"crm_id":67041733,"name":"Crain Hyundai of North Little Rock","dealerSlug":"crain+hyundai+of+north+little+rock","city_state_slug":"North-Little-Rock.AR","brand":"Hyundai","website":"www.crainhyundainorth.com","address":"5660 Warden Rd","city":"North Little Rock","state":"AR","zip":72116,"latitude":34.8052599,"longitude":-92.2122596,"phone_number_service":"5018359995","phone_number_main":"5012324018","service_hours":"Mo-Fr 07:00 - 18:00 | Sa 07:30 - 15:00","utc_offset":"-300","gplace_id":null,"gplace_url":"https://maps.google.com/?cid=12533456555748847367","dealerID":65417,"trusted":false,"image_id":"v1597283959/hyundai_RM.png","phone":"5018359995","cityStateSlug":"north-little-rock.ar","slug":"North-Little-Rock.AR/crain+hyundai+of+north+little+rock","location":"34.8052599,-92.2122596","brandsList":["hyundai"]},{"id":14063,"crm_id":67042177,"name":"Teague Lincoln","dealerSlug":"teague+lincoln","city_state_slug":"El-Dorado.AR","brand":"Lincoln","website":"www.teaguelincoln.com","address":"1730 West Hillsboro","city":"El Dorado","state":"AR","zip":71730,"latitude":33.2086241,"longitude":-92.6847977,"phone_number_service":"8669851717","phone_number_main":"8662003013","service_hours":"Mo-Fr 07:30 - 17:30","utc_offset":"-300","gplace_id":null,"gplace_url":"https://maps.google.com/?cid=3064214308862786290","dealerID":65531,"trusted":false,"image_id":"v1597283942/lincoln_RM.png","phone":"8669851717","cityStateSlug":"el-dorado.ar","slug":"El-Dorado.AR/teague+lincoln","location":"33.2086241,-92.6847977","brandsList":["lincoln"]},{"id":1547,"crm_id":67043392,"name":"Billy Wood Honda","dealerSlug":"billy+wood+honda","city_state_slug":"El-Dorado.AR","brand":"Honda","website":"www.billywoodhonda.com","address":"1909 W Hillsboro St","city":"El Dorado","state":"AR","zip":71730,"latitude":33.2068809,"longitude":-92.6893817,"phone_number_service":"8702244428","phone_number_main":"8708635400","service_hours":"Mo-Fr 08:30 - 18:00 | Sa 09:00 - 17:00","utc_offset":"-300","gplace_id":null,"gplace_url":"https://maps.google.com/?cid=105965718013534206","dealerID":65874,"trusted":false,"image_id":"v1597284047/honda_ms.png","phone":"8702244428","cityStateSlug":"el-dorado.ar","slug":"El-Dorado.AR/billy+wood+honda","location":"33.2068809,-92.6893817","brandsList":["honda"]},{"id":12606,"crm_id":67044190,"name":"Ross Toyota","dealerSlug":"ross+toyota","city_state_slug":"Wynne.AR","brand":"Toyota","website":"www.rosstoyota.com","address":"1903 Falls Blvd","city":"Wynne","state":"AR","zip":72396,"latitude":35.2458909,"longitude":-90.7829237,"phone_number_service":"8777439359","phone_number_main":"8777463170","service_hours":"Mo-Fr 07:30 - 17:30 | Sa 09:00-14:00","utc_offset":"-300","gplace_id":null,"gplace_url":"https://maps.google.com/?cid=9723392179821708384","dealerID":66090,"trusted":false,"image_id":"v1597284039/toyota_ms.png","phone":"8777439359","cityStateSlug":"wynne.ar","slug":"Wynne.AR/ross+toyota","location":"35.2458909,-90.7829237","brandsList":["toyota"]},{"id":13775,"crm_id":67044418,"name":"Subaru of Little Rock","dealerSlug":"subaru+of+little+rock","city_state_slug":"Little-Rock.AR","brand":"Subaru","website":"www.subaruoflittlerock.com","address":"12121 Colonel Glenn Rd","city":"Little Rock","state":"AR","zip":72210,"latitude":34.7099192,"longitude":-92.4104651,"phone_number_service":"8778100365","phone_number_main":"5015035454","service_hours":"Mo-Fr 07:00 - 18:00 | Sa 07:00 - 15:00","utc_offset":"-300","gplace_id":null,"gplace_url":"https://maps.google.com/?cid=3872155848138369014","dealerID":66147,"trusted":false,"image_id":"v1597283982/subaru_ms.png","phone":"8778100365","cityStateSlug":"little-rock.ar","slug":"Little-Rock.AR/subaru+of+little+rock","location":"34.7099192,-92.4104651","brandsList":["subaru"]},{"id":11175,"crm_id":67044727,"name":"Paris Ford","dealerSlug":"paris+ford","city_state_slug":"Paris.AR","brand":"Ford","website":"www.paris-ford.com","address":"514 W Walnut St","city":"Paris","state":"AR","zip":72855,"latitude":35.2916472,"longitude":-93.734861,"phone_number_service":"4799633051","phone_number_main":"4799633051","service_hours":"Mo-Fr 07:30 - 17:30","utc_offset":"-300","gplace_id":null,"gplace_url":"https://maps.google.com/?cid=15581891584610771914","dealerID":66237,"trusted":false,"image_id":"v1597283967/ford_RM.png","phone":"4799633051","cityStateSlug":"paris.ar","slug":"Paris.AR/paris+ford","location":"35.2916472,-93.734861","brandsList":["ford"]},{"id":13927,"crm_id":67044805,"name":"Superior Dodge Chrysler Jeep RAM","dealerSlug":"superior+dodge+chrysler+jeep+ram","city_state_slug":"Conway.AR","brand":"Chrysler,Dodge,Jeep,RAM","website":"www.superiorfivestar.com","address":"1201 Exchange","city":"Conway","state":"AR","zip":72032,"latitude":35.0612517,"longitude":-92.4194386,"phone_number_service":"5012299336","phone_number_main":"5013292661","service_hours":"Mo-Fr 07:00 - 18:00 | Sa 08:00 - 15:00","utc_offset":"-300","gplace_id":null,"gplace_url":"https://maps.google.com/?cid=2050454272783852432","dealerID":66256,"trusted":false,"image_id":"v1597283975/chrysler_RM.png","phone":"5012299336","cityStateSlug":"conway.ar","slug":"Conway.AR/superior+dodge+chrysler+jeep+ram","location":"35.0612517,-92.4194386","brandsList":["chrysler","dodge","jeep","ram"]},{"id":14064,"crm_id":67045189,"name":"Teague Toyota","dealerSlug":"teague+toyota","city_state_slug":"El-Dorado.AR","brand":"Toyota","website":"teaguetoyota.com","address":"1830 W Hillsboro St","city":"El Dorado","state":"AR","zip":71730,"latitude":33.2084152,"longitude":-92.6863506,"phone_number_service":"8708622900","phone_number_main":"8708622900","service_hours":"Mo-Fr 07:30 - 17:30","utc_offset":"-300","gplace_id":null,"gplace_url":"https://maps.google.com/?cid=12545873604630714078","dealerID":66358,"trusted":false,"image_id":"v1597284039/toyota_ms.png","phone":"8708622900","cityStateSlug":"el-dorado.ar","slug":"El-Dorado.AR/teague+toyota","location":"33.2084152,-92.6863506","brandsList":["toyota"]},{"id":994,"crm_id":67045651,"name":"Bale Chevrolet","dealerSlug":"bale+chevrolet","city_state_slug":"Little-Rock.AR","brand":"Chevrolet","website":"www.balechevrolet.com","address":"13101 Chenal Pkwy","city":"Little Rock","state":"AR","zip":72211,"latitude":34.7541606,"longitude":-92.4214117,"phone_number_service":"5015504467","phone_number_main":"5018590088","service_hours":"Mo-Sa 09:00 - 17:00","utc_offset":"-300","gplace_id":null,"gplace_url":"https://maps.google.com/?cid=3546942796665442835","dealerID":66490,"trusted":false,"image_id":"v1597284079/chevy_ms.png","phone":"5015504467","cityStateSlug":"little-rock.ar","slug":"Little-Rock.AR/bale+chevrolet","location":"34.7541606,-92.4214117","brandsList":["chevrolet"]},{"id":9798,"crm_id":67046149,"name":"Mercedes-Benz of Northwest Arkansas","dealerSlug":"mercedes+benz+of+northwest+arkansas","city_state_slug":"Bentonville.AR","brand":"Mercedes-Benz","website":"www.mbofnwa.com","address":"2400 SE Moberly Ln","city":"Bentonville","state":"AR","zip":72712,"latitude":36.346424,"longitude":-94.184125,"phone_number_service":"8887111553","phone_number_main":"4792863010","service_hours":"Mo-Fr 07:00 - 18:00 | Sa 08:00 - 15:00","utc_offset":"-300","gplace_id":null,"gplace_url":"https://maps.google.com/?cid=866926902145781233","dealerID":66611,"trusted":false,"image_id":"v1597283934/mercedes_RM.png","phone":"8887111553","cityStateSlug":"bentonville.ar","slug":"Bentonville.AR/mercedes+benz+of+northwest+arkansas","location":"36.346424,-94.184125","brandsList":["mercedes-benz"]},{"id":9584,"crm_id":67046155,"name":"McLarty Daniel Chrysler Dodge Jeep RAM","dealerSlug":"mclarty+daniel+chrysler+dodge+jeep+ram","city_state_slug":"Bentonville.AR","brand":"Chrysler,Dodge,Jeep,RAM","website":"www.bentonvillecdjr.com","address":"2201 SE Moberly Ln","city":"Bentonville","state":"AR","zip":72712,"latitude":36.3484136,"longitude":-94.1825097,"phone_number_service":"4797154788","phone_number_main":"4792500795","service_hours":"Mo-Fr 07:00 - 18:00 | Sa 07:00 - 16:00","utc_offset":"-300","gplace_id":null,"gplace_url":"https://maps.google.com/?cid=5975276160415735066","dealerID":66613,"trusted":false,"image_id":"v1597283975/chrysler_RM.png","phone":"4797154788","cityStateSlug":"bentonville.ar","slug":"Bentonville.AR/mclarty+daniel+chrysler+dodge+jeep+ram","location":"36.3484136,-94.1825097","brandsList":["chrysler","dodge","jeep","ram"]},{"id":11191,"crm_id":67046338,"name":"Parker Cadillac","dealerSlug":"parker+cadillac","city_state_slug":"Little-Rock.AR","brand":"Cadillac","website":"www.parker-cadillac.com","address":"1700 N Shackleford Rd","city":"Little Rock","state":"AR","zip":72212,"latitude":34.7698757,"longitude":-92.3962727,"phone_number_service":"5015887415","phone_number_main":"5012242400","service_hours":"Mo-Fr 07:30 - 17:30","utc_offset":"-300","gplace_id":null,"gplace_url":"https://maps.google.com/?cid=3411647604396600412","dealerID":66657,"trusted":false,"image_id":"v1597283980/cadillac.png","phone":"5015887415","cityStateSlug":"little-rock.ar","slug":"Little-Rock.AR/parker+cadillac","location":"34.7698757,-92.3962727","brandsList":["cadillac"]},{"id":3446,"crm_id":67046407,"name":"Crain Ford Jacksonville","dealerSlug":"crain+ford+jacksonville","city_state_slug":"Jacksonville.AR","brand":"Ford","website":"www.crainfordjacksonville.net","address":"1800 School Dr","city":"Jacksonville","state":"AR","zip":72076,"latitude":34.8652705,"longitude":-92.1275075,"phone_number_service":"5019825848","phone_number_main":"5014364950","service_hours":"Mo-Fr 07:00 - 18:00 | Sa 07:30 - 15:00","utc_offset":"-300","gplace_id":null,"gplace_url":"https://maps.google.com/?cid=1071639830354669758","dealerID":66670,"trusted":false,"image_id":"v1597283967/ford_RM.png","phone":"5019825848","cityStateSlug":"jacksonville.ar","slug":"Jacksonville.AR/crain+ford+jacksonville","location":"34.8652705,-92.1275075","brandsList":["ford"]},{"id":3153,"crm_id":67046923,"name":"Cogswell Mazda","dealerSlug":"cogswell+mazda","city_state_slug":"Russellville.AR","brand":"Mazda","website":"www.cogswellmazda.com","address":"1900 E Main St","city":"Russellville","state":"AR","zip":72801,"latitude":35.2779589,"longitude":-93.1111538,"phone_number_service":"8443299263","phone_number_main":"4799682665","service_hours":"Mo-Fr 07:30 - 17:30","utc_offset":"-300","gplace_id":null,"gplace_url":"https://maps.google.com/?cid=396009758552119087","dealerID":66808,"trusted":false,"image_id":"v1597283937/mazda.png","phone":"8443299263","cityStateSlug":"russellville.ar","slug":"Russellville.AR/cogswell+mazda","location":"35.2779589,-93.1111538","brandsList":["mazda"]},{"id":9264,"crm_id":67046929,"name":"Mark Martin Kia","dealerSlug":"mark+martin+kia","city_state_slug":"Batesville.AR","brand":"Kia","website":"www.markmartinkia.com","address":"1601 Batesville Blvd","city":"Batesville","state":"AR","zip":72501,"latitude":35.7142517,"longitude":-91.6325605,"phone_number_service":"8669370695","phone_number_main":"8707934461","service_hours":"Mo-Fr 08:00 - 17:30","utc_offset":"-300","gplace_id":null,"gplace_url":"https://maps.google.com/?cid=6030676183369003231","dealerID":66810,"trusted":false,"image_id":"v1597283948/kia_RM.png","phone":"8669370695","cityStateSlug":"batesville.ar","slug":"Batesville.AR/mark+martin+kia","location":"35.7142517,-91.6325605","brandsList":["kia"]},{"id":3427,"crm_id":67047094,"name":"Cowboy Chevrolet Buick GMC","dealerSlug":"cowboy+chevrolet+buick+gmc","city_state_slug":"Heber-Springs.AR","brand":"Buick,Chevrolet,GMC","website":"www.cowboycbg.com","address":"1819 Hwy 25B North","city":"Heber Springs","state":"AR","zip":72543,"latitude":35.5108275,"longitude":-92.0291778,"phone_number_service":"5014294401","phone_number_main":"5013622418","service_hours":"Mo-Fr 07:30 - 17:30 | Sa 07:00 - 12:00","utc_offset":"-300","gplace_id":null,"gplace_url":"https://maps.google.com/?cid=13046168799225617825","dealerID":66856,"trusted":false,"image_id":"v1597283981/buick_RM.png","phone":"5014294401","cityStateSlug":"heber-springs.ar","slug":"Heber-Springs.AR/cowboy+chevrolet+buick+gmc","location":"35.5108275,-92.0291778","brandsList":["buick","chevrolet","gmc"]},{"id":9263,"crm_id":67048276,"name":"Mark Martin Ford","dealerSlug":"mark+martin+ford","city_state_slug":"Batesville.AR","brand":"Ford","website":"www.markmartinfords.com","address":"1601 Batesville Blvd","city":"Batesville","state":"AR","zip":72501,"latitude":35.7135451,"longitude":-91.631703,"phone_number_service":"8772019029","phone_number_main":"8005664461","service_hours":"Mo-Fr 08:00 - 17:30","utc_offset":"-300","gplace_id":null,"gplace_url":"https://maps.google.com/?cid=12132885203912019822","dealerID":67182,"trusted":false,"image_id":"v1597283967/ford_RM.png","phone":"8772019029","cityStateSlug":"batesville.ar","slug":"Batesville.AR/mark+martin+ford","location":"35.7135451,-91.631703","brandsList":["ford"]},{"id":9588,"crm_id":67048597,"name":"McLarty Nissan of North Little Rock","dealerSlug":"mclarty+nissan+of+north+little+rock","city_state_slug":"North-Little-Rock.AR","brand":"Nissan","website":"www.mclartynissannlr.com","address":"5703 Landers Rd","city":"North Little Rock","state":"AR","zip":72117,"latitude":34.810028,"longitude":-92.2054627,"phone_number_service":"5013130437","phone_number_main":"5015880959","service_hours":"Mo-Fr 07:00 - 18:00 | Sa 08:00 - 18:00","utc_offset":"-300","gplace_id":null,"gplace_url":"https://maps.google.com/?cid=16765077736964137218","dealerID":67254,"trusted":false,"image_id":"v1597283926/nissan_RM.png","phone":"5013130437","cityStateSlug":"north-little-rock.ar","slug":"North-Little-Rock.AR/mclarty+nissan+of+north+little+rock","location":"34.810028,-92.2054627","brandsList":["nissan"]},{"id":3444,"crm_id":67048729,"name":"Crain Buick GMC of Springdale","dealerSlug":"crain+buick+gmc+of+springdale","city_state_slug":"Springdale.AR","brand":"Buick,GMC","website":"www.crainbuickgmcofspringdale.com","address":"6372 W Sunset Ave","city":"Springdale","state":"AR","zip":72762,"latitude":36.176655,"longitude":-94.2005846,"phone_number_service":"8774007854","phone_number_main":"8776308275","service_hours":"Mo-Fr 07:00 - 18:00 | Sa 08:00 - 17:00","utc_offset":"-300","gplace_id":null,"gplace_url":"https://maps.google.com/?cid=9545423903334226885","dealerID":67295,"trusted":false,"image_id":"v1597283981/buick_RM.png","phone":"8774007854","cityStateSlug":"springdale.ar","slug":"Springdale.AR/crain+buick+gmc+of+springdale","location":"36.176655,-94.2005846","brandsList":["buick","gmc"]},{"id":413,"crm_id":67048966,"name":"Arnold-baker Chevrolet","dealerSlug":"arnold+baker+chevrolet","city_state_slug":"Magnolia.AR","brand":"Chevrolet","website":"www.abchevy.com","address":"619 S Washington St","city":"Magnolia","state":"AR","zip":71753,"latitude":33.2618558,"longitude":-93.241118,"phone_number_service":"8772420546","phone_number_main":"8706264057","service_hours":"Mo-Fr 07:30 - 17:00","utc_offset":"-300","gplace_id":null,"gplace_url":"https://maps.google.com/?cid=6580100589185604629","dealerID":67360,"trusted":false,"image_id":"v1597284079/chevy_ms.png","phone":"8772420546","cityStateSlug":"magnolia.ar","slug":"Magnolia.AR/arnold+baker+chevrolet","location":"33.2618558,-93.241118","brandsList":["chevrolet"]},{"id":3453,"crm_id":67049464,"name":"Crain Mazda","dealerSlug":"crain+mazda","city_state_slug":"Little-Rock.AR","brand":"Mazda","website":"www.crainteammazda.com","address":"11715 Colonel Glenn Rd","city":"Little Rock","state":"AR","zip":72210,"latitude":34.711014,"longitude":-92.406011,"phone_number_service":"5016041300","phone_number_main":"5014380239","service_hours":"Mo-Fr 07:00 - 18:00 | Sa 07:00 - 15:00","utc_offset":"-300","gplace_id":null,"gplace_url":"https://maps.google.com/?cid=4785647502773876692","dealerID":67502,"trusted":false,"image_id":"v1597283937/mazda.png","phone":"5016041300","cityStateSlug":"little-rock.ar","slug":"Little-Rock.AR/crain+mazda","location":"34.711014,-92.406011","brandsList":["mazda"]},{"id":12359,"crm_id":67049788,"name":"Riser Chrysler, Dodge, Jeep, RAM, and Fiat","dealerSlug":"riser+chrysler+dodge+jeep+ram+and+fiat","city_state_slug":"Hot-Springs.AR","brand":"Chrysler,Dodge,Jeep,RAM,Fiat","website":"www.riserdodge.com","address":"4722 Central Ave","city":"Hot Springs","state":"AR","zip":71913,"latitude":34.4464254,"longitude":-93.090928,"phone_number_service":"5015086881","phone_number_main":"5015005285","service_hours":"Mo-Fr 07:30 - 17:30 | Sa 07:30 - 16:00","utc_offset":"-300","gplace_id":null,"gplace_url":"https://maps.google.com/?cid=4343567724328067003","dealerID":67586,"trusted":false,"image_id":"v1597283975/chrysler_RM.png","phone":"5015086881","cityStateSlug":"hot-springs.ar","slug":"Hot-Springs.AR/riser+chrysler+dodge+jeep+ram+and+fiat","location":"34.4464254,-93.090928","brandsList":["chrysler","dodge","jeep","ram","fiat"]},{"id":6135,"crm_id":67050220,"name":"Harry Robinson Buick GMC","dealerSlug":"harry+robinson+buick+gmc","city_state_slug":"Fort-Smith.AR","brand":"Buick,GMC","website":"www.harryrobinsonbuickgmc.com/","address":"6000 S 36th St","city":"Fort Smith","state":"AR","zip":72908,"latitude":35.3253043,"longitude":-94.3959764,"phone_number_service":"4794316543","phone_number_main":"4796468600","service_hours":"Mo-Fr 07:30 - 17:30 | Sa 07:30 - 13:00","utc_offset":"-300","gplace_id":null,"gplace_url":"https://maps.google.com/?cid=7929813766278666679","dealerID":67712,"trusted":false,"image_id":"v1597283981/buick_RM.png","phone":"4794316543","cityStateSlug":"fort-smith.ar","slug":"Fort-Smith.AR/harry+robinson+buick+gmc","location":"35.3253043,-94.3959764","brandsList":["buick","gmc"]},{"id":9022,"crm_id":67050670,"name":"Lucky'S Of Monticello","dealerSlug":"luckys+of+monticello","city_state_slug":"North-Monticello.AR","brand":"Buick,Chevrolet,GMC","website":"www.autobylucky.com","address":"1215 Highway 425","city":"North Monticello","state":"AR","zip":71655,"latitude":33.6506752,"longitude":-91.8030557,"phone_number_service":"8702244650","phone_number_main":"8702290033","service_hours":"Mo-Fr 08:00 - 17:30","utc_offset":"-300","gplace_id":null,"gplace_url":"https://maps.google.com/?cid=17560822934930472899","dealerID":67836,"trusted":false,"image_id":"v1597283981/buick_RM.png","phone":"8702244650","cityStateSlug":"north-monticello.ar","slug":"North-Monticello.AR/luckys+of+monticello","location":"33.6506752,-91.8030557","brandsList":["buick","chevrolet","gmc"]},{"id":9145,"crm_id":67050694,"name":"Magness Toyota","dealerSlug":"magness+toyota","city_state_slug":"Harrison.AR","brand":"Toyota","website":"www.magnesstoyota.com","address":"1407 Highway 62-65 North","city":"Harrison","state":"AR","zip":72601,"latitude":36.2646862,"longitude":-93.1352779,"phone_number_service":"8886946438","phone_number_main":"8707415451","service_hours":"Mo-Fr 08:00 - 17:00","utc_offset":"-300","gplace_id":null,"gplace_url":"https://maps.google.com/?cid=17125624286389018461","dealerID":67844,"trusted":false,"image_id":"v1597284039/toyota_ms.png","phone":"8886946438","cityStateSlug":"harrison.ar","slug":"Harrison.AR/magness+toyota","location":"36.2646862,-93.1352779","brandsList":["toyota"]},{"id":6523,"crm_id":67050814,"name":"Holly Chevrolet","dealerSlug":"holly+chevrolet","city_state_slug":"Marion.AR","brand":"Chevrolet","website":"www.hollychevrolet.com","address":"6601 Interstate 55 North PO Box 828","city":"Marion","state":"AR","zip":72364,"latitude":35.2551043,"longitude":-90.2250764,"phone_number_service":"8772058145","phone_number_main":"8707397337","service_hours":"Mo-Fr 07:30 - 17:30 | Sa 08:00 - 12:00","utc_offset":"-300","gplace_id":null,"gplace_url":"https://maps.google.com/?cid=17213438321045884506","dealerID":67873,"trusted":false,"image_id":"v1597284079/chevy_ms.png","phone":"8772058145","cityStateSlug":"marion.ar","slug":"Marion.AR/holly+chevrolet","location":"35.2551043,-90.2250764","brandsList":["chevrolet"]},{"id":3448,"crm_id":67051204,"name":"Crain Hyundai of Little Rock","dealerSlug":"crain+hyundai+of+little+rock","city_state_slug":"Little-Rock.AR","brand":"Hyundai","website":"www.crainhyundailittlerock.com","address":"11701 Colonel Glenn Rd","city":"Little Rock","state":"AR","zip":72210,"latitude":34.71129,"longitude":-92.405368,"phone_number_service":"5016041500","phone_number_main":"5014380196","service_hours":"Mo-Fr 07:00 - 18:00 | Sa 07:30 - 15:00","utc_offset":"-300","gplace_id":null,"gplace_url":"https://maps.google.com/?cid=3212185896157820898","dealerID":67979,"trusted":false,"image_id":"v1597283959/hyundai_RM.png","phone":"5016041500","cityStateSlug":"little-rock.ar","slug":"Little-Rock.AR/crain+hyundai+of+little+rock","location":"34.71129,-92.405368","brandsList":["hyundai"]},{"id":9261,"crm_id":67052482,"name":"Mark Martin Chevrolet","dealerSlug":"mark+martin+chevrolet","city_state_slug":"Melbourne.AR","brand":"Chevrolet","website":"www.markmartinchevrolet.net","address":"Hwys 69 & 9","city":"Melbourne","state":"AR","zip":72556,"latitude":36.0599244,"longitude":-91.9077226,"phone_number_service":"8703684353","phone_number_main":"8703684353","service_hours":"Mo-Fr 08:00 - 17:00","utc_offset":"-300","gplace_id":null,"gplace_url":"https://maps.google.com/?cid=8135939365640131644","dealerID":68326,"trusted":false,"image_id":"v1597284079/chevy_ms.png","phone":"8703684353","cityStateSlug":"melbourne.ar","slug":"Melbourne.AR/mark+martin+chevrolet","location":"36.0599244,-91.9077226","brandsList":["chevrolet"]},{"id":5096,"crm_id":67052611,"name":"Frank Fletcher Honda","dealerSlug":"frank+fletcher+honda","city_state_slug":"Bentonville.AR","brand":"Honda","website":"www.fletcherhonda.com","address":"2921 Moberly Ln","city":"Bentonville","state":"AR","zip":72712,"latitude":36.3405019,"longitude":-94.1829874,"phone_number_service":"4797150792","phone_number_main":"4797158622","service_hours":"Mo-Fr 07:00 - 18:00 | Sa 08:00 - 15:00","utc_offset":"-300","gplace_id":null,"gplace_url":"https://maps.google.com/?cid=13253658297825917981","dealerID":68364,"trusted":false,"image_id":"v1597284047/honda_ms.png","phone":"4797150792","cityStateSlug":"bentonville.ar","slug":"Bentonville.AR/frank+fletcher+honda","location":"36.3405019,-94.1829874","brandsList":["honda"]},{"id":13433,"crm_id":67052659,"name":"Southwest Chrysler Dodge Jeep RAM","dealerSlug":"southwest+chrysler+dodge+jeep+ram","city_state_slug":"Arkadelphia.AR","brand":"Chrysler,Dodge,Jeep,RAM","website":"www.southwestcdjr.com","address":"1451 N 10th St","city":"Arkadelphia","state":"AR","zip":71923,"latitude":34.152919,"longitude":-93.065328,"phone_number_service":"8704844313","phone_number_main":"8702466800","service_hours":"Mo-Fr 07:30 - 17:00","utc_offset":"-300","gplace_id":null,"gplace_url":"https://maps.google.com/?cid=4329107562646098754","dealerID":68378,"trusted":false,"image_id":"v1597283975/chrysler_RM.png","phone":"8704844313","cityStateSlug":"arkadelphia.ar","slug":"Arkadelphia.AR/southwest+chrysler+dodge+jeep+ram","location":"34.152919,-93.065328","brandsList":["chrysler","dodge","jeep","ram"]},{"id":11495,"crm_id":67053259,"name":"Phil Wright Toyota","dealerSlug":"phil+wright+toyota","city_state_slug":"Russellville.AR","brand":"Toyota","website":"philwrighttoyota.com","address":"3300 East Main Street","city":"Russellville","state":"AR","zip":72802,"latitude":35.2766524,"longitude":-93.090573,"phone_number_service":"8884611195","phone_number_main":"4799681555","service_hours":"Mo-Fr 07:30 - 17:00","utc_offset":"-300","gplace_id":null,"gplace_url":"https://maps.google.com/?cid=10772148669990272416","dealerID":68544,"trusted":false,"image_id":"v1597284039/toyota_ms.png","phone":"8884611195","cityStateSlug":"russellville.ar","slug":"Russellville.AR/phil+wright+toyota","location":"35.2766524,-93.090573","brandsList":["toyota"]},{"id":2433,"crm_id":67054312,"name":"Caldwell Toyota","dealerSlug":"caldwell+toyota","city_state_slug":"Conway.AR","brand":"Toyota","website":"www.caldwelltoyota.com","address":"1355 Exchange Ave","city":"Conway","state":"AR","zip":72032,"latitude":35.0587215,"longitude":-92.4187296,"phone_number_service":"5013827684","phone_number_main":"5013827744","service_hours":"Mo-Sa 07:00 - 18:00","utc_offset":"-300","gplace_id":null,"gplace_url":"https://maps.google.com/?cid=12181164306374967326","dealerID":68834,"trusted":false,"image_id":"v1597284039/toyota_ms.png","phone":"5013827684","cityStateSlug":"conway.ar","slug":"Conway.AR/caldwell+toyota","location":"35.0587215,-92.4187296","brandsList":["toyota"]},{"id":9265,"crm_id":67054609,"name":"Mark McLarty Ford","dealerSlug":"mark+mclarty+ford","city_state_slug":"North-Little-Rock.AR","brand":"Ford","website":"www.markmclartyford.com","address":"4400 Landers Rd","city":"North Little Rock","state":"AR","zip":72117,"latitude":34.7994077,"longitude":-92.21429,"phone_number_service":"8334905693","phone_number_main":"5019451200","service_hours":"Mo-Fr 07:00 - 18:00 | Sa 08:00 - 17:00","utc_offset":"-300","gplace_id":null,"gplace_url":"https://maps.google.com/?cid=6834028375264702366","dealerID":68916,"trusted":false,"image_id":"v1597283967/ford_RM.png","phone":"8334905693","cityStateSlug":"north-little-rock.ar","slug":"North-Little-Rock.AR/mark+mclarty+ford","location":"34.7994077,-92.21429","brandsList":["ford"]},{"id":14639,"crm_id":67055113,"name":"Trotter Toyota","dealerSlug":"trotter+toyota","city_state_slug":"Pine-Bluff.AR","brand":"Toyota","website":"trottertoyota.com","address":"3010 Auto Dr","city":"Pine Bluff","state":"AR","zip":71601,"latitude":34.2055556,"longitude":-91.9702778,"phone_number_service":"8778459340","phone_number_main":"8705347521","service_hours":"Mo-Fr 07:30 - 18:00 | Sa 08:00 - 17:00","utc_offset":"-300","gplace_id":null,"gplace_url":"https://maps.google.com/?cid=299149461257811067","dealerID":69055,"trusted":false,"image_id":"v1597284039/toyota_ms.png","phone":"8778459340","cityStateSlug":"pine-bluff.ar","slug":"Pine-Bluff.AR/trotter+toyota","location":"34.2055556,-91.9702778","brandsList":["toyota"]},{"id":5954,"crm_id":67055524,"name":"Gwatney Buick GMC","dealerSlug":"gwatney+buick+gmc","city_state_slug":"North-Little-Rock.AR","brand":"Buick,GMC","website":"www.gwatneybuickgmc.com","address":"5700 Landers Rd","city":"North Little Rock","state":"AR","zip":72117,"latitude":34.8077021,"longitude":-92.2075612,"phone_number_service":"5015887554","phone_number_main":"5019454444","service_hours":"Mo-Fr 08:00 - 17:00","utc_offset":"-300","gplace_id":null,"gplace_url":"https://maps.google.com/?cid=9904114883766020944","dealerID":69172,"trusted":false,"image_id":"v1597283981/buick_RM.png","phone":"5015887554","cityStateSlug":"north-little-rock.ar","slug":"North-Little-Rock.AR/gwatney+buick+gmc","location":"34.8077021,-92.2075612","brandsList":["buick","gmc"]},{"id":13928,"crm_id":67055749,"name":"Superior Dodge Chrysler Jeep RAM of Northwest Arkansas","dealerSlug":"superior+dodge+chrysler+jeep+ram+of+northwest+arkansas","city_state_slug":"Siloam-Springs.AR","brand":"Chrysler,Dodge,Jeep,RAM","website":"www.superiorautomall.com","address":"504 Highway 412 Bypass E.","city":"Siloam Springs","state":"AR","zip":72761,"latitude":36.1718451,"longitude":-94.5362927,"phone_number_service":"4792821620","phone_number_main":"4792821620","service_hours":"Mo-Fr 07:30 - 18:00 | Sa 08:00-15:00","utc_offset":"-300","gplace_id":null,"gplace_url":"https://maps.google.com/?cid=16065612670583175577","dealerID":69232,"trusted":false,"image_id":"v1597283975/chrysler_RM.png","phone":"4792821620","cityStateSlug":"siloam-springs.ar","slug":"Siloam-Springs.AR/superior+dodge+chrysler+jeep+ram+of+northwest+arkansas","location":"36.1718451,-94.5362927","brandsList":["chrysler","dodge","jeep","ram"]},{"id":12072,"crm_id":67056529,"name":"RAMsey Motor Company","dealerSlug":"ramsey+motor+company","city_state_slug":"Harrison.AR","brand":"Chrysler,Dodge,Jeep,RAM","website":"www.ramseymotor.net","address":"502 Hwy 62-65","city":"Harrison","state":"AR","zip":72601,"latitude":36.2256364,"longitude":-93.0851047,"phone_number_service":"8705207707","phone_number_main":"8705207596","service_hours":"Mo-Fr 07:30 - 17:30","utc_offset":"-300","gplace_id":null,"gplace_url":"https://maps.google.com/?cid=16554577337054738781","dealerID":69433,"trusted":false,"image_id":"v1597283975/chrysler_RM.png","phone":"8705207707","cityStateSlug":"harrison.ar","slug":"Harrison.AR/ramsey+motor+company","location":"36.2256364,-93.0851047","brandsList":["chrysler","dodge","jeep","ram"]},{"id":6604,"crm_id":67056598,"name":"Honda of Fayetteville","dealerSlug":"honda+of+fayetteville","city_state_slug":"Fayetteville.AR","brand":"Honda","website":"www.hondaoffayetteville.com","address":"1384 W Showroom Dr","city":"Fayetteville","state":"AR","zip":72704,"latitude":36.1086187,"longitude":-94.1788153,"phone_number_service":"8772535685","phone_number_main":"8665448173","service_hours":"Mo-Fr 07:00 - 18:00","utc_offset":"-300","gplace_id":null,"gplace_url":"https://maps.google.com/?cid=18073406799858375237","dealerID":69451,"trusted":false,"image_id":"v1597284047/honda_ms.png","phone":"8772535685","cityStateSlug":"fayetteville.ar","slug":"Fayetteville.AR/honda+of+fayetteville","location":"36.1086187,-94.1788153","brandsList":["honda"]},{"id":14718,"crm_id":67056892,"name":"Ultimate Chrysler Dodge Jeep RAM","dealerSlug":"ultimate+chrysler+dodge+jeep+ram","city_state_slug":"Mountain-Home.AR","brand":"Chrysler,Dodge,Jeep,RAM","website":"www.ultimateautogroup.net","address":"2674 Highway 62 W","city":"Mountain Home","state":"AR","zip":72653,"latitude":36.3149979,"longitude":-92.4067711,"phone_number_service":"8706260916","phone_number_main":"8704256996","service_hours":"Mo-Fr  08:00 - 17:00","utc_offset":"-300","gplace_id":null,"gplace_url":"https://maps.google.com/?cid=1155397304636147800","dealerID":69539,"trusted":false,"image_id":"v1597283975/chrysler_RM.png","phone":"8706260916","cityStateSlug":"mountain-home.ar","slug":"Mountain-Home.AR/ultimate+chrysler+dodge+jeep+ram","location":"36.3149979,-92.4067711","brandsList":["chrysler","dodge","jeep","ram"]},{"id":5492,"crm_id":67057429,"name":"George Kell Motors","dealerSlug":"george+kell+motors","city_state_slug":"Newport.AR","brand":"Buick,Chevrolet,GMC","website":"www.georgekellmotors.com","address":"3808 Van Dyke Rd","city":"Newport","state":"AR","zip":72112,"latitude":35.6416626,"longitude":-91.2406043,"phone_number_service":"8704952614","phone_number_main":"8705180042","service_hours":"Mo-Fr 07:30 - 17:00 | Sa 07:30-12:00","utc_offset":"-300","gplace_id":null,"gplace_url":"https://maps.google.com/?cid=17231380075470470666","dealerID":69676,"trusted":false,"image_id":"v1597283981/buick_RM.png","phone":"8704952614","cityStateSlug":"newport.ar","slug":"Newport.AR/george+kell+motors","location":"35.6416626,-91.2406043","brandsList":["buick","chevrolet","gmc"]},{"id":13636,"crm_id":67058545,"name":"Steve Landers Toyota","dealerSlug":"steve+landers+toyota","city_state_slug":"Little-Rock.AR","brand":"Toyota","website":"www.stevelanderstoyota.com","address":"10825 Colonel Glenn Rd","city":"Little Rock","state":"AR","zip":72204,"latitude":34.7111761,"longitude":-92.3992701,"phone_number_service":"8886867084","phone_number_main":"5015685800","service_hours":"Mo-Sa 07:00 - 19:00","utc_offset":"-300","gplace_id":null,"gplace_url":"https://maps.google.com/?cid=1121473568040234828","dealerID":69995,"trusted":false,"image_id":"v1597284039/toyota_ms.png","phone":"8886867084","cityStateSlug":"little-rock.ar","slug":"Little-Rock.AR/steve+landers+toyota","location":"34.7111761,-92.3992701","brandsList":["toyota"]},{"id":8655,"crm_id":67059412,"name":"Lewis Automotive Group","dealerSlug":"lewis+automotive+group","city_state_slug":"Fayetteville.AR","brand":"Chrysler,Dodge,Ford,Jeep,RAM","website":"www.lewissuperstore.com","address":"3373 North College","city":"Fayetteville","state":"AR","zip":72703,"latitude":36.1123023,"longitude":-94.148207,"phone_number_service":"8882716861","phone_number_main":"8336765398","service_hours":"Mo-Fr 07:00 - 17:30 | Sa 08:00 - 15:00","utc_offset":"-300","gplace_id":null,"gplace_url":"https://maps.google.com/?cid=5248610949732333803","dealerID":70236,"trusted":false,"image_id":"v1597283975/chrysler_RM.png","phone":"8882716861","cityStateSlug":"fayetteville.ar","slug":"Fayetteville.AR/lewis+automotive+group","location":"36.1123023,-94.148207","brandsList":["chrysler","dodge","ford","jeep","ram"]},{"id":4952,"crm_id":67059859,"name":"Floyd Traylor Honda","dealerSlug":"floyd+traylor+honda","city_state_slug":"Fort-Smith.AR","brand":"Honda","website":"traylorhonda.net","address":"3200 S Zero St","city":"Fort Smith","state":"AR","zip":72908,"latitude":35.326793,"longitude":-94.3986304,"phone_number_service":"8662005025","phone_number_main":"4794345975","service_hours":"Mo-Fr 07:00 - 18:00 | Sa 08:00 - 15:00","utc_offset":"-300","gplace_id":null,"gplace_url":"https://maps.google.com/?cid=1269058210212201390","dealerID":70355,"trusted":false,"image_id":"v1597284047/honda_ms.png","phone":"8662005025","cityStateSlug":"fort-smith.ar","slug":"Fort-Smith.AR/floyd+traylor+honda","location":"35.326793,-94.3986304","brandsList":["honda"]},{"id":12986,"crm_id":67060612,"name":"Scott Wood Chrysler Dodge Jeep RAM","dealerSlug":"scott+wood+chrysler+dodge+jeep+ram","city_state_slug":"Batesville.AR","brand":"Chrysler,Dodge,Jeep,RAM","website":"www.scottwoodchrysler.com","address":"1676 Batesville Blvd","city":"Batesville","state":"AR","zip":72501,"latitude":35.7102052,"longitude":-91.6329885,"phone_number_service":"8707938470","phone_number_main":"8707938450","service_hours":"Mo-Fr 07:30 - 17:30 | Sa 08:00-13:00","utc_offset":"-300","gplace_id":null,"gplace_url":"https://maps.google.com/?cid=2270135801283440737","dealerID":70565,"trusted":false,"image_id":"v1597283975/chrysler_RM.png","phone":"8707938470","cityStateSlug":"batesville.ar","slug":"Batesville.AR/scott+wood+chrysler+dodge+jeep+ram","location":"35.7102052,-91.6329885","brandsList":["chrysler","dodge","jeep","ram"]},{"id":9262,"crm_id":67060861,"name":"Mark Martin Chevrolet Buick GMC","dealerSlug":"mark+martin+chevrolet+buick+gmc","city_state_slug":"Ash-Flat.AR","brand":"Buick,Chevrolet,GMC","website":"markmartincbg.com","address":"41 Hwy 62 West","city":"Ash Flat","state":"AR","zip":72513,"latitude":36.2358941,"longitude":-91.6010947,"phone_number_service":"8709947371","phone_number_main":"8772577942","service_hours":"Mo-Fr 08:00 - 17:00","utc_offset":"-300","gplace_id":null,"gplace_url":"https://maps.google.com/?cid=17128522818151309337","dealerID":70634,"trusted":false,"image_id":"v1597283981/buick_RM.png","phone":"8709947371","cityStateSlug":"ash-flat.ar","slug":"Ash-Flat.AR/mark+martin+chevrolet+buick+gmc","location":"36.2358941,-91.6010947","brandsList":["buick","chevrolet","gmc"]},{"id":9589,"crm_id":67061107,"name":"McLarty Volkswagen","dealerSlug":"mclarty+volkswagen","city_state_slug":"North-Little-Rock.AR","brand":"Volkswagen","website":"www.mclartyvw.com","address":"6030 Landers Rd","city":"North Little Rock","state":"AR","zip":72117,"latitude":34.8085275,"longitude":-92.2069332,"phone_number_service":"8885970227","phone_number_main":"5019455353","service_hours":"Mo-Fr 07:30 - 18:00 | Sa 08:00 - 17:00","utc_offset":"-300","gplace_id":null,"gplace_url":"https://maps.google.com/?cid=12486519643126148206","dealerID":70707,"trusted":false,"image_id":"v1597283902/volkswagen.png","phone":"8885970227","cityStateSlug":"north-little-rock.ar","slug":"North-Little-Rock.AR/mclarty+volkswagen","location":"34.8085275,-92.2069332","brandsList":["volkswagen"]},{"id":9587,"crm_id":67061113,"name":"McLarty Mazda","dealerSlug":"mclarty+mazda","city_state_slug":"North-Little-Rock.AR","brand":"Mazda","website":"www.mclartymazda.com","address":"6030 Landers Rd","city":"North Little Rock","state":"AR","zip":72117,"latitude":34.8089317,"longitude":-92.2067222,"phone_number_service":"8553619678","phone_number_main":"8775746210","service_hours":"Mo-Fr 07:30 - 18:00 | Sa 08:00 - 17:00","utc_offset":"-300","gplace_id":null,"gplace_url":"https://maps.google.com/?cid=12572930895238840782","dealerID":70709,"trusted":false,"image_id":"v1597283937/mazda.png","phone":"8553619678","cityStateSlug":"north-little-rock.ar","slug":"North-Little-Rock.AR/mclarty+mazda","location":"34.8089317,-92.2067222","brandsList":["mazda"]},{"id":273,"crm_id":67061275,"name":"Allen Tillery Auto","dealerSlug":"allen+tillery+auto","city_state_slug":"Hot-Springs.AR","brand":"Buick,Chevrolet,GMC","website":"www.allentilleryauto.com","address":"4573 Central Ave","city":"Hot Springs","state":"AR","zip":71913,"latitude":34.4476316,"longitude":-93.0854991,"phone_number_service":"5018814486","phone_number_main":"5018814160","service_hours":"Mo-Fr 07:30 - 17:30 | Sa 07:00 - 12:00","utc_offset":"-300","gplace_id":null,"gplace_url":"https://maps.google.com/?cid=15866218764233205817","dealerID":70759,"trusted":false,"image_id":"v1597283981/buick_RM.png","phone":"5018814486","cityStateSlug":"hot-springs.ar","slug":"Hot-Springs.AR/allen+tillery+auto","location":"34.4476316,-93.0854991","brandsList":["buick","chevrolet","gmc"]},{"id":15329,"crm_id":67074166,"name":"Welch Nissan","dealerSlug":"welch+nissan","city_state_slug":"Pine-Bluff.AR","brand":"Nissan","website":"www.welchnissan.com","address":"2505 S Olive St","city":"Pine Bluff","state":"AR","zip":71601,"latitude":34.2039732,"longitude":-92.0065382,"phone_number_service":"8884536417","phone_number_main":"8704510690","service_hours":"Mo-Fr 07:30 - 17:00 | Sa 07:30-12:30","utc_offset":"-300","gplace_id":null,"gplace_url":"https://maps.google.com/?cid=10750601230431831871","dealerID":73428,"trusted":false,"image_id":"v1597283926/nissan_RM.png","phone":"8884536417","cityStateSlug":"pine-bluff.ar","slug":"Pine-Bluff.AR/welch+nissan","location":"34.2039732,-92.0065382","brandsList":["nissan"]},{"id":13284,"crm_id":67074169,"name":"Smart Chevrolet Buick GMC","dealerSlug":"smart+chevrolet+buick+gmc","city_state_slug":"White-Hall.AR","brand":"Buick,Chevrolet,GMC","website":"www.smartchevy.com","address":"3 Smart Dr","city":"White Hall","state":"AR","zip":71602,"latitude":34.264939,"longitude":-92.1065216,"phone_number_service":"8706194784","phone_number_main":"8706194786","service_hours":"Mo-Fr 07:30 - 18:00 |Sa 08:00 - 12:00","utc_offset":"-300","gplace_id":null,"gplace_url":"https://maps.google.com/?cid=6320621327237234126","dealerID":73429,"trusted":false,"image_id":"v1597283981/buick_RM.png","phone":"8706194784","cityStateSlug":"white-hall.ar","slug":"White-Hall.AR/smart+chevrolet+buick+gmc","location":"34.264939,-92.1065216","brandsList":["buick","chevrolet","gmc"]},{"id":13287,"crm_id":67074172,"name":"Smart Chrysler Dodge RAM Jeep","dealerSlug":"smart+chrysler+dodge+ram+jeep","city_state_slug":"Pine-Bluff.AR","brand":"Chrysler,Dodge,Jeep,RAM","website":"www.smartchryslerdodgeramjeep.com","address":"3100 Auto Dr","city":"Pine Bluff","state":"AR","zip":71601,"latitude":34.204806,"longitude":-91.9700779,"phone_number_service":"8702518283","phone_number_main":"8702283246","service_hours":"Mo-Fr 07:30 - 17:30","utc_offset":"-300","gplace_id":null,"gplace_url":"https://maps.google.com/?cid=8649573940415925201","dealerID":73430,"trusted":false,"image_id":"v1597283975/chrysler_RM.png","phone":"8702518283","cityStateSlug":"pine-bluff.ar","slug":"Pine-Bluff.AR/smart+chrysler+dodge+ram+jeep","location":"34.204806,-91.9700779","brandsList":["chrysler","dodge","jeep","ram"]},{"id":13291,"crm_id":67074175,"name":"Smart Hyundai","dealerSlug":"smart+hyundai","city_state_slug":"White-Hall.AR","brand":"Hyundai","website":"www.smartdrivehyundai.com","address":"1 Smart Dr","city":"White Hall","state":"AR","zip":71602,"latitude":34.2631395,"longitude":-92.1064901,"phone_number_service":"8706634974","phone_number_main":"8705432230","service_hours":"Mo-Fr 07:30 - 17:30 | Sa 07:30-12:30","utc_offset":"-300","gplace_id":null,"gplace_url":"https://maps.google.com/?cid=3848432026429305986","dealerID":73431,"trusted":false,"image_id":"v1597283959/hyundai_RM.png","phone":"8706634974","cityStateSlug":"white-hall.ar","slug":"White-Hall.AR/smart+hyundai","location":"34.2631395,-92.1064901","brandsList":["hyundai"]},{"id":9021,"crm_id":67074178,"name":"Lucky Chevrolet GMC","dealerSlug":"lucky+chevrolet+gmc","city_state_slug":"McGehee.AR","brand":"Chevrolet,GMC","website":"www.luckychevrolet.com","address":"704 US-65","city":"McGehee","state":"AR","zip":71654,"latitude":33.6045962,"longitude":-91.3829149,"phone_number_service":"8702220357","phone_number_main":"8702244654","service_hours":"Mo-Fr 07:30 - 17:30","utc_offset":"-300","gplace_id":null,"gplace_url":"https://maps.google.com/?cid=16766838070442938956","dealerID":73432,"trusted":false,"image_id":"v1597284079/chevy_ms.png","phone":"8702220357","cityStateSlug":"mcgehee.ar","slug":"McGehee.AR/lucky+chevrolet+gmc","location":"33.6045962,-91.3829149","brandsList":["chevrolet","gmc"]},{"id":7399,"crm_id":67074187,"name":"Jim Golden Ford-Lincoln","dealerSlug":"jim+golden+ford+lincoln","city_state_slug":"Camden.AR","brand":"Ford,Lincoln","website":"www.jimgoldenford.net","address":"790 California Ave SW","city":"Camden","state":"AR","zip":71701,"latitude":33.571973,"longitude":-92.8378435,"phone_number_service":"8887439760","phone_number_main":"8708362100","service_hours":"Mo-Fr 07:00 - 17:00| Sa 08:00 - 12:00","utc_offset":"-300","gplace_id":null,"gplace_url":"https://maps.google.com/?cid=11456140269264375677","dealerID":73434,"trusted":false,"image_id":"v1597283967/ford_RM.png","phone":"8887439760","cityStateSlug":"camden.ar","slug":"Camden.AR/jim+golden+ford+lincoln","location":"33.571973,-92.8378435","brandsList":["ford","lincoln"]},{"id":14061,"crm_id":67074190,"name":"Teague Chevrolet","dealerSlug":"teague+chevrolet","city_state_slug":"El-Dorado.AR","brand":"Chevrolet","website":"www.teaguechevrolet.com","address":"1830 W Hillsboro St Suite A","city":"El Dorado","state":"AR","zip":71730,"latitude":33.2084152,"longitude":-92.6863506,"phone_number_service":"8706394383","phone_number_main":"8706394386","service_hours":"Mo-Fr 07:30 - 17:30","utc_offset":"-300","gplace_id":null,"gplace_url":"https://maps.google.com/?cid=14149097087721616823","dealerID":73435,"trusted":false,"image_id":"v1597284079/chevy_ms.png","phone":"8706394383","cityStateSlug":"el-dorado.ar","slug":"El-Dorado.AR/teague+chevrolet","location":"33.2084152,-92.6863506","brandsList":["chevrolet"]},{"id":13600,"crm_id":67074193,"name":"Stephens Ford","dealerSlug":"stephens+ford","city_state_slug":"Fordyce.AR","brand":"Ford","website":"www.stephensford.com","address":"1409 North Moro Street","city":"Fordyce","state":"AR","zip":71742,"latitude":33.825249,"longitude":-92.4109136,"phone_number_service":"8703523182","phone_number_main":"8703523181","service_hours":"Mo-Fr  08:00 - 17:00","utc_offset":"-300","gplace_id":null,"gplace_url":"https://maps.google.com/?cid=17939071740698259906","dealerID":73436,"trusted":false,"image_id":"v1597283967/ford_RM.png","phone":"8703523182","cityStateSlug":"fordyce.ar","slug":"Fordyce.AR/stephens+ford","location":"33.825249,-92.4109136","brandsList":["ford"]},{"id":13403,"crm_id":67074196,"name":"Southern Chrysler Dodge Jeep RAM","dealerSlug":"southern+chrysler+dodge+jeep+ram","city_state_slug":"Fordyce.AR","brand":"Chrysler,Dodge,Jeep,RAM","website":"www.southernchryslerdodgejeepram.com/","address":"1430 Moro St","city":"Fordyce","state":"AR","zip":71742,"latitude":33.826427,"longitude":-92.409444,"phone_number_service":"8702283207","phone_number_main":"8703527107","service_hours":"Mo-Fr 08:00 - 17:00","utc_offset":"-300","gplace_id":null,"gplace_url":"https://maps.google.com/?cid=7079539350874847941","dealerID":73437,"trusted":false,"image_id":"v1597283975/chrysler_RM.png","phone":"8702283207","cityStateSlug":"fordyce.ar","slug":"Fordyce.AR/southern+chrysler+dodge+jeep+ram","location":"33.826427,-92.409444","brandsList":["chrysler","dodge","jeep","ram"]},{"id":6678,"crm_id":67074199,"name":"Hope Auto Company","dealerSlug":"hope+auto+company","city_state_slug":"Hope.AR","brand":"Ford","website":"www.hopeauto.com","address":"1400 North Hervey","city":"Hope","state":"AR","zip":71801,"latitude":33.6790944,"longitude":-93.604567,"phone_number_service":"8704744844","phone_number_main":"8707772371","service_hours":"Mo-Fr 08:00 - 17:00","utc_offset":"-300","gplace_id":null,"gplace_url":"https://maps.google.com/?cid=3137274452051879728","dealerID":73438,"trusted":false,"image_id":"v1597283967/ford_RM.png","phone":"8704744844","cityStateSlug":"hope.ar","slug":"Hope.AR/hope+auto+company","location":"33.6790944,-93.604567","brandsList":["ford"]},{"id":3856,"crm_id":67074202,"name":"De Queen Ford","dealerSlug":"de+queen+ford","city_state_slug":"De-Queen.AR","brand":"Ford","website":"www.dequeenford.net","address":"863 E Collin Raye Dr","city":"De Queen","state":"AR","zip":71832,"latitude":34.0461883,"longitude":-94.3244583,"phone_number_service":"8773577784","phone_number_main":"8706423604","service_hours":"Mo-Fr 08:00 - 17:00","utc_offset":"-300","gplace_id":null,"gplace_url":"https://maps.google.com/?cid=13142789949229768633","dealerID":73439,"trusted":false,"image_id":"v1597283967/ford_RM.png","phone":"8773577784","cityStateSlug":"de-queen.ar","slug":"De-Queen.AR/de+queen+ford","location":"34.0461883,-94.3244583","brandsList":["ford"]},{"id":3958,"crm_id":67074205,"name":"DeQueen Chrysler Jeep Dodge","dealerSlug":"dequeen+chrysler+jeep+dodge","city_state_slug":"De-Queen.AR","brand":"Chrysler,Dodge,Jeep,RAM","website":"www.dequeenchryslerdodgejeep.com","address":"863 E Collin Raye Dr","city":"De Queen","state":"AR","zip":71832,"latitude":34.0461163,"longitude":-94.3244411,"phone_number_service":"8703309732","phone_number_main":"8706423604","service_hours":"Mo-Fr 08:00 - 17:00","utc_offset":"-300","gplace_id":null,"gplace_url":"https://maps.google.com/?cid=8854158933395223242","dealerID":73440,"trusted":false,"image_id":"v1597283975/chrysler_RM.png","phone":"8703309732","cityStateSlug":"de-queen.ar","slug":"De-Queen.AR/dequeen+chrysler+jeep+dodge","location":"34.0461163,-94.3244411","brandsList":["chrysler","dodge","jeep","ram"]},{"id":11045,"crm_id":67074208,"name":"Orr Nissan of Hot Springs","dealerSlug":"orr+nissan+of+hot+springs","city_state_slug":"Lake-Hamilton.AR","brand":"Nissan","website":"www.orrnissanofhotsprings.com","address":"4111 Central Ave","city":"Lake Hamilton","state":"AR","zip":71913,"latitude":34.4531262,"longitude":-93.0664232,"phone_number_service":"5015254511","phone_number_main":"5015254511","service_hours":"Mo-Fr 07:30 - 17:30 | Sa 08:00 - 12:00","utc_offset":"-300","gplace_id":null,"gplace_url":"https://maps.google.com/?cid=17594496439465411284","dealerID":73441,"trusted":false,"image_id":"v1597283926/nissan_RM.png","phone":"5015254511","cityStateSlug":"lake-hamilton.ar","slug":"Lake-Hamilton.AR/orr+nissan+of+hot+springs","location":"34.4531262,-93.0664232","brandsList":["nissan"]},{"id":2677,"crm_id":67074211,"name":"Cavenaugh Hyundai Hot Springs","dealerSlug":"cavenaugh+hyundai+hot+springs","city_state_slug":"Hot-Springs.AR","brand":"Hyundai","website":"cavenaughhyundaihotsprings.com","address":"4216 Central Ave","city":"Hot Springs","state":"AR","zip":71913,"latitude":34.4538113,"longitude":-93.0696931,"phone_number_service":"5015008731","phone_number_main":"5016230500","service_hours":"Mo-Fr 08:00 - 17:30 | Sa 08:00 - 12:00","utc_offset":"-300","gplace_id":null,"gplace_url":"https://maps.google.com/?cid=2297014403491405978","dealerID":73442,"trusted":false,"image_id":"v1597283959/hyundai_RM.png","phone":"5015008731","cityStateSlug":"hot-springs.ar","slug":"Hot-Springs.AR/cavenaugh+hyundai+hot+springs","location":"34.4538113,-93.0696931","brandsList":["hyundai"]},{"id":13434,"crm_id":67074214,"name":"Southwest Ford Lincoln","dealerSlug":"southwest+ford+lincoln","city_state_slug":"Arkadelphia.AR","brand":"Ford,Lincoln","website":"www.idriveswaford.com","address":"1407 N 10th St","city":"Arkadelphia","state":"AR","zip":71923,"latitude":34.1519322,"longitude":-93.0652804,"phone_number_service":"8887186571","phone_number_main":"8669396349","service_hours":"Mo-Fr 07:30 - 17:00","utc_offset":"-300","gplace_id":null,"gplace_url":"https://maps.google.com/?cid=5592216723260933922","dealerID":73443,"trusted":false,"image_id":"v1597283967/ford_RM.png","phone":"8887186571","cityStateSlug":"arkadelphia.ar","slug":"Arkadelphia.AR/southwest+ford+lincoln","location":"34.1519322,-93.0652804","brandsList":["ford","lincoln"]},{"id":9642,"crm_id":67074217,"name":"Mena Ford","dealerSlug":"mena+ford","city_state_slug":"Mena.AR","brand":"Ford","website":"www.menaford.com","address":"1103 Highway 71 North","city":"Mena","state":"AR","zip":71953,"latitude":34.5857601,"longitude":-94.2186891,"phone_number_service":"8448616143","phone_number_main":"4793942214","service_hours":"Mo-Tu 08:00 - 18:00 | We 08:00 - 17:30 | Th-Fr 08:00 - 18:00 | Sa 08:00 - 15:00","utc_offset":"-300","gplace_id":null,"gplace_url":"https://maps.google.com/?cid=244531665887496115","dealerID":73444,"trusted":false,"image_id":"v1597283967/ford_RM.png","phone":"8448616143","cityStateSlug":"mena.ar","slug":"Mena.AR/mena+ford","location":"34.5857601,-94.2186891","brandsList":["ford"]},{"id":4598,"crm_id":67074220,"name":"Everett Chevrolet","dealerSlug":"everett+chevrolet","city_state_slug":"Benton.AR","brand":"Chevrolet","website":"www.everettchevyauto.com","address":"19236 Interstate 30","city":"Benton","state":"AR","zip":72019,"latitude":34.598798,"longitude":-92.554938,"phone_number_service":"4253827047","phone_number_main":"5015749882","service_hours":"Mo-Fr 07:00 - 18:00 | Sa 07:00 - 12:00","utc_offset":"-300","gplace_id":null,"gplace_url":"https://maps.google.com/?cid=6798087014237058705","dealerID":73445,"trusted":false,"image_id":"v1597284079/chevy_ms.png","phone":"4253827047","cityStateSlug":"benton.ar","slug":"Benton.AR/everett+chevrolet","location":"34.598798,-92.554938","brandsList":["chevrolet"]},{"id":12175,"crm_id":67074226,"name":"Red River Ford","dealerSlug":"red+river+ford","city_state_slug":"Cabot.AR","brand":"Ford","website":"www.redriverfordcabot.net","address":"2040 W Main St","city":"Cabot","state":"AR","zip":72023,"latitude":34.982088,"longitude":-92.0387124,"phone_number_service":"5015008717","phone_number_main":"5018433536","service_hours":"Mo-Fr 08:00 -17:00 | Sa 08:00 -14:00","utc_offset":"-300","gplace_id":null,"gplace_url":"https://maps.google.com/?cid=12835771288174266579","dealerID":73446,"trusted":false,"image_id":"v1597283967/ford_RM.png","phone":"5015008717","cityStateSlug":"cabot.ar","slug":"Cabot.AR/red+river+ford","location":"34.982088,-92.0387124","brandsList":["ford"]},{"id":3428,"crm_id":67074229,"name":"Cowboy Chrysler Dodge Jeep RAM","dealerSlug":"cowboy+chrysler+dodge+jeep+ram","city_state_slug":"Clinton.AR","brand":"Chrysler,Dodge,Jeep,RAM","website":"www.cowboycdjr.com","address":"2799 Hwy 65 S","city":"Clinton","state":"AR","zip":72031,"latitude":35.5554019,"longitude":-92.4487245,"phone_number_service":"5017455333","phone_number_main":"5017455333","service_hours":"Mo-Fr 09:00 - 18:00 | Sa 09:00 - 11:00","utc_offset":"-300","gplace_id":null,"gplace_url":"https://maps.google.com/?cid=15742750508007441834","dealerID":73447,"trusted":false,"image_id":"v1597283975/chrysler_RM.png","phone":"5017455333","cityStateSlug":"clinton.ar","slug":"Clinton.AR/cowboy+chrysler+dodge+jeep+ram","location":"35.5554019,-92.4487245","brandsList":["chrysler","dodge","jeep","ram"]},{"id":13940,"crm_id":67074232,"name":"Superior Nissan Of Conway","dealerSlug":"superior+nissan+of+conway","city_state_slug":"Conway.AR","brand":"Nissan","website":"www.superiornissan.com","address":"1090 Collier Dr","city":"Conway","state":"AR","zip":72032,"latitude":35.094419,"longitude":-92.422475,"phone_number_service":"5015134655","phone_number_main":"5015134655","service_hours":"Mo-Fr 07:00 - 18:00 | Sa 08:00 - 15:00","utc_offset":"-300","gplace_id":null,"gplace_url":"https://maps.google.com/?cid=14919746055002750495","dealerID":73448,"trusted":false,"image_id":"v1597283926/nissan_RM.png","phone":"5015134655","cityStateSlug":"conway.ar","slug":"Conway.AR/superior+nissan+of+conway","location":"35.094419,-92.422475","brandsList":["nissan"]},{"id":13299,"crm_id":67074235,"name":"Smith Ford","dealerSlug":"smith+ford","city_state_slug":"Conway.AR","brand":"Ford","website":"www.smithford.net","address":"908 East Oak","city":"Conway","state":"AR","zip":72032,"latitude":35.0921113,"longitude":-92.4184871,"phone_number_service":"5015008726","phone_number_main":"5013299881","service_hours":"Mo-Fr 07:30 - 17:30 | Sa 07:30-12:00","utc_offset":"-300","gplace_id":null,"gplace_url":"https://maps.google.com/?cid=9014911580445721556","dealerID":73449,"trusted":false,"image_id":"v1597283967/ford_RM.png","phone":"5015008726","cityStateSlug":"conway.ar","slug":"Conway.AR/smith+ford","location":"35.0921113,-92.4184871","brandsList":["ford"]},{"id":13288,"crm_id":67074241,"name":"Smart Ford","dealerSlug":"smart+ford","city_state_slug":"Malvern.AR","brand":"Ford","website":"www.smartfordmalvern.net","address":"1103 Martin Luther King Blvd","city":"Malvern","state":"AR","zip":72104,"latitude":34.3798807,"longitude":-92.8268425,"phone_number_service":"8448466288","phone_number_main":"8883136355","service_hours":"Mo-Fr  08:00 - 17:00","utc_offset":"-300","gplace_id":null,"gplace_url":"https://maps.google.com/?cid=7456746156778100157","dealerID":73450,"trusted":false,"image_id":"v1597283967/ford_RM.png","phone":"8448466288","cityStateSlug":"malvern.ar","slug":"Malvern.AR/smart+ford","location":"34.3798807,-92.8268425","brandsList":["ford"]},{"id":5981,"crm_id":67074244,"name":"Hagans Dodge","dealerSlug":"hagans+dodge","city_state_slug":"Morrilton.AR","brand":"Chrysler,Dodge,Jeep,RAM","website":"www.hagansdcmotors.com","address":"401 Builders Ln","city":"Morrilton","state":"AR","zip":72110,"latitude":35.1726336,"longitude":-92.7149882,"phone_number_service":"5012140902","phone_number_main":"5013544558","service_hours":"Mo-Fr 07:00 - 17:00 | Sa 07:00 - 16:00","utc_offset":"-300","gplace_id":null,"gplace_url":"https://maps.google.com/?cid=4968017541350325561","dealerID":73451,"trusted":false,"image_id":"v1597283975/chrysler_RM.png","phone":"5012140902","cityStateSlug":"morrilton.ar","slug":"Morrilton.AR/hagans+dodge","location":"35.1726336,-92.7149882","brandsList":["chrysler","dodge","jeep","ram"]},{"id":9143,"crm_id":67074247,"name":"Magie Ford Lincoln Co.","dealerSlug":"magie+ford+lincoln+co","city_state_slug":"Morrilton.AR","brand":"Ford,Lincoln","website":"www.magieford.com","address":"948 AR-287","city":"Morrilton","state":"AR","zip":72110,"latitude":35.1755612,"longitude":-92.7116023,"phone_number_service":"8664141942","phone_number_main":"5013544541","service_hours":"Mo-Fr 08:00 - 17:00 | Sa 08:00 - 17:00","utc_offset":"-300","gplace_id":null,"gplace_url":"https://maps.google.com/?cid=17941774163607322515","dealerID":73452,"trusted":false,"image_id":"v1597283967/ford_RM.png","phone":"8664141942","cityStateSlug":"morrilton.ar","slug":"Morrilton.AR/magie+ford+lincoln+co","location":"35.1755612,-92.7116023","brandsList":["ford","lincoln"]},{"id":12719,"crm_id":67074250,"name":"Russell Chevrolet","dealerSlug":"russell+chevrolet","city_state_slug":"Sherwood.AR","brand":"Chevrolet","website":"www.russellchevrolet.com","address":"6100 Landers Road","city":"Sherwood","state":"AR","zip":72117,"latitude":34.8119053,"longitude":-92.2034416,"phone_number_service":"5014364132","phone_number_main":"5014364235","service_hours":"Mo-Fr 07:00 - 17:30 | Sa 08:00-13:00","utc_offset":"-300","gplace_id":null,"gplace_url":"https://maps.google.com/?cid=3026991127801041590","dealerID":73453,"trusted":false,"image_id":"v1597284079/chevy_ms.png","phone":"5014364132","cityStateSlug":"sherwood.ar","slug":"Sherwood.AR/russell+chevrolet","location":"34.8119053,-92.2034416","brandsList":["chevrolet"]},{"id":12720,"crm_id":67074253,"name":"Russell Honda","dealerSlug":"russell+honda","city_state_slug":"North-Little-Rock.AR","brand":"Honda","website":"www.russellhonda.com","address":"6100 Landers Rd","city":"North Little Rock","state":"AR","zip":72117,"latitude":34.812706,"longitude":-92.202857,"phone_number_service":"5018358996","phone_number_main":"5018358996","service_hours":"Mo-Fr 07:30 - 17:30 | Sa 08:00-15:00","utc_offset":"-300","gplace_id":null,"gplace_url":"https://maps.google.com/?cid=10861944871557685145","dealerID":73454,"trusted":false,"image_id":"v1597284047/honda_ms.png","phone":"5018358996","cityStateSlug":"north-little-rock.ar","slug":"North-Little-Rock.AR/russell+honda","location":"34.812706,-92.202857","brandsList":["honda"]},{"id":5095,"crm_id":67074256,"name":"Frank Fletcher Dodge Chrysler Jeep","dealerSlug":"frank+fletcher+dodge+chrysler+jeep","city_state_slug":"Sherwood.AR","brand":"Chrysler,Dodge,Jeep,RAM","website":"www.frankfletcherdodgechryslerjeep.com/","address":"5922 Warden Rd.","city":"Sherwood","state":"AR","zip":72120,"latitude":34.8109126,"longitude":-92.2077609,"phone_number_service":"5013928267","phone_number_main":"5014360986","service_hours":"Mo-Fr 07:00 - 18:00 | Sa 07:00 - 16:00","utc_offset":"-300","gplace_id":null,"gplace_url":"https://maps.google.com/?cid=10732177118911402496","dealerID":73455,"trusted":false,"image_id":"v1597283975/chrysler_RM.png","phone":"5013928267","cityStateSlug":"sherwood.ar","slug":"Sherwood.AR/frank+fletcher+dodge+chrysler+jeep","location":"34.8109126,-92.2077609","brandsList":["chrysler","dodge","jeep","ram"]},{"id":11036,"crm_id":67074259,"name":"Orr Gm Superstore","dealerSlug":"orr+gm+superstore","city_state_slug":"Searcy.AR","brand":"Buick,Chevrolet,GMC","website":"www.orrgmsuperstore.com","address":"1000 Truman Baker Dr","city":"Searcy","state":"AR","zip":72143,"latitude":35.2372917,"longitude":-91.6976781,"phone_number_service":"5015934152","phone_number_main":"5015934184","service_hours":"Mo-Fr 07:30 - 18:00 | Sa 08:00 - 13:00","utc_offset":"-300","gplace_id":null,"gplace_url":"https://maps.google.com/?cid=11039818827587130512","dealerID":73456,"trusted":false,"image_id":"v1597283981/buick_RM.png","phone":"5015934152","cityStateSlug":"searcy.ar","slug":"Searcy.AR/orr+gm+superstore","location":"35.2372917,-91.6976781","brandsList":["buick","chevrolet","gmc"]},{"id":11047,"crm_id":67074265,"name":"Orr Nissan of Searcy","dealerSlug":"orr+nissan+of+searcy","city_state_slug":"Searcy.AR","brand":"Nissan","website":"www.orrnissan.net","address":"3131 E Beebe Capps Expy","city":"Searcy","state":"AR","zip":72143,"latitude":35.2336111,"longitude":-91.7002778,"phone_number_service":"5012685333","phone_number_main":"5012685333","service_hours":"Mo-Fr 07:30 - 18:00 | Sa 08:30 - 12:30","utc_offset":"-300","gplace_id":null,"gplace_url":"https://maps.google.com/?cid=4229641913355478271","dealerID":73457,"trusted":false,"image_id":"v1597283926/nissan_RM.png","phone":"5012685333","cityStateSlug":"searcy.ar","slug":"Searcy.AR/orr+nissan+of+searcy","location":"35.2336111,-91.7002778","brandsList":["nissan"]},{"id":11050,"crm_id":67074268,"name":"Orr Toyota of Searcy","dealerSlug":"orr+toyota+of+searcy","city_state_slug":"Searcy.AR","brand":"Toyota","website":"orrtoyotaofsearcy.com","address":"1745 Janet Dr","city":"Searcy","state":"AR","zip":72143,"latitude":35.2318303,"longitude":-91.7075979,"phone_number_service":"5012070658","phone_number_main":"5012814620","service_hours":"Mo-Fr 07:30 - 18:00 | Sa 08:00 - 12:00","utc_offset":"-300","gplace_id":null,"gplace_url":"https://maps.google.com/?cid=3563042964209061519","dealerID":73458,"trusted":false,"image_id":"v1597284039/toyota_ms.png","phone":"5012070658","cityStateSlug":"searcy.ar","slug":"Searcy.AR/orr+toyota+of+searcy","location":"35.2318303,-91.7075979","brandsList":["toyota"]},{"id":11468,"crm_id":67074271,"name":"Petrus Chevrolet Buick GMC","dealerSlug":"petrus+chevrolet+buick+gmc","city_state_slug":"Stuttgart.AR","brand":"Buick,Cadillac,Chevrolet,GMC","website":"www.petrusgm.com/","address":"1901 S Main St","city":"Stuttgart","state":"AR","zip":72160,"latitude":34.4844198,"longitude":-91.5524192,"phone_number_service":"8774531529","phone_number_main":"8778993203","service_hours":"Mo-Fr 07:30 - 17:00","utc_offset":"-300","gplace_id":null,"gplace_url":"https://maps.google.com/?cid=4780131440462641934","dealerID":73459,"trusted":false,"image_id":"v1597283981/buick_RM.png","phone":"8774531529","cityStateSlug":"stuttgart.ar","slug":"Stuttgart.AR/petrus+chevrolet+buick+gmc","location":"34.4844198,-91.5524192","brandsList":["buick","cadillac","chevrolet","gmc"]},{"id":13635,"crm_id":67074274,"name":"Steve Landers Kia","dealerSlug":"steve+landers+kia","city_state_slug":"Little-Rock.AR","brand":"Kia","website":"www.stevelanderskia.com","address":"201 Colonel Glenn Plaza Loop","city":"Little Rock","state":"AR","zip":72210,"latitude":34.7071001,"longitude":-92.4074128,"phone_number_service":"8884122853","phone_number_main":"5014925800","service_hours":"Mo-Sa 07:00 - 19:00","utc_offset":"-300","gplace_id":null,"gplace_url":"https://maps.google.com/?cid=2802547551407664454","dealerID":73460,"trusted":false,"image_id":"v1597283948/kia_RM.png","phone":"8884122853","cityStateSlug":"little-rock.ar","slug":"Little-Rock.AR/steve+landers+kia","location":"34.7071001,-92.4074128","brandsList":["kia"]},{"id":9586,"crm_id":67074277,"name":"McLarty Honda","dealerSlug":"mclarty+honda","city_state_slug":"Little-Rock.AR","brand":"Honda","website":"www.mclartyhonda.com","address":"10 Colonel Glenn Court","city":"Little Rock","state":"AR","zip":72210,"latitude":34.7101904,"longitude":-92.4074313,"phone_number_service":"8552811787","phone_number_main":"5012324060","service_hours":"Mo-Fr 07:00 - 18:00 | Sa 07:00 - 12:00","utc_offset":"-300","gplace_id":null,"gplace_url":"https://maps.google.com/?cid=7620676781071410685","dealerID":73461,"trusted":false,"image_id":"v1597284047/honda_ms.png","phone":"8552811787","cityStateSlug":"little-rock.ar","slug":"Little-Rock.AR/mclarty+honda","location":"34.7101904,-92.4074313","brandsList":["honda"]},{"id":7133,"crm_id":67074280,"name":"Jaguar Little Rock","dealerSlug":"jaguar+little+rock","city_state_slug":"Little-Rock.AR","brand":"Jaguar","website":"www.jaguarlittlerock.com","address":"25 COLONEL GLENN PLAZA SUITE A","city":"Little Rock","state":"AR","zip":72210,"latitude":34.70663,"longitude":-92.404076,"phone_number_service":"5015082267","phone_number_main":"5016610303","service_hours":"Mo-Fr 07:30 - 18:00 | Sa 08:00 - 17:00","utc_offset":"-300","gplace_id":null,"gplace_url":"https://maps.google.com/?cid=15565709195818480527","dealerID":73462,"trusted":false,"image_id":"v1597283954/jaguar_RM.png","phone":"5015082267","cityStateSlug":"little-rock.ar","slug":"Little-Rock.AR/jaguar+little+rock","location":"34.70663,-92.404076","brandsList":["jaguar"]},{"id":8303,"crm_id":67074283,"name":"Land Rover Little Rock","dealerSlug":"land+rover+little+rock","city_state_slug":"Little-Rock.AR","brand":"Land Rover","website":"www.landroverlittlerock.com","address":"25 Colonel Glenn Plaza Drive","city":"Little Rock","state":"AR","zip":72210,"latitude":34.7066682,"longitude":-92.4040414,"phone_number_service":"5015082269","phone_number_main":"5016610303","service_hours":"Mo-Fr 07:30 - 18:00 | Sa 08:00 - 17:00","utc_offset":"-300","gplace_id":null,"gplace_url":"https://maps.google.com/?cid=10031461449992521826","dealerID":73463,"trusted":false,"image_id":"v1597283945/landrover_RM.png","phone":"5015082269","cityStateSlug":"little-rock.ar","slug":"Little-Rock.AR/land+rover+little+rock","location":"34.7066682,-92.4040414","brandsList":["land rover"]},{"id":11096,"crm_id":67074286,"name":"Owens Murphy Volkswagen","dealerSlug":"owens+murphy+volkswagen","city_state_slug":"Little-Rock.AR","brand":"Volkswagen","website":"www.owensmurphyvolkswagen.com","address":"25 Colonel Glenn Plaza Dr","city":"Little Rock","state":"AR","zip":72210,"latitude":34.7065751,"longitude":-92.4042666,"phone_number_service":"5015082266","phone_number_main":"5016610303","service_hours":"Mo-Fr 07:30 - 18:00 | Sa 08:00 - 17:00","utc_offset":"-300","gplace_id":null,"gplace_url":"https://maps.google.com/?cid=441658312542305566","dealerID":73464,"trusted":false,"image_id":"v1597283902/volkswagen.png","phone":"5015082266","cityStateSlug":"little-rock.ar","slug":"Little-Rock.AR/owens+murphy+volkswagen","location":"34.7065751,-92.4042666","brandsList":["volkswagen"]},{"id":1689,"crm_id":67074289,"name":"BMW of Little Rock","dealerSlug":"bmw+of+little+rock","city_state_slug":"Little-Rock.AR","brand":"BMW","website":"www.bmwoflittlerock.com","address":"4621 Colonel Glenn Plaza Dr","city":"Little Rock","state":"AR","zip":72210,"latitude":34.7134102,"longitude":-92.4047394,"phone_number_service":"8774220796","phone_number_main":"8774220796","service_hours":"Mo-Fr 07:00 - 18:00 | Sa 08:00 - 17:00","utc_offset":"-300","gplace_id":null,"gplace_url":"https://maps.google.com/?cid=10383259966969611931","dealerID":51547,"trusted":true,"image_id":"v1597283982/bmw_RM.png","phone":"8774220796","cityStateSlug":"little-rock.ar","slug":"Little-Rock.AR/bmw+of+little+rock","location":"34.7134102,-92.4047394","brandsList":["bmw"]},{"id":9762,"crm_id":67074292,"name":"Mercedes-Benz of Little Rock","dealerSlug":"mercedes+benz+of+little+rock","city_state_slug":"Little-Rock.AR","brand":"Mercedes-Benz","website":"www.mercedesbenzoflittlerock.com","address":"8 Colonel Glenn Plaza Dr","city":"Little Rock","state":"AR","zip":72210,"latitude":34.7100439,"longitude":-92.405051,"phone_number_service":"8669544344","phone_number_main":"5016669457","service_hours":"Mo-Fr 07:30 - 18:00 | Sa 08:30  - 12:00","utc_offset":"-300","gplace_id":null,"gplace_url":"https://maps.google.com/?cid=5640219706760465408","dealerID":73466,"trusted":false,"image_id":"v1597283934/mercedes_RM.png","phone":"8669544344","cityStateSlug":"little-rock.ar","slug":"Little-Rock.AR/mercedes+benz+of+little+rock","location":"34.7100439,-92.405051","brandsList":["mercedes-benz"]},{"id":3447,"crm_id":67074295,"name":"Crain Ford of Little Rock","dealerSlug":"crain+ford+of+little+rock","city_state_slug":"Little-Rock.AR","brand":"Ford","website":"www.crainfordoflittlerock.net","address":"4601 Colonel Glenn Plaza Dr","city":"Little Rock","state":"AR","zip":72210,"latitude":34.7144572,"longitude":-92.4044418,"phone_number_service":"5015703730","phone_number_main":"5014360341","service_hours":"Mo-Fr 07:00 - 18:00 | Sa 07:30 - 15:00","utc_offset":"-300","gplace_id":null,"gplace_url":"https://maps.google.com/?cid=13689044205945189468","dealerID":73467,"trusted":false,"image_id":"v1597283967/ford_RM.png","phone":"5015703730","cityStateSlug":"little-rock.ar","slug":"Little-Rock.AR/crain+ford+of+little+rock","location":"34.7144572,-92.4044418","brandsList":["ford"]},{"id":11189,"crm_id":67074298,"name":"Parker Audi","dealerSlug":"parker+audi","city_state_slug":"Little-Rock.AR","brand":"Audi","website":"www.arkansasaudi.com","address":"1624 N Shackleford Rd","city":"Little Rock","state":"AR","zip":72211,"latitude":34.7690921,"longitude":-92.396331,"phone_number_service":"8885410051","phone_number_main":"5012212600","service_hours":"Mo-Fr 07:30 - 17:30","utc_offset":"-300","gplace_id":null,"gplace_url":"https://maps.google.com/?cid=18162957386543129381","dealerID":73468,"trusted":false,"image_id":"v1597283985/audi_RM.png","phone":"8885410051","cityStateSlug":"little-rock.ar","slug":"Little-Rock.AR/parker+audi","location":"34.7690921,-92.396331","brandsList":["audi"]},{"id":5005,"crm_id":67074301,"name":"Ford of West Memphis","dealerSlug":"ford+of+west+memphis","city_state_slug":"West-Memphis.AR","brand":"Ford","website":"www.fordofwestmemphis.com","address":"2400 S Service Rd","city":"West Memphis","state":"AR","zip":72301,"latitude":35.1579005,"longitude":-90.1550813,"phone_number_service":"8707359800","phone_number_main":"8707359800","service_hours":"Mo-Fr 07:00 - 18:00 | Sa 08:00 - 14:00","utc_offset":"-300","gplace_id":null,"gplace_url":"https://maps.google.com/?cid=14267629634813402630","dealerID":73469,"trusted":false,"image_id":"v1597283967/ford_RM.png","phone":"8707359800","cityStateSlug":"west-memphis.ar","slug":"West-Memphis.AR/ford+of+west+memphis","location":"35.1579005,-90.1550813","brandsList":["ford"]},{"id":4582,"crm_id":67074310,"name":"Eugene Vaughn Ford Sales","dealerSlug":"eugene+vaughn+ford+sales","city_state_slug":"Marked-Tree.AR","brand":"Ford","website":"www.vaughnford.com","address":"106 Hwy 63 West","city":"Marked Tree","state":"AR","zip":72365,"latitude":35.5306049,"longitude":-90.4282454,"phone_number_service":"8888112962","phone_number_main":"8703582822","service_hours":"Mo-Fr 07:30 - 17:00","utc_offset":"-300","gplace_id":null,"gplace_url":"https://maps.google.com/?cid=8227296799608668950","dealerID":73470,"trusted":false,"image_id":"v1597283967/ford_RM.png","phone":"8888112962","cityStateSlug":"marked-tree.ar","slug":"Marked-Tree.AR/eugene+vaughn+ford+sales","location":"35.5306049,-90.4282454","brandsList":["ford"]},{"id":2297,"crm_id":67074313,"name":"Bull Motor Company","dealerSlug":"bull+motor+company","city_state_slug":"Wynne.AR","brand":"Buick,Chevrolet,GMC","website":"www.bullmotorco.com","address":"224 Hwy 64 East","city":"Wynne","state":"AR","zip":72396,"latitude":35.2541587,"longitude":-90.7832516,"phone_number_service":"8705874140","phone_number_main":"8702382800","service_hours":"Mo-Fr 07:30 - 17:30 | Sa 08:30 - 12:00","utc_offset":"-300","gplace_id":null,"gplace_url":"https://maps.google.com/?cid=13233935626310856929","dealerID":73471,"trusted":false,"image_id":"v1597283981/buick_RM.png","phone":"8705874140","cityStateSlug":"wynne.ar","slug":"Wynne.AR/bull+motor+company","location":"35.2541587,-90.7832516","brandsList":["buick","chevrolet","gmc"]},{"id":2675,"crm_id":67074319,"name":"Cavenaugh Ford Lincoln","dealerSlug":"cavenaugh+ford+lincoln","city_state_slug":"Jonesboro.AR","brand":"Ford,Lincoln","website":"www.cavenaughford.net","address":"2000 E Highland Dr","city":"Jonesboro","state":"AR","zip":72401,"latitude":35.8221151,"longitude":-90.6813471,"phone_number_service":"8704065978","phone_number_main":"8709728000","service_hours":"Mo-Fr 07:30 - 17:30 | Sa 08:00 - 14:00","utc_offset":"-300","gplace_id":null,"gplace_url":"https://maps.google.com/?cid=15402555028868454044","dealerID":73472,"trusted":false,"image_id":"v1597283967/ford_RM.png","phone":"8704065978","cityStateSlug":"jonesboro.ar","slug":"Jonesboro.AR/cavenaugh+ford+lincoln","location":"35.8221151,-90.6813471","brandsList":["ford","lincoln"]},{"id":2730,"crm_id":67074322,"name":"Central Nissan","dealerSlug":"central+nissan","city_state_slug":"Jonesboro.AR","brand":"Nissan","website":"www.centralnissan.net","address":"2907 E Parker Rd","city":"Jonesboro","state":"AR","zip":72404,"latitude":35.8043096,"longitude":-90.6707795,"phone_number_service":"8703363564","phone_number_main":"8702685454","service_hours":"Mo-Fr 08:00 - 17:00","utc_offset":"-300","gplace_id":null,"gplace_url":"https://maps.google.com/?cid=407596846596464156","dealerID":73473,"trusted":false,"image_id":"v1597283926/nissan_RM.png","phone":"8703363564","cityStateSlug":"jonesboro.ar","slug":"Jonesboro.AR/central+nissan","location":"35.8043096,-90.6707795","brandsList":["nissan"]},{"id":6620,"crm_id":67074325,"name":"Honda of Jonesboro","dealerSlug":"honda+of+jonesboro","city_state_slug":"Jonesboro.AR","brand":"Honda","website":"www.hondaofjonesboro.com","address":"3003 E Parker Rd","city":"Jonesboro","state":"AR","zip":72404,"latitude":35.8057584,"longitude":-90.6664886,"phone_number_service":"8884797105","phone_number_main":"8709321468","service_hours":"Mo-Fr 07:30 -18:00 | Sa 08:00 - 14:00","utc_offset":"-300","gplace_id":null,"gplace_url":"https://maps.google.com/?cid=4894953621984660881","dealerID":73474,"trusted":false,"image_id":"v1597284047/honda_ms.png","phone":"8884797105","cityStateSlug":"jonesboro.ar","slug":"Jonesboro.AR/honda+of+jonesboro","location":"35.8057584,-90.6664886","brandsList":["honda"]},{"id":2712,"crm_id":67074328,"name":"Central Chevrolet","dealerSlug":"central+chevrolet","city_state_slug":"Jonesboro.AR","brand":"Cadillac,Chevrolet","website":"www.centralchevrolet.com","address":"3207 Stadium Blvd","city":"Jonesboro","state":"AR","zip":72404,"latitude":35.8024845,"longitude":-90.6707671,"phone_number_service":"8707389379","phone_number_main":"8703945007","service_hours":"Mo-Fr 07:30 - 17:00","utc_offset":"-300","gplace_id":null,"gplace_url":"https://maps.google.com/?cid=5113468895875693955","dealerID":73475,"trusted":false,"image_id":"v1597283980/cadillac.png","phone":"8707389379","cityStateSlug":"jonesboro.ar","slug":"Jonesboro.AR/central+chevrolet","location":"35.8024845,-90.6707671","brandsList":["cadillac","chevrolet"]},{"id":2731,"crm_id":67074331,"name":"Central Toyota","dealerSlug":"central+toyota","city_state_slug":"Jonesboro.AR","brand":"Toyota","website":"www.centraltoyota.com","address":"3305 Stadium Blvd","city":"Jonesboro","state":"AR","zip":72404,"latitude":35.8011111,"longitude":-90.6705556,"phone_number_service":"8702770261","phone_number_main":"8702685418","service_hours":"Mo-Fr 07:30 - 17:00","utc_offset":"-300","gplace_id":null,"gplace_url":"https://maps.google.com/?cid=9458247204100693718","dealerID":73476,"trusted":false,"image_id":"v1597284039/toyota_ms.png","phone":"8702770261","cityStateSlug":"jonesboro.ar","slug":"Jonesboro.AR/central+toyota","location":"35.8011111,-90.6705556","brandsList":["toyota"]},{"id":4901,"crm_id":67074334,"name":"Fletcher Dodge Chrysler Jeep RAM","dealerSlug":"fletcher+dodge+chrysler+jeep+ram","city_state_slug":"Jonesboro.AR","brand":"Chrysler,Dodge,Jeep,RAM","website":"www.fletcherdcj.com","address":"3314 Stadium Blvd","city":"Jonesboro","state":"AR","zip":72404,"latitude":35.8022966,"longitude":-90.6685858,"phone_number_service":"8772245079","phone_number_main":"8702772011","service_hours":"Mo-Fr 07:00 - 18:00 | Sa 08:00 - 16:00","utc_offset":"-300","gplace_id":null,"gplace_url":"https://maps.google.com/?cid=4785983687602605288","dealerID":73477,"trusted":false,"image_id":"v1597283975/chrysler_RM.png","phone":"8772245079","cityStateSlug":"jonesboro.ar","slug":"Jonesboro.AR/fletcher+dodge+chrysler+jeep+ram","location":"35.8022966,-90.6685858","brandsList":["chrysler","dodge","jeep","ram"]},{"id":2679,"crm_id":67074337,"name":"Cavenaugh Kia","dealerSlug":"cavenaugh+kia","city_state_slug":"Jonesboro.AR","brand":"Kia","website":"www.cavenaughkia.com","address":"3315 Stadium Blvd","city":"Jonesboro","state":"AR","zip":72404,"latitude":35.7997,"longitude":-90.67051,"phone_number_service":"8709059441","phone_number_main":"8709338888","service_hours":"Mo-Sa 08:00 - 17:00","utc_offset":"-300","gplace_id":null,"gplace_url":"https://maps.google.com/?cid=13199581612093867276","dealerID":73478,"trusted":false,"image_id":"v1597283948/kia_RM.png","phone":"8709059441","cityStateSlug":"jonesboro.ar","slug":"Jonesboro.AR/cavenaugh+kia","location":"35.7997,-90.67051","brandsList":["kia"]},{"id":12178,"crm_id":67074340,"name":"Red Taylor Ford","dealerSlug":"red+taylor+ford","city_state_slug":"Corning.AR","brand":"Ford","website":"www.redtaylorford.com","address":"401 SW 2nd St","city":"Corning","state":"AR","zip":72422,"latitude":36.4084311,"longitude":-90.5816115,"phone_number_service":"8882111354","phone_number_main":"8708573516","service_hours":"Mo-Fr 07:30 - 17:00","utc_offset":"-300","gplace_id":null,"gplace_url":"https://maps.google.com/?cid=9574085642957715530","dealerID":73479,"trusted":false,"image_id":"v1597283967/ford_RM.png","phone":"8882111354","cityStateSlug":"corning.ar","slug":"Corning.AR/red+taylor+ford","location":"36.4084311,-90.5816115","brandsList":["ford"]},{"id":5611,"crm_id":67074346,"name":"Glen Sain Ford","dealerSlug":"glen+sain+ford","city_state_slug":"Paragould.AR","brand":"Ford","website":"www.glensainford.net","address":"1301 US 49","city":"Paragould","state":"AR","zip":72450,"latitude":36.0724151,"longitude":-90.497355,"phone_number_service":"8778346513","phone_number_main":"8702368546","service_hours":"Mo-Fr 07:30 - 17:00","utc_offset":"-300","gplace_id":null,"gplace_url":"https://maps.google.com/?cid=9644387575755202671","dealerID":73480,"trusted":false,"image_id":"v1597283967/ford_RM.png","phone":"8778346513","cityStateSlug":"paragould.ar","slug":"Paragould.AR/glen+sain+ford","location":"36.0724151,-90.497355","brandsList":["ford"]},{"id":5613,"crm_id":67074349,"name":"Glen Sain Motors","dealerSlug":"glen+sain+motors","city_state_slug":"Paragould.AR","brand":"Buick,Cadillac,Chevrolet,GMC","website":"www.glensainparagould.com","address":"6345 Hwy 49 South","city":"Paragould","state":"AR","zip":72450,"latitude":35.9824789,"longitude":-90.542401,"phone_number_service":"8705654343","phone_number_main":"8705654352","service_hours":"Mo-Fr 07:30 - 17:00","utc_offset":"-300","gplace_id":null,"gplace_url":"https://maps.google.com/?cid=5701498689629373482","dealerID":73481,"trusted":false,"image_id":"v1597283981/buick_RM.png","phone":"8705654343","cityStateSlug":"paragould.ar","slug":"Paragould.AR/glen+sain+motors","location":"35.9824789,-90.542401","brandsList":["buick","cadillac","chevrolet","gmc"]},{"id":5612,"crm_id":67074355,"name":"Glen Sain GMC","dealerSlug":"glen+sain+gmc","city_state_slug":"Rector.AR","brand":"GMC","website":"www.glensaingmc.com","address":"421 E 9th St","city":"Rector","state":"AR","zip":72461,"latitude":36.2592792,"longitude":-90.288589,"phone_number_service":"8772954614","phone_number_main":"8705953563","service_hours":"Mo-Fr 07:30 - 17:00","utc_offset":"-300","gplace_id":null,"gplace_url":"https://maps.google.com/?cid=1446423436515477237","dealerID":73482,"trusted":false,"image_id":"v1597283963/gmc_RM.png","phone":"8772954614","cityStateSlug":"rector.ar","slug":"Rector.AR/glen+sain+gmc","location":"36.2592792,-90.288589","brandsList":["gmc"]},{"id":2674,"crm_id":67074358,"name":"Cavenaugh Chrysler Dodge Jeep","dealerSlug":"cavenaugh+chrysler+dodge+jeep","city_state_slug":"Walnut-Ridge.AR","brand":"Chrysler,Dodge,Jeep,RAM","website":"www.cavenaughcdjr.com","address":"3507 Highway 67 North","city":"Walnut Ridge","state":"AR","zip":72476,"latitude":36.104361,"longitude":-90.958106,"phone_number_service":"8442678245","phone_number_main":"8708862414","service_hours":"Mo-Fr 08:00 - 17:00 | Sa 08:00 - 12:00","utc_offset":"-300","gplace_id":null,"gplace_url":"https://maps.google.com/?cid=7754313843243106610","dealerID":73483,"trusted":false,"image_id":"v1597283975/chrysler_RM.png","phone":"8442678245","cityStateSlug":"walnut-ridge.ar","slug":"Walnut-Ridge.AR/cavenaugh+chrysler+dodge+jeep","location":"36.104361,-90.958106","brandsList":["chrysler","dodge","jeep","ram"]},{"id":2676,"crm_id":67074364,"name":"Cavenaugh Gm Supercenter","dealerSlug":"cavenaugh+gm+supercenter","city_state_slug":"Walnut-Ridge.AR","brand":"Buick,Chevrolet,GMC","website":"www.cavenaughgm.com","address":"3487 Hwy 67 North","city":"Walnut Ridge","state":"AR","zip":72476,"latitude":36.103274,"longitude":-90.9582497,"phone_number_service":"8706370076","phone_number_main":"8706394391","service_hours":"Mo-Fr 08:00 - 17:30 | Sa 08:00 - 12:00","utc_offset":"-300","gplace_id":null,"gplace_url":"https://maps.google.com/?cid=12050626252113648100","dealerID":73484,"trusted":false,"image_id":"v1597283981/buick_RM.png","phone":"8706370076","cityStateSlug":"walnut-ridge.ar","slug":"Walnut-Ridge.AR/cavenaugh+gm+supercenter","location":"36.103274,-90.9582497","brandsList":["buick","chevrolet","gmc"]},{"id":13548,"crm_id":67074370,"name":"Stanley Wood Chevrolet Buick GMC","dealerSlug":"stanley+wood+chevrolet+buick+gmc","city_state_slug":"Batesville.AR","brand":"Buick,Chevrolet,GMC","website":"www.stanleywoodchevrolet.com","address":"1674 Batesville Blvd","city":"Batesville","state":"AR","zip":72501,"latitude":35.7107585,"longitude":-91.6330961,"phone_number_service":"8703760190","phone_number_main":"8703904093","service_hours":"Mo-Fr 07:30 - 17:30 | Sa 08:00-13:00","utc_offset":"-300","gplace_id":null,"gplace_url":"https://maps.google.com/?cid=4233762435304427249","dealerID":73485,"trusted":false,"image_id":"v1597283981/buick_RM.png","phone":"8703760190","cityStateSlug":"batesville.ar","slug":"Batesville.AR/stanley+wood+chevrolet+buick+gmc","location":"35.7107585,-91.6330961","brandsList":["buick","chevrolet","gmc"]},{"id":12174,"crm_id":67074373,"name":"Red River Dodge of Heber Springs","dealerSlug":"red+river+dodge+of+heber+springs","city_state_slug":"Heber-Springs.AR","brand":"Chrysler,Dodge,Jeep,RAM","website":"www.redriverdodge.net","address":"1060 Heber Spring Rd","city":"Heber Springs","state":"AR","zip":72543,"latitude":35.4593468,"longitude":-92.0370559,"phone_number_service":"5013652818","phone_number_main":"5013625831","service_hours":"Mo-Fr 08:00 -17:00 | Sa 08:00 -13:00","utc_offset":"-300","gplace_id":null,"gplace_url":"https://maps.google.com/?cid=9952246222150434572","dealerID":73486,"trusted":false,"image_id":"v1597283975/chrysler_RM.png","phone":"5013652818","cityStateSlug":"heber-springs.ar","slug":"Heber-Springs.AR/red+river+dodge+of+heber+springs","location":"35.4593468,-92.0370559","brandsList":["chrysler","dodge","jeep","ram"]},{"id":6219,"crm_id":67074376,"name":"Heartland Ford","dealerSlug":"heartland+ford","city_state_slug":"Heber-Springs.AR","brand":"Ford","website":"www.heartlandford.com","address":"1810 Highway 25B North","city":"Heber Springs","state":"AR","zip":72543,"latitude":35.5110941,"longitude":-92.0297794,"phone_number_service":"8666264305","phone_number_main":"5013628211","service_hours":"Mo-Fr  07:30 - 17:00 | Sa 08:00 - 14:00","utc_offset":"-300","gplace_id":null,"gplace_url":"https://maps.google.com/?cid=13747953446392451401","dealerID":73487,"trusted":false,"image_id":"v1597283967/ford_RM.png","phone":"8666264305","cityStateSlug":"heber-springs.ar","slug":"Heber-Springs.AR/heartland+ford","location":"35.5110941,-92.0297794","brandsList":["ford"]},{"id":5174,"crm_id":67074379,"name":"Freedom Ford","dealerSlug":"freedom+ford","city_state_slug":"Melbourne.AR","brand":"Ford","website":"www.freedomford.net","address":"901 E Main St","city":"Melbourne","state":"AR","zip":72556,"latitude":36.0590785,"longitude":-91.8926396,"phone_number_service":"8773997953","phone_number_main":"8703684219","service_hours":"Mo-Fr 08:00 - 17:00","utc_offset":"-300","gplace_id":null,"gplace_url":"https://maps.google.com/?cid=17630629599055107611","dealerID":73488,"trusted":false,"image_id":"v1597283967/ford_RM.png","phone":"8773997953","cityStateSlug":"melbourne.ar","slug":"Melbourne.AR/freedom+ford","location":"36.0590785,-91.8926396","brandsList":["ford"]},{"id":288,"crm_id":67074382,"name":"Altman Motor Company","dealerSlug":"altman+motor+company","city_state_slug":"Mountain-View.AR","brand":"Chrysler,Dodge,Jeep,RAM","website":"www.altmanmotor.com","address":"415 Sylamore Ave","city":"Mountain View","state":"AR","zip":72560,"latitude":35.8691249,"longitude":-92.103708,"phone_number_service":"8709708187","phone_number_main":"8704554097","service_hours":"Mo-Fr 08:00 - 17:00","utc_offset":"-300","gplace_id":null,"gplace_url":"https://maps.google.com/?cid=12796751522095502498","dealerID":73489,"trusted":false,"image_id":"v1597283975/chrysler_RM.png","phone":"8709708187","cityStateSlug":"mountain-view.ar","slug":"Mountain-View.AR/altman+motor+company","location":"35.8691249,-92.103708","brandsList":["chrysler","dodge","jeep","ram"]},{"id":3061,"crm_id":67074385,"name":"Clay Maxey Ford","dealerSlug":"clay+maxey+ford","city_state_slug":"Harrison.AR","brand":"Ford","website":"www.claymaxeyfordharrison.com","address":"311 Highway 62-65 South Bypass","city":"Harrison","state":"AR","zip":72601,"latitude":36.2351674,"longitude":-93.0877228,"phone_number_service":"8703593664","phone_number_main":"8707433200","service_hours":"Mo-Fr 07:30 - 18:00 | Sa 07:30 - 12:00 | Su Closed","utc_offset":"-300","gplace_id":null,"gplace_url":"https://maps.google.com/?cid=3601776995019820215","dealerID":73490,"trusted":false,"image_id":"v1597283967/ford_RM.png","phone":"8703593664","cityStateSlug":"harrison.ar","slug":"Harrison.AR/clay+maxey+ford","location":"36.2351674,-93.0877228","brandsList":["ford"]},{"id":15613,"crm_id":67074388,"name":"Wood Motor Chevrolet","dealerSlug":"wood+motor+chevrolet","city_state_slug":"Harrison.AR","brand":"Chevrolet","website":"www.woodmotorchevy.com","address":"600 US-62","city":"Harrison","state":"AR","zip":72601,"latitude":36.2459907,"longitude":-93.1145432,"phone_number_service":"8667731076","phone_number_main":"8704554768","service_hours":"Mo-Fr 07:30 - 17:00 | Sa 08:30-12:00","utc_offset":"-300","gplace_id":null,"gplace_url":"https://maps.google.com/?cid=11187678322792895101","dealerID":73491,"trusted":false,"image_id":"v1597284079/chevy_ms.png","phone":"8667731076","cityStateSlug":"harrison.ar","slug":"Harrison.AR/wood+motor+chevrolet","location":"36.2459907,-93.1145432","brandsList":["chevrolet"]},{"id":15615,"crm_id":67074391,"name":"Wood Motor Nissan","dealerSlug":"wood+motor+nissan","city_state_slug":"Harrison.AR","brand":"Nissan","website":"www.woodmotornissan.com","address":"600 Hwy 62-65 N","city":"Harrison","state":"AR","zip":72601,"latitude":36.2458411,"longitude":-93.1140142,"phone_number_service":"8707418211","phone_number_main":"8707418211","service_hours":"Mo-We 07:30 - 17:30 | Th 07:30 - 19:30 | Fr 07:30 - 17:30 | Sa 08:00 - 12:00","utc_offset":"-300","gplace_id":null,"gplace_url":"https://maps.google.com/?cid=12936209866854697574","dealerID":73492,"trusted":false,"image_id":"v1597283926/nissan_RM.png","phone":"8707418211","cityStateSlug":"harrison.ar","slug":"Harrison.AR/wood+motor+nissan","location":"36.2458411,-93.1140142","brandsList":["nissan"]},{"id":3062,"crm_id":67074394,"name":"Clay Maxey Ford of Berryville","dealerSlug":"clay+maxey+ford+of+berryville","city_state_slug":"Berryville.AR","brand":"Ford","website":"www.claymaxeyfordberryville.com","address":"706 West Trimble","city":"Berryville","state":"AR","zip":72616,"latitude":36.3725743,"longitude":-93.5816251,"phone_number_service":"8703593824","phone_number_main":"8704233303","service_hours":"Mo-Fr 07:30 - 17:30 | Sa -Su Closed","utc_offset":"-300","gplace_id":null,"gplace_url":"https://maps.google.com/?cid=10877632685920826000","dealerID":73493,"trusted":false,"image_id":"v1597283967/ford_RM.png","phone":"8703593824","cityStateSlug":"berryville.ar","slug":"Berryville.AR/clay+maxey+ford+of+berryville","location":"36.3725743,-93.5816251","brandsList":["ford"]},{"id":7846,"crm_id":67074397,"name":"Kent Chevrolet Cadillac","dealerSlug":"kent+chevrolet+cadillac","city_state_slug":"Mountain-Home.AR","brand":"Cadillac,Chevrolet","website":"www.kentchevrolet.com","address":"1413 Hwy 62 E","city":"Mountain Home","state":"AR","zip":72653,"latitude":36.3524372,"longitude":-92.3608279,"phone_number_service":"8665152779","phone_number_main":"8885360357","service_hours":"Mo-Fr 07:30 - 17:30","utc_offset":"-300","gplace_id":null,"gplace_url":"https://maps.google.com/?cid=7125696601702756711","dealerID":73494,"trusted":false,"image_id":"v1597283980/cadillac.png","phone":"8665152779","cityStateSlug":"mountain-home.ar","slug":"Mountain-Home.AR/kent+chevrolet+cadillac","location":"36.3524372,-92.3608279","brandsList":["cadillac","chevrolet"]},{"id":14719,"crm_id":67074400,"name":"Ultimate Ford","dealerSlug":"ultimate+ford","city_state_slug":"Mountain-Home.AR","brand":"Ford","website":"www.ultimatefordinc.com","address":"2448 Highway 62 West","city":"Mountain Home","state":"AR","zip":72653,"latitude":36.3163851,"longitude":-92.4033759,"phone_number_service":"8704252181","phone_number_main":"8704252181","service_hours":"Mo-Fr  08:00 - 17:00","utc_offset":"-300","gplace_id":null,"gplace_url":"https://maps.google.com/?cid=3283295904567261742","dealerID":73495,"trusted":false,"image_id":"v1597283967/ford_RM.png","phone":"8704252181","cityStateSlug":"mountain-home.ar","slug":"Mountain-Home.AR/ultimate+ford","location":"36.3163851,-92.4033759","brandsList":["ford"]},{"id":13941,"crm_id":67074403,"name":"Superior Nissan of Fayetteville","dealerSlug":"superior+nissan+of+fayetteville","city_state_slug":"Fayetteville.AR","brand":"Nissan","website":"www.superiornissannwa.com","address":"3372 N COLLEGE AVE","city":"Fayetteville","state":"AR","zip":72703,"latitude":36.1127697,"longitude":-94.1445097,"phone_number_service":"4792029912","phone_number_main":"4794424251","service_hours":"Mo-Fr 07:00 - 18:00 | Sa 08:00 - 15:00","utc_offset":"-300","gplace_id":null,"gplace_url":"https://maps.google.com/?cid=10919779788856915382","dealerID":73496,"trusted":false,"image_id":"v1597283926/nissan_RM.png","phone":"4792029912","cityStateSlug":"fayetteville.ar","slug":"Fayetteville.AR/superior+nissan+of+fayetteville","location":"36.1127697,-94.1445097","brandsList":["nissan"]},{"id":2875,"crm_id":67074406,"name":"Chevrolet of Fayetteville","dealerSlug":"chevrolet+of+fayetteville","city_state_slug":"Fayetteville.AR","brand":"Chevrolet","website":"www.chevroletoffayetteville.com","address":"1310 W Showroom Dr","city":"Fayetteville","state":"AR","zip":72704,"latitude":36.1091885,"longitude":-94.1770549,"phone_number_service":"8778689983","phone_number_main":"8772042888","service_hours":"Mo-Fr 07:00 - 18:00","utc_offset":"-300","gplace_id":null,"gplace_url":"https://maps.google.com/?cid=13634232907830086175","dealerID":73497,"trusted":false,"image_id":"v1597284079/chevy_ms.png","phone":"8778689983","cityStateSlug":"fayetteville.ar","slug":"Fayetteville.AR/chevrolet+of+fayetteville","location":"36.1091885,-94.1770549","brandsList":["chevrolet"]},{"id":1718,"crm_id":67074409,"name":"BMW of Northwest Arkansas","dealerSlug":"bmw+of+northwest+arkansas","city_state_slug":"Bentonville.AR","brand":"BMW","website":"www.bmwofnwa.com","address":"2500 SE Moberly Ln","city":"Bentonville","state":"AR","zip":72712,"latitude":36.3457389,"longitude":-94.1844693,"phone_number_service":"4792863012","phone_number_main":"4792863012","service_hours":"Mo-Fr 07:00 - 18:00 | Sa 08:00 - 15:00","utc_offset":"-300","gplace_id":null,"gplace_url":"https://maps.google.com/?cid=4412047934411273362","dealerID":51602,"trusted":true,"image_id":"v1597283982/bmw_RM.png","phone":"4792863012","cityStateSlug":"bentonville.ar","slug":"Bentonville.AR/bmw+of+northwest+arkansas","location":"36.3457389,-94.1844693","brandsList":["bmw"]},{"id":9583,"crm_id":67074412,"name":"McLarty Daniel Buick GMC","dealerSlug":"mclarty+daniel+buick+gmc","city_state_slug":"Bentonville.AR","brand":"Buick,GMC","website":"www.bentonvillebuickgmc.com","address":"2517 SE Best Ln","city":"Bentonville","state":"AR","zip":72712,"latitude":36.3471813,"longitude":-94.1814131,"phone_number_service":"8885479516","phone_number_main":"4792501955","service_hours":"Mo-Fr 07:00 - 18:00 | Sa 07:00 - 15:00","utc_offset":"-300","gplace_id":null,"gplace_url":"https://maps.google.com/?cid=3648300988392325864","dealerID":73499,"trusted":false,"image_id":"v1597283981/buick_RM.png","phone":"8885479516","cityStateSlug":"bentonville.ar","slug":"Bentonville.AR/mclarty+daniel+buick+gmc","location":"36.3471813,-94.1814131","brandsList":["buick","gmc"]},{"id":13939,"crm_id":67074415,"name":"Superior Mazda of Bentonville","dealerSlug":"superior+mazda+of+bentonville","city_state_slug":"Bentonville.AR","brand":"Mazda","website":"www.superiormazda.com","address":"2600 SE Moberly Lane","city":"Bentonville","state":"AR","zip":72712,"latitude":36.344644,"longitude":-94.184716,"phone_number_service":"4792863011","phone_number_main":"4792863011","service_hours":"Mo-Fr 07:00 - 18:00 | Sa 08:00 - 15:00","utc_offset":"-300","gplace_id":null,"gplace_url":"https://maps.google.com/?cid=4839039478030692660","dealerID":73500,"trusted":false,"image_id":"v1597283937/mazda.png","phone":"4792863011","cityStateSlug":"bentonville.ar","slug":"Bentonville.AR/superior+mazda+of+bentonville","location":"36.344644,-94.184716","brandsList":["mazda"]},{"id":3450,"crm_id":67074418,"name":"Crain Kia of Bentonville","dealerSlug":"crain+kia+of+bentonville","city_state_slug":"Bentonville.AR","brand":"Kia","website":"www.crainkiaofbentonville.com/","address":"2901 Moberly Ln","city":"Bentonville","state":"AR","zip":72712,"latitude":36.3415551,"longitude":-94.1828667,"phone_number_service":"4796956500","phone_number_main":"4797150816","service_hours":"Mo-Fr 07:00 - 18:00","utc_offset":"-300","gplace_id":null,"gplace_url":"https://maps.google.com/?cid=6003984092775655532","dealerID":73501,"trusted":false,"image_id":"v1597283948/kia_RM.png","phone":"4796956500","cityStateSlug":"bentonville.ar","slug":"Bentonville.AR/crain+kia+of+bentonville","location":"36.3415551,-94.1828667","brandsList":["kia"]},{"id":13637,"crm_id":67074421,"name":"Steve Landers Toyota of Northwest Arkansas","dealerSlug":"steve+landers+toyota+of+northwest+arkansas","city_state_slug":"Rogers.AR","brand":"Toyota","website":"stevelanderstoyotanwa.com","address":"411 S Metro Pkwy","city":"Rogers","state":"AR","zip":72758,"latitude":36.3317744,"longitude":-94.1859773,"phone_number_service":"8665849489","phone_number_main":"4798451444","service_hours":"Mo-Fr 07:00 - 18:00 | Sa 07:00 - 17:00","utc_offset":"-300","gplace_id":null,"gplace_url":"https://maps.google.com/?cid=14298008871157734354","dealerID":73502,"trusted":false,"image_id":"v1597284039/toyota_ms.png","phone":"8665849489","cityStateSlug":"rogers.ar","slug":"Rogers.AR/steve+landers+toyota+of+northwest+arkansas","location":"36.3317744,-94.1859773","brandsList":["toyota"]},{"id":13502,"crm_id":67074424,"name":"Springdale Ford","dealerSlug":"springdale+ford","city_state_slug":"Springdale.AR","brand":"Ford","website":"www.springdale-ford.com","address":"2259 North Thompson","city":"Springdale","state":"AR","zip":72764,"latitude":36.204445,"longitude":-94.136884,"phone_number_service":"8883192594","phone_number_main":"4797515766","service_hours":"Mo-Fr 07:30 - 17:30","utc_offset":"-300","gplace_id":null,"gplace_url":"https://maps.google.com/?cid=13372970941673394125","dealerID":73503,"trusted":false,"image_id":"v1597283967/ford_RM.png","phone":"8883192594","cityStateSlug":"springdale.ar","slug":"Springdale.AR/springdale+ford","location":"36.204445,-94.136884","brandsList":["ford"]},{"id":3454,"crm_id":67074427,"name":"Crain VW of Fayetteville","dealerSlug":"crain+vw+of+fayetteville","city_state_slug":"Fayetteville.AR","brand":"Volkswagen","website":"www.crainvw.com","address":"2011 West Foxglove Dr","city":"Fayetteville","state":"AR","zip":72704,"latitude":36.1010818,"longitude":-94.1868209,"phone_number_service":"4796955900","phone_number_main":"4794357393","service_hours":"Mo-Fr 07:00 - 18:00 | Sa 07:30 - 15:00","utc_offset":"-300","gplace_id":null,"gplace_url":"https://maps.google.com/?cid=2075871810822472673","dealerID":73504,"trusted":false,"image_id":"v1597283902/volkswagen.png","phone":"4796955900","cityStateSlug":"fayetteville.ar","slug":"Fayetteville.AR/crain+vw+of+fayetteville","location":"36.1010818,-94.1868209","brandsList":["volkswagen"]},{"id":11046,"crm_id":67074430,"name":"Orr Nissan of Russellville","dealerSlug":"orr+nissan+of+russellville","city_state_slug":"Russellville.AR","brand":"Nissan","website":"www.orrnissanarkansas.com","address":"3109 E Main St","city":"Russellville","state":"AR","zip":72802,"latitude":35.2779445,"longitude":-93.0924248,"phone_number_service":"4799684566","phone_number_main":"4799675575","service_hours":"Mo-Fr 07:30 - 17:30 | Sa 08:00 - 15:00","utc_offset":"-300","gplace_id":null,"gplace_url":"https://maps.google.com/?cid=2319929005667952371","dealerID":73505,"trusted":false,"image_id":"v1597283926/nissan_RM.png","phone":"4799684566","cityStateSlug":"russellville.ar","slug":"Russellville.AR/orr+nissan+of+russellville","location":"35.2779445,-93.0924248","brandsList":["nissan"]},{"id":11494,"crm_id":67074433,"name":"Phil Wright Autoplex","dealerSlug":"phil+wright+autoplex","city_state_slug":"Russellville.AR","brand":"Buick,Chevrolet,GMC","website":"www.philwrightautoplex.com","address":"3300 E Main St","city":"Russellville","state":"AR","zip":72802,"latitude":35.2762994,"longitude":-93.0895421,"phone_number_service":"8885097648","phone_number_main":"4799681555","service_hours":"Mo-Fr 07:30 - 17:30","utc_offset":"-300","gplace_id":null,"gplace_url":"https://maps.google.com/?cid=13375705849701933840","dealerID":73506,"trusted":false,"image_id":"v1597283981/buick_RM.png","phone":"8885097648","cityStateSlug":"russellville.ar","slug":"Russellville.AR/phil+wright+autoplex","location":"35.2762994,-93.0895421","brandsList":["buick","chevrolet","gmc"]},{"id":15478,"crm_id":67074436,"name":"Whitson-morgan Chevrolet","dealerSlug":"whitson+morgan+chevrolet","city_state_slug":"Clarksville.AR","brand":"Chevrolet","website":"www.whitsonmorganchevrolet.com","address":"115 Taylor Rd I - 40 Exit 58","city":"Clarksville","state":"AR","zip":72830,"latitude":35.45358,"longitude":-93.4622602,"phone_number_service":"8778473816","phone_number_main":"8772345802","service_hours":"Mo-Fr 07:30 - 17:30","utc_offset":"-300","gplace_id":null,"gplace_url":"https://maps.google.com/?cid=15769889462360155276","dealerID":73507,"trusted":false,"image_id":"v1597284079/chevy_ms.png","phone":"8778473816","cityStateSlug":"clarksville.ar","slug":"Clarksville.AR/whitson+morgan+chevrolet","location":"35.45358,-93.4622602","brandsList":["chevrolet"]},{"id":15479,"crm_id":67074439,"name":"Whitson-Morgan Motor Co","dealerSlug":"whitson+morgan+motor+co","city_state_slug":"Clarksville.AR","brand":"Ford","website":"www.whitsonmorganford.com","address":"103 South I-40","city":"Clarksville","state":"AR","zip":72830,"latitude":35.4342234,"longitude":-97.4100121,"phone_number_service":"8883970499","phone_number_main":"8004673018","service_hours":"","utc_offset":"-300","gplace_id":null,"gplace_url":"https://maps.google.com/?cid=18333328682209618207","dealerID":73508,"trusted":false,"image_id":"v1597283967/ford_RM.png","phone":"8883970499","cityStateSlug":"clarksville.ar","slug":"Clarksville.AR/whitson+morgan+motor+co","location":"35.4342234,-97.4100121","brandsList":["ford"]},{"id":11044,"crm_id":67074445,"name":"Orr Nissan of Fort Smith","dealerSlug":"orr+nissan+of+fort+smith","city_state_slug":"Fort-Smith.AR","brand":"Nissan","website":"www.orrnissanoffortsmith.com","address":"6520 Autopark Dr","city":"Fort Smith","state":"AR","zip":72908,"latitude":35.3204228,"longitude":-94.3974639,"phone_number_service":"4792024161","phone_number_main":"4796481900","service_hours":"Mo-Fr 07:00 - 17:30 | Sa 08:00 - 12:00","utc_offset":"-300","gplace_id":null,"gplace_url":"https://maps.google.com/?cid=16273709161284957461","dealerID":73509,"trusted":false,"image_id":"v1597283926/nissan_RM.png","phone":"4792024161","cityStateSlug":"fort-smith.ar","slug":"Fort-Smith.AR/orr+nissan+of+fort+smith","location":"35.3204228,-94.3974639","brandsList":["nissan"]},{"id":2104,"crm_id":67074448,"name":"Breeden Chrysler Dodge Jeep RAM","dealerSlug":"breeden+chrysler+dodge+jeep+ram","city_state_slug":"Fort-Smith.AR","brand":"Chrysler,Dodge,Jeep,RAM","website":"www.breedendodge.net","address":"5900 HIGHWAY 71 S","city":"Fort Smith","state":"AR","zip":72908,"latitude":35.3258413,"longitude":-94.409068,"phone_number_service":"8445879266","phone_number_main":"4796464731","service_hours":"Mo-Fr 07:30 - 17:30 | Sa 07:30 - 12:00","utc_offset":"-300","gplace_id":null,"gplace_url":"https://maps.google.com/?cid=17268259327540299483","dealerID":73510,"trusted":false,"image_id":"v1597283975/chrysler_RM.png","phone":"8445879266","cityStateSlug":"fort-smith.ar","slug":"Fort-Smith.AR/breeden+chrysler+dodge+jeep+ram","location":"35.3258413,-94.409068","brandsList":["chrysler","dodge","jeep","ram"]},{"id":11033,"crm_id":67074451,"name":"Orr Chevrolet of Fort Smith","dealerSlug":"orr+chevrolet+of+fort+smith","city_state_slug":"Fort-Smith.AR","brand":"Chevrolet","website":"www.orrchevroletcadillac.com","address":"6500 Autopark Dr","city":"Fort Smith","state":"AR","zip":72908,"latitude":35.3208553,"longitude":-94.3984392,"phone_number_service":"4794316599","phone_number_main":"4794316599","service_hours":"Mo-Fr 07:00 - 17:30 | Sa 08:00 - 12:00","utc_offset":"-300","gplace_id":null,"gplace_url":"https://maps.google.com/?cid=5144411722926961838","dealerID":73511,"trusted":false,"image_id":"v1597284079/chevy_ms.png","phone":"4794316599","cityStateSlug":"fort-smith.ar","slug":"Fort-Smith.AR/orr+chevrolet+of+fort+smith","location":"35.3208553,-94.3984392","brandsList":["chevrolet"]},{"id":3451,"crm_id":67074454,"name":"Crain Kia of Fort Smith","dealerSlug":"crain+kia+of+fort+smith","city_state_slug":"Fort-Smith.AR","brand":"Kia","website":"www.crainkiaftsmith.com","address":"8200 Highway 71 S","city":"Fort Smith","state":"AR","zip":72908,"latitude":35.30694,"longitude":-94.3960137,"phone_number_service":"4794241002","phone_number_main":"4796680049","service_hours":"Mo-Fr 07:00 - 18:00 | Sa 07:30 - 15:00","utc_offset":"-300","gplace_id":null,"gplace_url":"https://maps.google.com/?cid=13508793617750786141","dealerID":73512,"trusted":false,"image_id":"v1597283948/kia_RM.png","phone":"4794241002","cityStateSlug":"fort-smith.ar","slug":"Fort-Smith.AR/crain+kia+of+fort+smith","location":"35.30694,-94.3960137","brandsList":["kia"]},{"id":15477,"crm_id":67074457,"name":"Whitson Morgan Ozark","dealerSlug":"whitson+morgan+ozark","city_state_slug":"Ozark.AR","brand":"Ford","website":"www.whitsonmorganozark.com","address":"2001 N 18th St","city":"Ozark","state":"AR","zip":72949,"latitude":35.5087615,"longitude":-93.8473881,"phone_number_service":"8885825957","phone_number_main":"4796672162","service_hours":"Mo-Fr 07:30 - 17:30","utc_offset":"-300","gplace_id":null,"gplace_url":"https://maps.google.com/?cid=4221713748112542687","dealerID":73513,"trusted":false,"image_id":"v1597283967/ford_RM.png","phone":"8885825957","cityStateSlug":"ozark.ar","slug":"Ozark.AR/whitson+morgan+ozark","location":"35.5087615,-93.8473881","brandsList":["ford"]},{"id":9266,"crm_id":78664090,"name":"Mark McLarty Toyota","dealerSlug":"mark+mclarty+toyota","city_state_slug":"North-Little-Rock.AR","brand":"Toyota","website":"www.markmclartytoyota.com","address":"4336 Landers Rd","city":"North Little Rock","state":"AR","zip":72117,"latitude":34.7968154,"longitude":-92.2172094,"phone_number_service":"8552945557","phone_number_main":"5017530400","service_hours":"Mo-Sa 07:00 - 18:00","utc_offset":"-300","gplace_id":null,"gplace_url":"https://maps.google.com/?cid=13881501099589486305","dealerID":75208,"trusted":false,"image_id":"v1597284039/toyota_ms.png","phone":"8552945557","cityStateSlug":"north-little-rock.ar","slug":"North-Little-Rock.AR/mark+mclarty+toyota","location":"34.7968154,-92.2172094","brandsList":["toyota"]},{"id":12603,"crm_id":114045892,"name":"Ross Ford","dealerSlug":"ross+ford","city_state_slug":"Wynne.AR","brand":"Ford","website":"www.rossfordwynne.com","address":"1903 N Falls Bvld","city":"Wynne","state":"AR","zip":72396,"latitude":35.245913,"longitude":-90.782979,"phone_number_service":"8776237087","phone_number_main":"8702387770","service_hours":"Mo-Fr 07:30 - 17:30 | Sa 09:00-14:00","utc_offset":"-300","gplace_id":null,"gplace_url":"https://maps.google.com/?cid=7824186335888046737","dealerID":76873,"trusted":false,"image_id":"v1597283967/ford_RM.png","phone":"8776237087","cityStateSlug":"wynne.ar","slug":"Wynne.AR/ross+ford","location":"35.245913,-90.782979","brandsList":["ford"]},{"id":9585,"crm_id":114111553,"name":"Mclarty Daniel Nissan","dealerSlug":"mclarty+daniel+nissan","city_state_slug":"Bentonville.AR","brand":"Nissan","website":"www.bentonvillenissan.com","address":"2501 SE Moberly Ln","city":"Bentonville","state":"AR","zip":72712,"latitude":36.345454,"longitude":-94.1826563,"phone_number_service":"8667011876","phone_number_main":"4798024422","service_hours":"Mo-Fr 07:00 - 18:00 | Sa 07:00 - 16:00","utc_offset":"-300","gplace_id":null,"gplace_url":"https://maps.google.com/?cid=10860007131331875239","dealerID":76886,"trusted":false,"image_id":"v1597283926/nissan_RM.png","phone":"8667011876","cityStateSlug":"bentonville.ar","slug":"Bentonville.AR/mclarty+daniel+nissan","location":"36.345454,-94.1826563","brandsList":["nissan"]},{"id":6677,"crm_id":115587212,"name":"Hope Auto Company Chevrolet Buick GMC","dealerSlug":"hope+auto+company+chevrolet+buick+gmc","city_state_slug":"Hope.AR","brand":"Buick,Chevrolet,GMC","website":"www.hopeautogm.com","address":"1700 N Hervey St","city":"Hope","state":"AR","zip":71801,"latitude":33.6798654,"longitude":-93.6075766,"phone_number_service":"8702924703","phone_number_main":"8707772354","service_hours":"Mo-Fr 07:30 17:00","utc_offset":"-300","gplace_id":null,"gplace_url":"https://maps.google.com/?cid=10977390319114349412","dealerID":77206,"trusted":false,"image_id":"v1597283981/buick_RM.png","phone":"8702924703","cityStateSlug":"hope.ar","slug":"Hope.AR/hope+auto+company+chevrolet+buick+gmc","location":"33.6798654,-93.6075766","brandsList":["buick","chevrolet","gmc"]},{"id":2451,"crm_id":115793951,"name":"Campbell Chrysler Dodge Jeep RAM","dealerSlug":"campbell+chrysler+dodge+jeep+ram","city_state_slug":"Benton.AR","brand":"Chrysler,Dodge,Jeep,RAM","website":"www.campbellcars.com","address":"7800 Alcoa Rd","city":"Benton","state":"AR","zip":72019,"latitude":34.6088771,"longitude":-92.5354446,"phone_number_service":"5012326584","phone_number_main":"5013036342","service_hours":"Mo-Fr 07:00 - 18:00 | Sa 08:00 - 12:00","utc_offset":"-300","gplace_id":null,"gplace_url":"https://maps.google.com/?cid=14822597970723928218","dealerID":77224,"trusted":false,"image_id":"v1597283975/chrysler_RM.png","phone":"5012326584","cityStateSlug":"benton.ar","slug":"Benton.AR/campbell+chrysler+dodge+jeep+ram","location":"34.6088771,-92.5354446","brandsList":["chrysler","dodge","jeep","ram"]}]