[{"id":17317,"crm_id":999,"name":"Prescott German Car","dealerSlug":"prescott+german+car","city_state_slug":"Prescott.AZ","brand":"Volkswagen","website":"www.prescottimportcar.com","address":"710 Ruth Avenue","city":"Prescott","state":"AZ","zip":86301,"latitude":34.553487,"longitude":-112.477487,"phone_number_service":"3183779855","phone_number_main":"","service_hours":"","utc_offset":"","gplace_id":0,"gplace_url":"","dealerID":60114,"trusted":false,"image_id":"v1597283902/volkswagen.png","phone":"3183779855","cityStateSlug":"prescott.az","slug":"Prescott.AZ/prescott+german+car","location":"34.553487,-112.477487","brandsList":["volkswagen"]},{"id":17478,"crm_id":999,"name":"San Tan Ford","dealerSlug":"san+tan+ford","city_state_slug":"Gilbert.AZ","brand":"Ford","website":"www.santanford.net","address":"1429 East Motorplex Loop","city":"Gilbert","state":"AZ","zip":85297,"latitude":33.286692,"longitude":-111.762673,"phone_number_service":"4808213200","phone_number_main":"","service_hours":"Mo-Fr 08:00 - 21:00 | Sa 08:00 - 20:00 | Su 10:00 - 18:00","utc_offset":"","gplace_id":0,"gplace_url":"","dealerID":60146,"trusted":false,"image_id":"v1597283967/ford_RM.png","phone":"4808213200","cityStateSlug":"gilbert.az","slug":"Gilbert.AZ/san+tan+ford","location":"33.286692,-111.762673","brandsList":["ford"]},{"id":16121,"crm_id":999,"name":"Chapman Auto Center","dealerSlug":"chapman+auto+center","city_state_slug":"Payson.AZ","brand":"Chrysler,Dodge,Jeep,RAM","website":"www.chapmanautocenter.com","address":"100 North Beeline","city":"Payson","state":"AZ","zip":85541,"latitude":34.241541,"longitude":-111.32372,"phone_number_service":"9284745261","phone_number_main":"","service_hours":"Mo-Fr 08:00 - 17:30 | Sa 08:00 - 17:00 | Su Closed","utc_offset":"","gplace_id":0,"gplace_url":"","dealerID":60392,"trusted":false,"image_id":"v1597283975/chrysler_RM.png","phone":"9284745261","cityStateSlug":"payson.az","slug":"Payson.AZ/chapman+auto+center","location":"34.241541,-111.32372","brandsList":["chrysler","dodge","jeep","ram"]},{"id":16572,"crm_id":999,"name":"Hatch Toyota","dealerSlug":"hatch+toyota","city_state_slug":"Show-Low.AZ","brand":"Toyota","website":"www.hatchtoyota.com","address":"1051 North Automall Parkway","city":"Show Low","state":"AZ","zip":85901,"latitude":34.258903,"longitude":-110.013916,"phone_number_service":"5612434600","phone_number_main":"9285375755","service_hours":"Mo-Sa 08:00 - 18:00","utc_offset":"","gplace_id":0,"gplace_url":"","dealerID":60457,"trusted":false,"image_id":"v1597284039/toyota_ms.png","phone":"5612434600","cityStateSlug":"show-low.az","slug":"Show-Low.AZ/hatch+toyota","location":"34.258903,-110.013916","brandsList":["toyota"]},{"id":17234,"crm_id":999,"name":"Oxendale Hyundai","dealerSlug":"oxendale+hyundai","city_state_slug":"Flagstaff.AZ","brand":"Hyundai","website":"www.oxendalehyundai.com","address":"1160 W. Route 66","city":"Flagstaff","state":"AZ","zip":86001,"latitude":35.189183,"longitude":-111.667386,"phone_number_service":"9287743200","phone_number_main":"","service_hours":"Mo-Fr 08:00 - 17:00","utc_offset":"","gplace_id":0,"gplace_url":"","dealerID":60530,"trusted":false,"image_id":"v1597283959/hyundai_RM.png","phone":"9287743200","cityStateSlug":"flagstaff.az","slug":"Flagstaff.AZ/oxendale+hyundai","location":"35.189183,-111.667386","brandsList":["hyundai"]},{"id":16091,"crm_id":999,"name":"Camelback Volkswagen","dealerSlug":"camelback+volkswagen","city_state_slug":"Phoenix.AZ","brand":"Volkswagen","website":"www.camelbackvw.com","address":"1499 E. Camelback Road","city":"Phoenix","state":"AZ","zip":85014,"latitude":33.5089,"longitude":-112.05,"phone_number_service":"3157888989","phone_number_main":"","service_hours":"Mo-Fr 08:00 - 21:00 | Sa 08:00 - 20:00 | Su 10:00 - 18:00","utc_offset":"","gplace_id":0,"gplace_url":"","dealerID":60656,"trusted":false,"image_id":"v1597283902/volkswagen.png","phone":"3157888989","cityStateSlug":"phoenix.az","slug":"Phoenix.AZ/camelback+volkswagen","location":"33.5089,-112.05","brandsList":["volkswagen"]},{"id":15839,"crm_id":999,"name":"Arizona Chrysler Dodge Jeep RAM","dealerSlug":"arizona+chrysler+dodge+jeep+ram","city_state_slug":"Safford.AZ","brand":"Chrysler,Dodge,Jeep,RAM","website":"www.arizonadodge.com","address":"1623 Thatcher Boulevard","city":"Safford","state":"AZ","zip":85546,"latitude":32.835116,"longitude":-109.73066,"phone_number_service":"9284286000","phone_number_main":"","service_hours":"Mo Closed | Tu-Fr 08:00 - 18:00 | Sa 08:00 - 17:00 | Su Closed","utc_offset":"","gplace_id":0,"gplace_url":"","dealerID":60711,"trusted":false,"image_id":"v1597283975/chrysler_RM.png","phone":"9284286000","cityStateSlug":"safford.az","slug":"Safford.AZ/arizona+chrysler+dodge+jeep+ram","location":"32.835116,-109.73066","brandsList":["chrysler","dodge","jeep","ram"]},{"id":17639,"crm_id":999,"name":"Surprise Ford","dealerSlug":"surprise+ford","city_state_slug":"Surprise.AZ","brand":"Ford","website":"www.surprisefordsales.com","address":"16825 W. Waddell Road","city":"Surprise","state":"AZ","zip":85388,"latitude":33.609652,"longitude":-112.421004,"phone_number_service":"6236668576","phone_number_main":"","service_hours":"Mo-Sa 08:00 - 21:00 | Su 09:00 - 20:00","utc_offset":"","gplace_id":0,"gplace_url":"","dealerID":60726,"trusted":false,"image_id":"v1597283967/ford_RM.png","phone":"6236668576","cityStateSlug":"surprise.az","slug":"Surprise.AZ/surprise+ford","location":"33.609652,-112.421004","brandsList":["ford"]},{"id":16645,"crm_id":999,"name":"Horne Ford of Nogales","dealerSlug":"horne+ford+of+nogales","city_state_slug":"Nogales.AZ","brand":"Ford","website":"www.horneford.net","address":"1777 N Grand Avenue","city":"Nogales","state":"AZ","zip":85621,"latitude":31.364437,"longitude":-110.930903,"phone_number_service":"5202811976","phone_number_main":"","service_hours":"Mo-Sa 08:00 - 18:00 | Su Closed","utc_offset":"","gplace_id":0,"gplace_url":"","dealerID":60757,"trusted":false,"image_id":"v1597283967/ford_RM.png","phone":"5202811976","cityStateSlug":"nogales.az","slug":"Nogales.AZ/horne+ford+of+nogales","location":"31.364437,-110.930903","brandsList":["ford"]},{"id":16647,"crm_id":999,"name":"Horne Nissan","dealerSlug":"horne+nissan","city_state_slug":"Globe.AZ","brand":"Nissan","website":"www.hornenissan.com","address":"2046 HIGHWAY 60","city":"Globe","state":"AZ","zip":85501,"latitude":33.3940843,"longitude":-110.767821,"phone_number_service":"9284253283","phone_number_main":"","service_hours":"Mo-Fr 08:00 - 18:00\n | Sa 09:00 - 17:00\n | Su Closed","utc_offset":"","gplace_id":0,"gplace_url":"","dealerID":60843,"trusted":false,"image_id":"v1597283926/nissan_RM.png","phone":"9284253283","cityStateSlug":"globe.az","slug":"Globe.AZ/horne+nissan","location":"33.3940843,-110.767821","brandsList":["nissan"]},{"id":16646,"crm_id":999,"name":"Horne Freedom Ford","dealerSlug":"horne+freedom+ford","city_state_slug":"Thatcher.AZ","brand":"Ford","website":"www.hornefreedomford.com","address":"2161 W. Hwy.70","city":"Thatcher","state":"AZ","zip":85552,"latitude":32.837782,"longitude":-109.735407,"phone_number_service":"9284281770","phone_number_main":"","service_hours":"Mo-Fr 08:00 - 17:00 | Sa 09:00 - 17:00 | Su Closed","utc_offset":"","gplace_id":0,"gplace_url":"","dealerID":60884,"trusted":false,"image_id":"v1597283967/ford_RM.png","phone":"9284281770","cityStateSlug":"thatcher.az","slug":"Thatcher.AZ/horne+freedom+ford","location":"32.837782,-109.735407","brandsList":["ford"]},{"id":16787,"crm_id":999,"name":"Jones Ford Buckeye","dealerSlug":"jones+ford+buckeye","city_state_slug":"Buckeye.AZ","brand":"Ford","website":"www.jonesfordbuckeye.com","address":"24600 West Yuma Road","city":"Buckeye","state":"AZ","zip":85326,"latitude":33.435595,"longitude":-112.580375,"phone_number_service":"6233864429","phone_number_main":"","service_hours":"Mo-Sa 08:00 - 19:00 | Su Closed","utc_offset":"","gplace_id":0,"gplace_url":"","dealerID":60965,"trusted":false,"image_id":"v1597283967/ford_RM.png","phone":"6233864429","cityStateSlug":"buckeye.az","slug":"Buckeye.AZ/jones+ford+buckeye","location":"33.435595,-112.580375","brandsList":["ford"]},{"id":15828,"crm_id":999,"name":"Anderson Ford of Bullhead City","dealerSlug":"anderson+ford+of+bullhead+city","city_state_slug":"Bullhead-City.AZ","brand":"Ford","website":"www.andersonfordbullheadcity.net","address":"2585 Highway 95","city":"Bullhead City","state":"AZ","zip":86442,"latitude":35.091659,"longitude":-114.598255,"phone_number_service":"9287049850","phone_number_main":"","service_hours":"Mo-Sa 08:00 - 19:00 | Su Closed","utc_offset":"","gplace_id":0,"gplace_url":"","dealerID":60985,"trusted":false,"image_id":"v1597283967/ford_RM.png","phone":"9287049850","cityStateSlug":"bullhead-city.az","slug":"Bullhead-City.AZ/anderson+ford+of+bullhead+city","location":"35.091659,-114.598255","brandsList":["ford"]},{"id":15840,"crm_id":999,"name":"Arizona Chrysler Dodge Jeep RAM Show Low","dealerSlug":"arizona+chrysler+dodge+jeep+ram+show+low","city_state_slug":"Show-Low.AZ","brand":"Chrysler,Dodge,Jeep,RAM,Fiat","website":"www.showlowcdjr.com","address":"260 W Deuce of Clubs","city":"Show Low","state":"AZ","zip":85901,"latitude":34.248987,"longitude":-110.046298,"phone_number_service":"9285378887","phone_number_main":"","service_hours":"Mo Closed | Tu-Fr 08:00 - 18:00 | Sa 08:00 - 17:00 | Su Closed","utc_offset":"","gplace_id":0,"gplace_url":"","dealerID":60991,"trusted":false,"image_id":"v1597283975/chrysler_RM.png","phone":"9285378887","cityStateSlug":"show-low.az","slug":"Show-Low.AZ/arizona+chrysler+dodge+jeep+ram+show+low","location":"34.248987,-110.046298","brandsList":["chrysler","dodge","jeep","ram","fiat"]},{"id":16981,"crm_id":999,"name":"Martin Swanty Chrysler Dodge Jeep","dealerSlug":"martin+swanty+chrysler+dodge+jeep","city_state_slug":"Kingman.AZ","brand":"Chrysler,Dodge,Jeep,RAM","website":"www.martinswantychryslerdodgejeep.com","address":"2640 East Andy Devine Avenue","city":"Kingman","state":"AZ","zip":86401,"latitude":35.208406,"longitude":-114.017701,"phone_number_service":"9287533131","phone_number_main":"","service_hours":"Mo-Fr 08:00 - 19:00 | Sa 08:00 - 17:30 | Su Closed","utc_offset":"","gplace_id":0,"gplace_url":"","dealerID":61008,"trusted":false,"image_id":"v1597283975/chrysler_RM.png","phone":"9287533131","cityStateSlug":"kingman.az","slug":"Kingman.AZ/martin+swanty+chrysler+dodge+jeep","location":"35.208406,-114.017701","brandsList":["chrysler","dodge","jeep","ram"]},{"id":15832,"crm_id":999,"name":"Anderson Nissan","dealerSlug":"anderson+nissan","city_state_slug":"Lake-Havasu-City.AZ","brand":"Nissan","website":"www.andersonnissanaz.com","address":"3842 NORTH HIGHWAY 95","city":"Lake Havasu City","state":"AZ","zip":61108,"latitude":34.54174,"longitude":-114.353188,"phone_number_service":"9287641700","phone_number_main":"","service_hours":"Mo-Sa 08:00 - 19:00\n | Su Closed","utc_offset":"","gplace_id":0,"gplace_url":"","dealerID":61215,"trusted":false,"image_id":"v1597283926/nissan_RM.png","phone":"9287641700","cityStateSlug":"lake-havasu-city.az","slug":"Lake-Havasu-City.AZ/anderson+nissan","location":"34.54174,-114.353188","brandsList":["nissan"]},{"id":16866,"crm_id":999,"name":"Lamb Nissan","dealerSlug":"lamb+nissan","city_state_slug":"Prescott.AZ","brand":"Nissan","website":"www.lambnissan.com","address":"440 PRESCOTT LAKES PRKWAY","city":"Prescott","state":"AZ","zip":86301,"latitude":34.55374,"longitude":-112.410589,"phone_number_service":"9287172289","phone_number_main":"","service_hours":"Mo-Fr 08:00 - 19:00\n | Sa 08:30 - 18:00\n | Su 10:00 - 17:00","utc_offset":"","gplace_id":0,"gplace_url":"","dealerID":61300,"trusted":false,"image_id":"v1597283926/nissan_RM.png","phone":"9287172289","cityStateSlug":"prescott.az","slug":"Prescott.AZ/lamb+nissan","location":"34.55374,-112.410589","brandsList":["nissan"]},{"id":17055,"crm_id":999,"name":"Mercedes-Benz of Scottsdale","dealerSlug":"mercedes+benz+of+scottsdale","city_state_slug":"Scottsdale.AZ","brand":"Mercedes-Benz","website":"www.mbscottsdale.com/","address":"4725 North Scottsdale Road","city":"Scottsdale","state":"AZ","zip":85251,"latitude":33.505675,"longitude":-111.925983,"phone_number_service":"4807484800","phone_number_main":"8888635593","service_hours":"","utc_offset":"","gplace_id":0,"gplace_url":"","dealerID":61325,"trusted":false,"image_id":"v1597283934/mercedes_RM.png","phone":"4807484800","cityStateSlug":"scottsdale.az","slug":"Scottsdale.AZ/mercedes+benz+of+scottsdale","location":"33.505675,-111.925983","brandsList":["mercedes-benz"]},{"id":17896,"crm_id":999,"name":"York Dodge Chrysler Jeep RAM","dealerSlug":"york+dodge+chrysler+jeep+ram","city_state_slug":"Prescott.AZ","brand":"Chrysler,Dodge,Jeep,RAM","website":"www.yorkchryslerdodgejeepram.com","address":"500 Prescott Lakes Pkwy","city":"Prescott","state":"AZ","zip":86301,"latitude":34.555444,"longitude":-112.411242,"phone_number_service":"9284454970","phone_number_main":"","service_hours":"Mo-Sa 08:00 - 19:00 | Su 10:00 - 17:00","utc_offset":"","gplace_id":0,"gplace_url":"","dealerID":61347,"trusted":false,"image_id":"v1597283975/chrysler_RM.png","phone":"9284454970","cityStateSlug":"prescott.az","slug":"Prescott.AZ/york+dodge+chrysler+jeep+ram","location":"34.555444,-112.411242","brandsList":["chrysler","dodge","jeep","ram"]},{"id":17034,"crm_id":999,"name":"Mercedes-Benz of Flagstaff","dealerSlug":"mercedes+benz+of+flagstaff","city_state_slug":"Flagstaff.AZ","brand":"Mercedes-Benz","website":"www.mercedesofflagstaff.com","address":"5171 Test Drive","city":"Flagstaff","state":"AZ","zip":86004,"latitude":35.223296,"longitude":-111.5714397,"phone_number_service":"9282207440","phone_number_main":"8888672088","service_hours":"","utc_offset":"","gplace_id":0,"gplace_url":"","dealerID":61373,"trusted":false,"image_id":"v1597283934/mercedes_RM.png","phone":"9282207440","cityStateSlug":"flagstaff.az","slug":"Flagstaff.AZ/mercedes+benz+of+flagstaff","location":"35.223296,-111.5714397","brandsList":["mercedes-benz"]},{"id":16788,"crm_id":999,"name":"Jones Ford Verde Valley","dealerSlug":"jones+ford+verde+valley","city_state_slug":"Camp-Verde.AZ","brand":"Ford","website":"www.jonesfordverdevalley.com","address":"5980 East Coury Drive","city":"Camp Verde","state":"AZ","zip":86322,"latitude":34.651047,"longitude":-111.958262,"phone_number_service":"9286343673","phone_number_main":"","service_hours":"Mo-Fr 08:00 - 18:00 | Sa 08:00 - 17:00 | Su Closed","utc_offset":"","gplace_id":0,"gplace_url":"","dealerID":61431,"trusted":false,"image_id":"v1597283967/ford_RM.png","phone":"9286343673","cityStateSlug":"camp-verde.az","slug":"Camp-Verde.AZ/jones+ford+verde+valley","location":"34.651047,-111.958262","brandsList":["ford"]},{"id":16755,"crm_id":999,"name":"Jim Click Hyundai Eastside","dealerSlug":"jim+click+hyundai+eastside","city_state_slug":"Tucson.AZ","brand":"Hyundai","website":"www.jimclickhyundaieast.com","address":"6420 E. 22Nd Street","city":"Tucson","state":"AZ","zip":85710,"latitude":32.2061324,"longitude":-110.8553714,"phone_number_service":"5205197103","phone_number_main":"","service_hours":"Mo-Fr 07:00 - 18:00 | Sa 07:00 - 17:00","utc_offset":"","gplace_id":0,"gplace_url":"","dealerID":61484,"trusted":false,"image_id":"v1597283959/hyundai_RM.png","phone":"5205197103","cityStateSlug":"tucson.az","slug":"Tucson.AZ/jim+click+hyundai+eastside","location":"32.2061324,-110.8553714","brandsList":["hyundai"]},{"id":16648,"crm_id":999,"name":"Horne Subaru","dealerSlug":"horne+subaru","city_state_slug":"Show-Low.AZ","brand":"Subaru","website":"HorneSubaru.dealer.subaru.com","address":"651 W Deuce of Clubs","city":"Show Low","state":"AZ","zip":85901,"latitude":34.2466,"longitude":-110.04933,"phone_number_service":"16157246262","phone_number_main":"","service_hours":"","utc_offset":"","gplace_id":0,"gplace_url":"","dealerID":61493,"trusted":false,"image_id":"v1597283982/subaru_ms.png","phone":"16157246262","cityStateSlug":"show-low.az","slug":"Show-Low.AZ/horne+subaru","location":"34.2466,-110.04933","brandsList":["subaru"]},{"id":16785,"crm_id":999,"name":"Johnson Nissan","dealerSlug":"johnson+nissan","city_state_slug":"Safford.AZ","brand":"Nissan","website":"www.johnson-motors.net","address":"804 S 1ST AVE","city":"Safford","state":"AZ","zip":85546,"latitude":32.831223,"longitude":-109.707614,"phone_number_service":"9284280140","phone_number_main":"","service_hours":"Mo-Fr 08:00 - 18:00\n | Sa 09:00 - 17:00\n | Su Closed","utc_offset":"","gplace_id":0,"gplace_url":"","dealerID":61590,"trusted":false,"image_id":"v1597283926/nissan_RM.png","phone":"9284280140","cityStateSlug":"safford.az","slug":"Safford.AZ/johnson+nissan","location":"32.831223,-109.707614","brandsList":["nissan"]},{"id":16753,"crm_id":999,"name":"Jim Click Chrysler Dodge RAM","dealerSlug":"jim+click+chrysler+dodge+ram","city_state_slug":"Tucson.AZ","brand":"Chrysler,Dodge,RAM","website":"www.jimclickdodge.com","address":"850 W Auto Mall Dr","city":"Tucson","state":"AZ","zip":85705,"latitude":32.289869,"longitude":-110.986183,"phone_number_service":"5202923800","phone_number_main":"","service_hours":"Mo-Sa 08:00 - 18:00 | Su Closed","utc_offset":"","gplace_id":0,"gplace_url":"","dealerID":61632,"trusted":false,"image_id":"v1597283975/chrysler_RM.png","phone":"5202923800","cityStateSlug":"tucson.az","slug":"Tucson.AZ/jim+click+chrysler+dodge+ram","location":"32.289869,-110.986183","brandsList":["chrysler","dodge","ram"]},{"id":15841,"crm_id":999,"name":"Arizona Chrysler Dodge RAM Snowflake","dealerSlug":"arizona+chrysler+dodge+ram+snowflake","city_state_slug":"Snowflake.AZ","brand":"Chrysler,Dodge,RAM","website":"www.arizonamotors.com","address":"870 South Main Street","city":"Snowflake","state":"AZ","zip":85937,"latitude":34.497833,"longitude":-110.079726,"phone_number_service":"9285367234","phone_number_main":"","service_hours":"Mo Closed | Tu-Fr 08:00 - 18:00 | Sa 08:00 - 17:00 | Su Closed","utc_offset":"","gplace_id":0,"gplace_url":"","dealerID":61643,"trusted":false,"image_id":"v1597283975/chrysler_RM.png","phone":"9285367234","cityStateSlug":"snowflake.az","slug":"Snowflake.AZ/arizona+chrysler+dodge+ram+snowflake","location":"34.497833,-110.079726","brandsList":["chrysler","dodge","ram"]},{"id":17248,"crm_id":999,"name":"Parker Motor Company Ford","dealerSlug":"parker+motor+company+ford","city_state_slug":"Parker.AZ","brand":"Ford","website":"www.parkermotor.net","address":"920 Arizona Avenue","city":"Parker","state":"AZ","zip":85344,"latitude":34.147067,"longitude":-114.2884,"phone_number_service":"9286692291","phone_number_main":"","service_hours":"Mo-Fr 08:00 - 17:00 | Sa 08:00 - 12:00 | Su Closed","utc_offset":"","gplace_id":0,"gplace_url":"","dealerID":61681,"trusted":false,"image_id":"v1597283967/ford_RM.png","phone":"9286692291","cityStateSlug":"parker.az","slug":"Parker.AZ/parker+motor+company+ford","location":"34.147067,-114.2884","brandsList":["ford"]},{"id":1201,"crm_id":50467858,"name":"Bell Road Toyota","dealerSlug":"bell+road+toyota","city_state_slug":"Phoenix.AZ","brand":"Toyota","website":"www.bellroadtoyota.com","address":"2020 W Bell Rd","city":"Phoenix","state":"AZ","zip":85023,"latitude":33.6401951,"longitude":-112.1021628,"phone_number_service":"4807955887","phone_number_main":"4807955885","service_hours":"Mo-Fr 07:00 - 18:00  | Sa 08:00 - 17:00","utc_offset":"-420","gplace_id":null,"gplace_url":"https://maps.google.com/?cid=14943001276698580159","dealerID":50122,"trusted":true,"image_id":"v1597284039/toyota_ms.png","phone":"4807955887","cityStateSlug":"phoenix.az","slug":"Phoenix.AZ/bell+road+toyota","location":"33.6401951,-112.1021628","brandsList":["toyota"]},{"id":8445,"crm_id":50467861,"name":"Larry H. Miller Ford Mesa","dealerSlug":"larry+h+miller+ford+mesa","city_state_slug":"Mesa.AZ","brand":"Ford","website":"www.lhmfordmesa.com","address":"460 E Auto Center Dr","city":"Mesa","state":"AZ","zip":85204,"latitude":33.384511,"longitude":-111.8210074,"phone_number_service":"8774784106","phone_number_main":"4805697713","service_hours":"Mo-Fr 07:00 - 19:00","utc_offset":"-420","gplace_id":null,"gplace_url":"https://maps.google.com/?cid=16969175627714154493","dealerID":50604,"trusted":true,"image_id":"v1597283967/ford_RM.png","phone":"8774784106","cityStateSlug":"mesa.az","slug":"Mesa.AZ/larry+h+miller+ford+mesa","location":"33.384511,-111.8210074","brandsList":["ford"]},{"id":6304,"crm_id":51925198,"name":"Henry Brown Buick GMC","dealerSlug":"henry+brown+buick+gmc","city_state_slug":"Gilbert.AZ","brand":"Buick,GMC","website":"www.henrybrowngmc.com","address":"1550 E Drivers Way","city":"Gilbert","state":"AZ","zip":85297,"latitude":33.2931135,"longitude":-111.7569875,"phone_number_service":"8666229724","phone_number_main":"4808350900","service_hours":"Mo-Fr 07:00 - 18:00 | Sa 07:00 - 15:00","utc_offset":"-420","gplace_id":null,"gplace_url":"https://maps.google.com/?cid=2847456917671132380","dealerID":61925,"trusted":false,"image_id":"v1597283981/buick_RM.png","phone":"8666229724","cityStateSlug":"gilbert.az","slug":"Gilbert.AZ/henry+brown+buick+gmc","location":"33.2931135,-111.7569875","brandsList":["buick","gmc"]},{"id":939,"crm_id":51925480,"name":"Avondale Mazda","dealerSlug":"avondale+mazda","city_state_slug":"Avondale.AZ","brand":"Mazda","website":"www.avondalemazda.com","address":"10675 W Papago Fwy","city":"Avondale","state":"AZ","zip":85323,"latitude":33.4600285,"longitude":-112.2888609,"phone_number_service":"8884963491","phone_number_main":"8886386743","service_hours":"Mo-Fr 07:00 - 18:00 | Sa 08:00 - 17:00","utc_offset":"-420","gplace_id":null,"gplace_url":"https://maps.google.com/?cid=17678904611237659248","dealerID":61971,"trusted":false,"image_id":"v1597283937/mazda.png","phone":"8884963491","cityStateSlug":"avondale.az","slug":"Avondale.AZ/avondale+mazda","location":"33.4600285,-112.2888609","brandsList":["mazda"]},{"id":6689,"crm_id":51925513,"name":"Horne Kia","dealerSlug":"horne+kia","city_state_slug":"Gilbert.AZ","brand":"Kia","website":"www.hornekia.com","address":"1465 E Motorplex Loop","city":"Gilbert","state":"AZ","zip":85297,"latitude":33.2879053,"longitude":-111.7597503,"phone_number_service":"8442506247","phone_number_main":"4807255220","service_hours":"Mo-Fr 07:00 - 18:00 | Sa 08:00 - 17:00","utc_offset":"-420","gplace_id":null,"gplace_url":"https://maps.google.com/?cid=1969079515361683429","dealerID":61977,"trusted":false,"image_id":"v1597283948/kia_RM.png","phone":"8442506247","cityStateSlug":"gilbert.az","slug":"Gilbert.AZ/horne+kia","location":"33.2879053,-111.7597503","brandsList":["kia"]},{"id":14129,"crm_id":51925675,"name":"Tempe Chrysler Jeep Dodge","dealerSlug":"tempe+chrysler+jeep+dodge","city_state_slug":"Tempe.AZ","brand":"Chrysler,Dodge,Jeep,RAM","website":"www.tempechryslerjeepdodge.net","address":"7975 S Autoplex Loop","city":"Tempe","state":"AZ","zip":85284,"latitude":33.3449594,"longitude":-111.9685097,"phone_number_service":"â€‹4805654460","phone_number_main":"4804964000","service_hours":"Mo-Fr 07:00 - 18:00 | Sa 08:00 - 15:00","utc_offset":"-420","gplace_id":null,"gplace_url":"https://maps.google.com/?cid=8757312143315506195","dealerID":62011,"trusted":false,"image_id":"v1597283975/chrysler_RM.png","phone":"4805654460","cityStateSlug":"tempe.az","slug":"Tempe.AZ/tempe+chrysler+jeep+dodge","location":"33.3449594,-111.9685097","brandsList":["chrysler","dodge","jeep","ram"]},{"id":3365,"crm_id":51925678,"name":"Coulter Cadillac Tempe","dealerSlug":"coulter+cadillac+tempe","city_state_slug":"Tempe.AZ","brand":"Cadillac","website":"www.coultercadillactempe.com","address":"7780 S. Autoplex Loop","city":"Tempe","state":"AZ","zip":85284,"latitude":33.3480463,"longitude":-111.9682655,"phone_number_service":"8882163345","phone_number_main":"4809406000","service_hours":"Mo-Fr 07:00 - 18:00 | Sa 08:00 - 15:00","utc_offset":"-420","gplace_id":null,"gplace_url":"https://maps.google.com/?cid=8024594290462466437","dealerID":62012,"trusted":false,"image_id":"v1597283980/cadillac.png","phone":"8882163345","cityStateSlug":"tempe.az","slug":"Tempe.AZ/coulter+cadillac+tempe","location":"33.3480463,-111.9682655","brandsList":["cadillac"]},{"id":2758,"crm_id":51925684,"name":"Certified Benz & Beemer","dealerSlug":"certified+benz+and+beemer","city_state_slug":"Scottsdale.AZ","brand":"Bentley","website":"www.buycbb.com/","address":"6725 E McDowell Rd","city":"Scottsdale","state":"AZ","zip":85257,"latitude":33.4652571,"longitude":-111.9352119,"phone_number_service":"8885537071","phone_number_main":"4806597999","service_hours":"Mo-Fr 07:00 - 18:00 | Sa 08:00 - 14:00","utc_offset":"-420","gplace_id":null,"gplace_url":"https://maps.google.com/?cid=8178482067585993650","dealerID":62014,"trusted":false,"image_id":"v1597283990/bentley.png","phone":"8885537071","cityStateSlug":"scottsdale.az","slug":"Scottsdale.AZ/certified+benz+and+beemer","location":"33.4652571,-111.9352119","brandsList":["bentley"]},{"id":2559,"crm_id":51925726,"name":"CardinaleWay Mazda - Mesa","dealerSlug":"cardinaleway+mazda+mesa","city_state_slug":"Mesa.AZ","brand":"Mazda","website":"www.cardinalewaymazdamesa.com","address":"6343 E Test Dr","city":"Mesa","state":"AZ","zip":85206,"latitude":33.3844957,"longitude":-111.6953723,"phone_number_service":"8332170850","phone_number_main":"4804015212","service_hours":"Mo-Fr 07:00 - 18:00 | Sa 08:00 - 16:00","utc_offset":"-420","gplace_id":null,"gplace_url":"https://maps.google.com/?cid=2487311425677951580","dealerID":62020,"trusted":false,"image_id":"v1597283937/mazda.png","phone":"8332170850","cityStateSlug":"mesa.az","slug":"Mesa.AZ/cardinaleway+mazda+mesa","location":"33.3844957,-111.6953723","brandsList":["mazda"]},{"id":12824,"crm_id":51925765,"name":"San Tan Hyundai","dealerSlug":"san+tan+hyundai","city_state_slug":"Gilbert.AZ","brand":"Hyundai","website":"www.santanhyundai.com","address":"3252 S Auto Way","city":"Gilbert","state":"AZ","zip":85297,"latitude":33.2927144,"longitude":-111.760255,"phone_number_service":"8885583408","phone_number_main":"4803848000","service_hours":"Mo-Fr 07:00 - 18:00 | Sa 07:00 - 17:00","utc_offset":"-420","gplace_id":null,"gplace_url":"https://maps.google.com/?cid=10589326269450692513","dealerID":62026,"trusted":false,"image_id":"v1597283959/hyundai_RM.png","phone":"8885583408","cityStateSlug":"gilbert.az","slug":"Gilbert.AZ/san+tan+hyundai","location":"33.2927144,-111.760255","brandsList":["hyundai"]},{"id":940,"crm_id":51925987,"name":"Avondale Nissan","dealerSlug":"avondale+nissan","city_state_slug":"Avondale.AZ","brand":"Nissan","website":"www.avondalenissan.com","address":"10305 W Papago Fwy","city":"Avondale","state":"AZ","zip":85323,"latitude":33.4597217,"longitude":-112.2843203,"phone_number_service":"6239072015","phone_number_main":"6239075000","service_hours":"Mo-Fr 07:00 - 18:00 | Sa 07:30 - 16:00","utc_offset":"-420","gplace_id":null,"gplace_url":"https://maps.google.com/?cid=806730131007623428","dealerID":62066,"trusted":false,"image_id":"v1597283926/nissan_RM.png","phone":"6239072015","cityStateSlug":"avondale.az","slug":"Avondale.AZ/avondale+nissan","location":"33.4597217,-112.2843203","brandsList":["nissan"]},{"id":1195,"crm_id":51926209,"name":"Bell Ford","dealerSlug":"bell+ford","city_state_slug":"Phoenix.AZ","brand":"Ford","website":"www.bellford.com","address":"2401 W Bell Rd","city":"Phoenix","state":"AZ","zip":85023,"latitude":33.6384886,"longitude":-112.1114882,"phone_number_service":"6024578259","phone_number_main":"6024572144","service_hours":"Mo-Sa 07:00 - 18:00","utc_offset":"-420","gplace_id":null,"gplace_url":"https://maps.google.com/?cid=1516000336985277627","dealerID":62112,"trusted":false,"image_id":"v1597283967/ford_RM.png","phone":"6024578259","cityStateSlug":"phoenix.az","slug":"Phoenix.AZ/bell+ford","location":"33.6384886,-112.1114882","brandsList":["ford"]},{"id":12835,"crm_id":51926227,"name":"Sands Chevrolet - Glendale","dealerSlug":"sands+chevrolet+glendale","city_state_slug":"Glendale.AZ","brand":"Chevrolet","website":"www.sandsglendale.com/","address":"5418 NW Grand Avenue","city":"Glendale","state":"AZ","zip":85301,"latitude":33.5294999,"longitude":-112.1740916,"phone_number_service":"6234281699","phone_number_main":"6233494826","service_hours":"Mo-Fr 07:00 - 18:00 | Sa 07:00 - 17:00","utc_offset":"-420","gplace_id":null,"gplace_url":"https://maps.google.com/?cid=9374942697078968557","dealerID":62118,"trusted":false,"image_id":"v1597284079/chevy_ms.png","phone":"6234281699","cityStateSlug":"glendale.az","slug":"Glendale.AZ/sands+chevrolet+glendale","location":"33.5294999,-112.1740916","brandsList":["chevrolet"]},{"id":12343,"crm_id":51926443,"name":"Right Toyota","dealerSlug":"right+toyota","city_state_slug":"Scottsdale.AZ","brand":"Toyota","website":"www.righttoyota.com","address":"7701 E Frank Lloyd Wright Blvd","city":"Scottsdale","state":"AZ","zip":85260,"latitude":33.6349482,"longitude":-111.9145462,"phone_number_service":"4807782299","phone_number_main":"4807716449","service_hours":"Mo-Fr 07:00 - 18:00 | Sa 07:00 - 16:00","utc_offset":"-420","gplace_id":null,"gplace_url":"https://maps.google.com/?cid=17231214175805029801","dealerID":62142,"trusted":false,"image_id":"v1597284039/toyota_ms.png","phone":"4807782299","cityStateSlug":"scottsdale.az","slug":"Scottsdale.AZ/right+toyota","location":"33.6349482,-111.9145462","brandsList":["toyota"]},{"id":3393,"crm_id":51926923,"name":"Courtesy Chevrolet","dealerSlug":"courtesy+chevrolet","city_state_slug":"Phoenix.AZ","brand":"Chevrolet","website":"www.courtesychev.com","address":"1233 E Camelback Rd","city":"Phoenix","state":"AZ","zip":85014,"latitude":33.5085513,"longitude":-112.055094,"phone_number_service":"6026043060","phone_number_main":"6026522994","service_hours":"Mo-Fr 07:00 - 19:00 | Sa 07:00 - 17:00","utc_offset":"-420","gplace_id":null,"gplace_url":"https://maps.google.com/?cid=631925780621718547","dealerID":62175,"trusted":false,"image_id":"v1597284079/chevy_ms.png","phone":"6026043060","cityStateSlug":"phoenix.az","slug":"Phoenix.AZ/courtesy+chevrolet","location":"33.5085513,-112.055094","brandsList":["chevrolet"]},{"id":9972,"crm_id":51927346,"name":"Midway Nissan","dealerSlug":"midway+nissan","city_state_slug":"Phoenix.AZ","brand":"Nissan","website":"www.midwaynissan.com","address":"2209 W Bell Rd","city":"Phoenix","state":"AZ","zip":85023,"latitude":33.6391973,"longitude":-112.1079048,"phone_number_service":"8666868239","phone_number_main":"6026356512","service_hours":"Mo-Fr 07:00 - 18:00 | Sa 07:00 - 16:00","utc_offset":"-420","gplace_id":null,"gplace_url":"https://maps.google.com/?cid=7625587980315472012","dealerID":62198,"trusted":false,"image_id":"v1597283926/nissan_RM.png","phone":"8666868239","cityStateSlug":"phoenix.az","slug":"Phoenix.AZ/midway+nissan","location":"33.6391973,-112.1079048","brandsList":["nissan"]},{"id":3364,"crm_id":59601010,"name":"Coulter Cadillac Phoenix","dealerSlug":"coulter+cadillac+phoenix","city_state_slug":"Phoenix.AZ","brand":"Cadillac","website":"www.coultercadillacphoenix.com","address":"1188 E Camelback Rd","city":"Phoenix","state":"AZ","zip":85014,"latitude":33.5095391,"longitude":-112.0567532,"phone_number_service":"6026269498","phone_number_main":"6022641188","service_hours":"Mo-Fr 07:00 - 18:00 | Sa 08:00 - 15:00","utc_offset":"-420","gplace_id":null,"gplace_url":"https://maps.google.com/?cid=566815110550231026","dealerID":62410,"trusted":false,"image_id":"v1597283980/cadillac.png","phone":"6026269498","cityStateSlug":"phoenix.az","slug":"Phoenix.AZ/coulter+cadillac+phoenix","location":"33.5095391,-112.0567532","brandsList":["cadillac"]},{"id":195,"crm_id":59601016,"name":"Alexander Toyota","dealerSlug":"alexander+toyota","city_state_slug":"Yuma.AZ","brand":"Toyota","website":"www.myalexandertoyota.com","address":"889 E 32nd St","city":"Yuma","state":"AZ","zip":85365,"latitude":32.6684498,"longitude":-114.6100075,"phone_number_service":"9283441170","phone_number_main":"9283441170","service_hours":"Mo-Fr 06:30 - 18:00 | Sa 06:30 - 15:00","utc_offset":"-420","gplace_id":null,"gplace_url":"https://maps.google.com/?cid=14979918355465994347","dealerID":62412,"trusted":false,"image_id":"v1597284039/toyota_ms.png","phone":"9283441170","cityStateSlug":"yuma.az","slug":"Yuma.AZ/alexander+toyota","location":"32.6684498,-114.6100075","brandsList":["toyota"]},{"id":4813,"crm_id":59601022,"name":"Findlay Toyota Flagstaff","dealerSlug":"findlay+toyota+flagstaff","city_state_slug":"Flagstaff.AZ","brand":"Toyota","website":"www.findlaytoyotaflagstaff.net","address":"5030 E Marketplace Dr","city":"Flagstaff","state":"AZ","zip":86004,"latitude":35.2245588,"longitude":-111.5716508,"phone_number_service":"9285277321","phone_number_main":"9288524414","service_hours":"Mo-Fr 07:30 - 18:00 | Sa 07:30 - 18:00","utc_offset":"-420","gplace_id":null,"gplace_url":"https://maps.google.com/?cid=4698245396793600217","dealerID":62414,"trusted":false,"image_id":"v1597284039/toyota_ms.png","phone":"9285277321","cityStateSlug":"flagstaff.az","slug":"Flagstaff.AZ/findlay+toyota+flagstaff","location":"35.2245588,-111.5716508","brandsList":["toyota"]},{"id":14130,"crm_id":61020541,"name":"Tempe Honda","dealerSlug":"tempe+honda","city_state_slug":"Tempe.AZ","brand":"Honda","website":"www.tempehonda.com","address":"8030 S Autoplex Loop","city":"Tempe","state":"AZ","zip":85284,"latitude":33.3425022,"longitude":-111.9657564,"phone_number_service":"8449840440","phone_number_main":"4807718116","service_hours":"Mo-Sa 07:00 - 18:00","utc_offset":"-420","gplace_id":null,"gplace_url":"https://maps.google.com/?cid=3144213835603419583","dealerID":62474,"trusted":false,"image_id":"v1597284047/honda_ms.png","phone":"8449840440","cityStateSlug":"tempe.az","slug":"Tempe.AZ/tempe+honda","location":"33.3425022,-111.9657564","brandsList":["honda"]},{"id":15007,"crm_id":62350486,"name":"Volkswagen North Scottsdale","dealerSlug":"volkswagen+north+scottsdale","city_state_slug":"Phoenix.AZ","brand":"Volkswagen","website":"www.vwnorthscottsdale.com","address":"7001 E Chauncey Ln","city":"Phoenix","state":"AZ","zip":85054,"latitude":33.6506072,"longitude":-111.9297524,"phone_number_service":"8334616734","phone_number_main":"4804709485","service_hours":"Mo-Fr 07:00 - 18:00 | Sa 08:00-16:00","utc_offset":"-420","gplace_id":null,"gplace_url":"https://maps.google.com/?cid=4714235241796476376","dealerID":62490,"trusted":false,"image_id":"v1597283902/volkswagen.png","phone":"8334616734","cityStateSlug":"phoenix.az","slug":"Phoenix.AZ/volkswagen+north+scottsdale","location":"33.6506072,-111.9297524","brandsList":["volkswagen"]},{"id":4321,"crm_id":62549029,"name":"Earnhardt Buick GMC","dealerSlug":"earnhardt+buick+gmc","city_state_slug":"Mesa.AZ","brand":"Buick,GMC","website":"www.earnhardtgmcbuick.com","address":"6315 E Auto Park Dr","city":"Mesa","state":"AZ","zip":85206,"latitude":33.3879749,"longitude":-111.6950447,"phone_number_service":"8884955674","phone_number_main":"4803591096","service_hours":"Mo-Sa 7:00-18:00","utc_offset":"-420","gplace_id":null,"gplace_url":"https://maps.google.com/?cid=17933876503728683337","dealerID":62493,"trusted":false,"image_id":"v1597283981/buick_RM.png","phone":"8884955674","cityStateSlug":"mesa.az","slug":"Mesa.AZ/earnhardt+buick+gmc","location":"33.3879749,-111.6950447","brandsList":["buick","gmc"]},{"id":8473,"crm_id":63519478,"name":"Larry H. Miller Volkswagen Avondale","dealerSlug":"larry+h+miller+volkswagen+avondale","city_state_slug":"Avondale.AZ","brand":"Volkswagen","website":"www.larrymillervolkswagen.com","address":"10205 W. Papago Freeway","city":"Avondale","state":"AZ","zip":85323,"latitude":33.4596993,"longitude":-112.2816355,"phone_number_service":"8883505830","phone_number_main":"4808653991","service_hours":"Mo-Fr 07:00 - 16:00 | Sa 07:00 - 16:00","utc_offset":"-420","gplace_id":null,"gplace_url":"https://maps.google.com/?cid=15069278801916707343","dealerID":62535,"trusted":false,"image_id":"v1597283902/volkswagen.png","phone":"8883505830","cityStateSlug":"avondale.az","slug":"Avondale.AZ/larry+h+miller+volkswagen+avondale","location":"33.4596993,-112.2816355","brandsList":["volkswagen"]},{"id":3966,"crm_id":63755176,"name":"Desert Toyota of Tucson","dealerSlug":"desert+toyota+of+tucson","city_state_slug":"Tucson.AZ","brand":"Toyota","website":"www.deserttoyota.com","address":"7150 E 22nd St","city":"Tucson","state":"AZ","zip":85710,"latitude":32.2055549,"longitude":-110.8399276,"phone_number_service":"5205855421","phone_number_main":"5202968535","service_hours":"Mo-Fr 07:00 - 18:00 | Sa 08:00 - 17:00","utc_offset":"-420","gplace_id":null,"gplace_url":"https://maps.google.com/?cid=8723202657510261262","dealerID":62551,"trusted":false,"image_id":"v1597284039/toyota_ms.png","phone":"5205855421","cityStateSlug":"tucson.az","slug":"Tucson.AZ/desert+toyota+of+tucson","location":"32.2055549,-110.8399276","brandsList":["toyota"]},{"id":12485,"crm_id":64850029,"name":"Rodeo Ford","dealerSlug":"rodeo+ford","city_state_slug":"Goodyear.AZ","brand":"Ford","website":"www.rodeofordaz.com","address":"13680 W Test Dr","city":"Goodyear","state":"AZ","zip":85338,"latitude":33.4567554,"longitude":-112.3517759,"phone_number_service":"8888642217","phone_number_main":"6232983900","service_hours":"Mo-Fr 07:00 - 18:00 | Sa 07:00 - 16:00","utc_offset":"-420","gplace_id":null,"gplace_url":"https://maps.google.com/?cid=14016662352806187544","dealerID":62583,"trusted":false,"image_id":"v1597283967/ford_RM.png","phone":"8888642217","cityStateSlug":"goodyear.az","slug":"Goodyear.AZ/rodeo+ford","location":"33.4567554,-112.3517759","brandsList":["ford"]},{"id":420,"crm_id":64891765,"name":"Arrowhead Lexus","dealerSlug":"arrowhead+lexus","city_state_slug":"Peoria.AZ","brand":"Lexus","website":"www.arrowheadlexus.com","address":"9238 W Bell Rd","city":"Peoria","state":"AZ","zip":85382,"latitude":33.6394806,"longitude":-112.256898,"phone_number_service":"6237776554","phone_number_main":"6238724000","service_hours":"Mo-Fr 07:00 - 18:00 | Sa 08:00 - 15:00","utc_offset":"-420","gplace_id":null,"gplace_url":"https://maps.google.com/?cid=1199137685177694040","dealerID":62591,"trusted":false,"image_id":"v1597284042/lexus_ms.png","phone":"6237776554","cityStateSlug":"peoria.az","slug":"Peoria.AZ/arrowhead+lexus","location":"33.6394806,-112.256898","brandsList":["lexus"]},{"id":4792,"crm_id":64956055,"name":"Fiesta Lincoln","dealerSlug":"fiesta+lincoln","city_state_slug":"Mesa.AZ","brand":"Lincoln","website":"www.fiestalincoln.com","address":"1720 S Mesa Dr","city":"Mesa","state":"AZ","zip":85210,"latitude":33.3840468,"longitude":-111.8236662,"phone_number_service":"4804283216","phone_number_main":"4808134900","service_hours":"Mo-Fr 07:00 - 18:00 | Sa 07:00 - 17:00","utc_offset":"-420","gplace_id":null,"gplace_url":"https://maps.google.com/?cid=2612147441864801029","dealerID":62603,"trusted":false,"image_id":"v1597283942/lincoln_RM.png","phone":"4804283216","cityStateSlug":"mesa.az","slug":"Mesa.AZ/fiesta+lincoln","location":"33.3840468,-111.8236662","brandsList":["lincoln"]},{"id":8221,"crm_id":65799415,"name":"Lamb Chevrolet","dealerSlug":"lamb+chevrolet","city_state_slug":"Prescott.AZ","brand":"Chevrolet","website":"www.lambchevrolet.com","address":"400 Prescott Lakes Pkwy","city":"Prescott","state":"AZ","zip":86301,"latitude":34.5531283,"longitude":-112.4118287,"phone_number_service":"9287785262","phone_number_main":"9282770237","service_hours":"Mo-Fr 07:30 - 17:30 | Sa 08:00 - 13:00","utc_offset":"-420","gplace_id":null,"gplace_url":"https://maps.google.com/?cid=13147980189127709756","dealerID":62638,"trusted":false,"image_id":"v1597284079/chevy_ms.png","phone":"9287785262","cityStateSlug":"prescott.az","slug":"Prescott.AZ/lamb+chevrolet","location":"34.5531283,-112.4118287","brandsList":["chevrolet"]},{"id":4334,"crm_id":66514780,"name":"Earnhardt Peoria Kia","dealerSlug":"earnhardt+peoria+kia","city_state_slug":"Peoria.AZ","brand":"Kia","website":"www.peoriakia.com","address":"17431 N 91st Ave","city":"Peoria","state":"AZ","zip":85382,"latitude":33.6421336,"longitude":-112.2540005,"phone_number_service":"6238764453","phone_number_main":"6239336900","service_hours":"Mo-Fr 07:00 - 17:00  | Sa 07:00 - 16:00","utc_offset":"-420","gplace_id":null,"gplace_url":"https://maps.google.com/?cid=1707788580734205957","dealerID":62670,"trusted":false,"image_id":"v1597283948/kia_RM.png","phone":"6238764453","cityStateSlug":"peoria.az","slug":"Peoria.AZ/earnhardt+peoria+kia","location":"33.6421336,-112.2540005","brandsList":["kia"]},{"id":10178,"crm_id":67031944,"name":"MINI of Tempe","dealerSlug":"mini+of+tempe","city_state_slug":"Tempe.AZ","brand":"MINI","website":"www.minioftempe.com","address":"7855 South Test Drive Road","city":"Tempe","state":"AZ","zip":85284,"latitude":33.3457101,"longitude":-111.9654615,"phone_number_service":"8447360466","phone_number_main":"4804706685","service_hours":"Mo-Fr 07:00 - 18:00 | Sa 08:00 - 16:00","utc_offset":"-420","gplace_id":null,"gplace_url":"https://maps.google.com/?cid=5475741522816561922","dealerID":62740,"trusted":false,"image_id":"v1597283930/mini_RM.png","phone":"8447360466","cityStateSlug":"tempe.az","slug":"Tempe.AZ/mini+of+tempe","location":"33.3457101,-111.9654615","brandsList":["mini"]},{"id":12830,"crm_id":67032043,"name":"Sanderson Lincoln","dealerSlug":"sanderson+lincoln","city_state_slug":"Phoenix.AZ","brand":"Lincoln","website":"www.sandersonlincoln.net","address":"2121 W Bell Rd","city":"Phoenix","state":"AZ","zip":85023,"latitude":33.6387978,"longitude":-112.1051559,"phone_number_service":"6023757400","phone_number_main":"6023757500","service_hours":"Mo-Fr 07:00 - 18:00 | Sa 07:00 - 13:00","utc_offset":"-420","gplace_id":null,"gplace_url":"https://maps.google.com/?cid=2708778777622515947","dealerID":62766,"trusted":false,"image_id":"v1597283942/lincoln_RM.png","phone":"6023757400","cityStateSlug":"phoenix.az","slug":"Phoenix.AZ/sanderson+lincoln","location":"33.6387978,-112.1051559","brandsList":["lincoln"]},{"id":951,"crm_id":67032157,"name":"Babbitt Ford Lincoln","dealerSlug":"babbitt+ford+lincoln","city_state_slug":"Flagstaff.AZ","brand":"Ford,Lincoln","website":"www.babbittford.com","address":"11 N Verde St","city":"Flagstaff","state":"AZ","zip":86001,"latitude":35.1972716,"longitude":-111.6458572,"phone_number_service":"8883141380","phone_number_main":"9287745063","service_hours":"Mo-Fr 07:30 - 18:00 | Sa 09:00 - 15:00","utc_offset":"-420","gplace_id":null,"gplace_url":"https://maps.google.com/?cid=8991389213841951716","dealerID":62800,"trusted":false,"image_id":"v1597283967/ford_RM.png","phone":"8883141380","cityStateSlug":"flagstaff.az","slug":"Flagstaff.AZ/babbitt+ford+lincoln","location":"35.1972716,-111.6458572","brandsList":["ford","lincoln"]},{"id":1404,"crm_id":67032790,"name":"Big Two Toyota of Chandler","dealerSlug":"big+two+toyota+of+chandler","city_state_slug":"Chandler.AZ","brand":"Toyota","website":"www.bigtwotoyota.com","address":"1250 S Gilbert Rd","city":"Chandler","state":"AZ","zip":85286,"latitude":33.2880802,"longitude":-111.7914627,"phone_number_service":"4803024651","phone_number_main":"4808986000","service_hours":"Mo-Fr 07:00 - 19:00 | Sa 08:00 - 16:00","utc_offset":"-420","gplace_id":null,"gplace_url":"https://maps.google.com/?cid=3340933406841000171","dealerID":62976,"trusted":false,"image_id":"v1597284039/toyota_ms.png","phone":"4803024651","cityStateSlug":"chandler.az","slug":"Chandler.AZ/big+two+toyota+of+chandler","location":"33.2880802,-111.7914627","brandsList":["toyota"]},{"id":13190,"crm_id":67032949,"name":"Showcase Honda","dealerSlug":"showcase+honda","city_state_slug":"Phoenix.AZ","brand":"Honda","website":"www.showcasehonda.com","address":"1333 E Camelback Rd","city":"Phoenix","state":"AZ","zip":85014,"latitude":33.5083643,"longitude":-112.0523877,"phone_number_service":"8666976113","phone_number_main":"6024647145","service_hours":"Mo-Fr 07:00 - 18:00 | Sa 07:00 - 17:00","utc_offset":"-420","gplace_id":null,"gplace_url":"https://maps.google.com/?cid=8159989345436975606","dealerID":63025,"trusted":false,"image_id":"v1597284047/honda_ms.png","phone":"8666976113","cityStateSlug":"phoenix.az","slug":"Phoenix.AZ/showcase+honda","location":"33.5083643,-112.0523877","brandsList":["honda"]},{"id":10121,"crm_id":67033903,"name":"MINI North Scottsdale","dealerSlug":"mini+north+scottsdale","city_state_slug":"Phoenix.AZ","brand":"MINI","website":"www.mininorthscottsdale.com","address":"7101 E Chauncey Ln","city":"Phoenix","state":"AZ","zip":85054,"latitude":33.6509359,"longitude":-111.9279825,"phone_number_service":"8447347215","phone_number_main":"4804709776","service_hours":"Mo-Fr 07:00 - 18:00","utc_offset":"-420","gplace_id":null,"gplace_url":"https://maps.google.com/?cid=2439721497023960743","dealerID":63286,"trusted":false,"image_id":"v1597283930/mini_RM.png","phone":"8447347215","cityStateSlug":"phoenix.az","slug":"Phoenix.AZ/mini+north+scottsdale","location":"33.6509359,-111.9279825","brandsList":["mini"]},{"id":2790,"crm_id":67034380,"name":"Chapman BMW On Camelback","dealerSlug":"chapman+bmw+on+camelback","city_state_slug":"Phoenix.AZ","brand":"BMW","website":"www.chapmanbmwoncamelback.com","address":"830 E Camelback Rd","city":"Phoenix","state":"AZ","zip":85014,"latitude":33.51,"longitude":-112.0622222,"phone_number_service":"6023084990","phone_number_main":"6023084269","service_hours":"Mo-Fr 07:00 - 18:30 | Sa 08:00 - 17:00","utc_offset":"-420","gplace_id":null,"gplace_url":"https://maps.google.com/?cid=11981590831095877980","dealerID":51527,"trusted":true,"image_id":"v1597283982/bmw_RM.png","phone":"6023084990","cityStateSlug":"phoenix.az","slug":"Phoenix.AZ/chapman+bmw+on+camelback","location":"33.51,-112.0622222","brandsList":["bmw"]},{"id":11809,"crm_id":67034416,"name":"Precision Toyota of Tucson","dealerSlug":"precision+toyota+of+tucson","city_state_slug":"Tucson.AZ","brand":"Toyota","website":"www.pretoy.com","address":"700 W Wetmore Rd","city":"Tucson","state":"AZ","zip":85705,"latitude":32.287302,"longitude":-110.983818,"phone_number_service":"8447392720","phone_number_main":"5207955565","service_hours":"Mo-Fr 07:00 - 18:00 | Sa 07:00 - 18:00 | Su 08:00 - 16:00","utc_offset":"-420","gplace_id":null,"gplace_url":"https://maps.google.com/?cid=13898654411737680136","dealerID":63426,"trusted":false,"image_id":"v1597284039/toyota_ms.png","phone":"8447392720","cityStateSlug":"tucson.az","slug":"Tucson.AZ/precision+toyota+of+tucson","location":"32.287302,-110.983818","brandsList":["toyota"]},{"id":1616,"crm_id":67034662,"name":"BMW North Scottsdale","dealerSlug":"bmw+north+scottsdale","city_state_slug":"Phoenix.AZ","brand":"BMW","website":"www.bmwnorthscottsdale.com","address":"18018 N Scottsdale Rd","city":"Phoenix","state":"AZ","zip":85054,"latitude":33.6488686,"longitude":-111.9263523,"phone_number_service":"4805717890","phone_number_main":"4804707871","service_hours":"Mo-Fr 07:00 - 18:00 | Sa 08:00 - 12:00","utc_offset":"-420","gplace_id":null,"gplace_url":"https://maps.google.com/?cid=154440353527524621","dealerID":51466,"trusted":true,"image_id":"v1597283982/bmw_RM.png","phone":"4805717890","cityStateSlug":"phoenix.az","slug":"Phoenix.AZ/bmw+north+scottsdale","location":"33.6488686,-111.9263523","brandsList":["bmw"]},{"id":12426,"crm_id":67034713,"name":"Robert Horne Ford","dealerSlug":"robert+horne+ford","city_state_slug":"Apache-Junction.AZ","brand":"Ford","website":"www.roberthorneford.net","address":"3400 S Tomahawk Rd","city":"Apache Junction","state":"AZ","zip":85119,"latitude":33.384925,"longitude":-111.530155,"phone_number_service":"4805088848","phone_number_main":"8554296080","service_hours":"Mo-Fr 07:00 - 18:00 | Sa 08:00 - 16:00","utc_offset":"-420","gplace_id":null,"gplace_url":"https://maps.google.com/?cid=5922499087763115132","dealerID":63515,"trusted":false,"image_id":"v1597283967/ford_RM.png","phone":"4805088848","cityStateSlug":"apache-junction.az","slug":"Apache-Junction.AZ/robert+horne+ford","location":"33.384925,-111.530155","brandsList":["ford"]},{"id":9260,"crm_id":67035373,"name":"Mark Kia","dealerSlug":"mark+kia","city_state_slug":"Scottsdale.AZ","brand":"Kia","website":"www.markkia.com","address":"3333 N 89th St","city":"Scottsdale","state":"AZ","zip":85251,"latitude":33.486647,"longitude":-111.8891288,"phone_number_service":"4804255300","phone_number_main":"4804255300","service_hours":"Mo-Fr 07:00 - 18:00 | Sa 07:00 - 17:00","utc_offset":"-420","gplace_id":null,"gplace_url":"https://maps.google.com/?cid=17984686931607256755","dealerID":63689,"trusted":false,"image_id":"v1597283948/kia_RM.png","phone":"4804255300","cityStateSlug":"scottsdale.az","slug":"Scottsdale.AZ/mark+kia","location":"33.486647,-111.8891288","brandsList":["kia"]},{"id":15749,"crm_id":67035391,"name":"Yuma Honda","dealerSlug":"yuma+honda","city_state_slug":"Yuma.AZ","brand":"Honda","website":"www.yumahonda.com","address":"1190 E 32nd St","city":"Yuma","state":"AZ","zip":85365,"latitude":32.67,"longitude":-114.6083333,"phone_number_service":"9283441000","phone_number_main":"9283441000","service_hours":"Mo-Fr 07:00 - 17:30 | Sa 07:00 - 17:00","utc_offset":"-420","gplace_id":null,"gplace_url":"https://maps.google.com/?cid=17156845906057529630","dealerID":63695,"trusted":false,"image_id":"v1597284047/honda_ms.png","phone":"9283441000","cityStateSlug":"yuma.az","slug":"Yuma.AZ/yuma+honda","location":"32.67,-114.6083333","brandsList":["honda"]},{"id":15081,"crm_id":67035454,"name":"Volvo Cars Gilbert","dealerSlug":"volvo+cars+gilbert","city_state_slug":"Gilbert.AZ","brand":"Volvo","website":"www.volvocarsgilbert.com","address":"3285 S Gilbert Rd","city":"Gilbert","state":"AZ","zip":85297,"latitude":33.2902953,"longitude":-111.7888516,"phone_number_service":"8778348180","phone_number_main":"4809412400","service_hours":"Mo-Fr 07:00 - 18:00 | Sa 07:00 - 16:00","utc_offset":"-420","gplace_id":null,"gplace_url":"https://maps.google.com/?cid=8325468893182142140","dealerID":63712,"trusted":false,"image_id":"v1597283901/volvo.jpg","phone":"8778348180","cityStateSlug":"gilbert.az","slug":"Gilbert.AZ/volvo+cars+gilbert","location":"33.2902953,-111.7888516","brandsList":["volvo"]},{"id":13189,"crm_id":67036057,"name":"Show Low Ford","dealerSlug":"show+low+ford","city_state_slug":"Show-Low.AZ","brand":"Ford","website":"www.showlowford.com","address":"1920 E Deuce of Clubs","city":"Show Low","state":"AZ","zip":85901,"latitude":34.256694,"longitude":-110.0221684,"phone_number_service":"8884317147","phone_number_main":"9285373673","service_hours":"Mo-Sa 08:00 - 17:00","utc_offset":"-420","gplace_id":null,"gplace_url":"https://maps.google.com/?cid=7486034567956341065","dealerID":63874,"trusted":false,"image_id":"v1597283967/ford_RM.png","phone":"8884317147","cityStateSlug":"show-low.az","slug":"Show-Low.AZ/show+low+ford","location":"34.256694,-110.0221684","brandsList":["ford"]},{"id":14825,"crm_id":67036114,"name":"Van Chevrolet","dealerSlug":"van+chevrolet","city_state_slug":"Scottsdale.AZ","brand":"Chevrolet","website":"www.vanchevrolet.com","address":"8585 E Frank Lloyd Wright","city":"Scottsdale","state":"AZ","zip":85260,"latitude":33.6299179,"longitude":-111.8957976,"phone_number_service":"8668046526","phone_number_main":"4806965884","service_hours":"Mo-Fr 07:00 - 18:00 | Sa 07:00 - 16:00","utc_offset":"-420","gplace_id":null,"gplace_url":"https://maps.google.com/?cid=12664997914458448978","dealerID":63889,"trusted":false,"image_id":"v1597284079/chevy_ms.png","phone":"8668046526","cityStateSlug":"scottsdale.az","slug":"Scottsdale.AZ/van+chevrolet","location":"33.6299179,-111.8957976","brandsList":["chevrolet"]},{"id":2800,"crm_id":67036816,"name":"Chapman Hyundai Phoenix","dealerSlug":"chapman+hyundai+phoenix","city_state_slug":"Phoenix.AZ","brand":"Hyundai","website":"www.chapmanhyundaiphoenix.com","address":"999 W Bell Rd","city":"Phoenix","state":"AZ","zip":85023,"latitude":33.6394934,"longitude":-112.0859576,"phone_number_service":"6023446931","phone_number_main":"6023446930","service_hours":"Mo-Fr 07:00 - 18:00 | Sa 07:00 - 16:00","utc_offset":"-420","gplace_id":null,"gplace_url":"https://maps.google.com/?cid=6836790793690302231","dealerID":64086,"trusted":false,"image_id":"v1597283959/hyundai_RM.png","phone":"6023446931","cityStateSlug":"phoenix.az","slug":"Phoenix.AZ/chapman+hyundai+phoenix","location":"33.6394934,-112.0859576","brandsList":["hyundai"]},{"id":12342,"crm_id":67036948,"name":"Right Honda","dealerSlug":"right+honda","city_state_slug":"Scottsdale.AZ","brand":"Honda","website":"www.righthonda.com","address":"7875 E Frank Lloyd Wright Blvd","city":"Scottsdale","state":"AZ","zip":85260,"latitude":33.6339884,"longitude":-111.9111914,"phone_number_service":"6028920595","phone_number_main":"6026914619","service_hours":"Mo-Fr 07:00 - 18:00 | Sa 07:00 - 16:00","utc_offset":"-420","gplace_id":null,"gplace_url":"https://maps.google.com/?cid=17063386983760116519","dealerID":51062,"trusted":true,"image_id":"v1597284047/honda_ms.png","phone":"6028920595","cityStateSlug":"scottsdale.az","slug":"Scottsdale.AZ/right+honda","location":"33.6339884,-111.9111914","brandsList":["honda"]},{"id":7376,"crm_id":67036990,"name":"Jim Click Nissan","dealerSlug":"jim+click+nissan","city_state_slug":"Tucson.AZ","brand":"Nissan","website":"www.jimclicknissan.com","address":"800 W Auto Mall Dr","city":"Tucson","state":"AZ","zip":85705,"latitude":32.290098,"longitude":-110.985171,"phone_number_service":"5208844150","phone_number_main":"8772223980","service_hours":"Mo-Fr 07:00 - 18:00 | Sa 07:00 - 17:00","utc_offset":"-420","gplace_id":null,"gplace_url":"https://maps.google.com/?cid=18070385567893266029","dealerID":64136,"trusted":false,"image_id":"v1597283926/nissan_RM.png","phone":"5208844150","cityStateSlug":"tucson.az","slug":"Tucson.AZ/jim+click+nissan","location":"32.290098,-110.985171","brandsList":["nissan"]},{"id":11695,"crm_id":67037401,"name":"Porsche North Scottsdale","dealerSlug":"porsche+north+scottsdale","city_state_slug":"Phoenix.AZ","brand":"Porsche","website":"www.porschenorthscottsdale.com","address":"18000 N Scottsdale Rd","city":"Phoenix","state":"AZ","zip":85054,"latitude":33.6482346,"longitude":-111.9266318,"phone_number_service":"8777044071","phone_number_main":"4805383800","service_hours":"Mo-Fr 08:00 - 18:00","utc_offset":"-420","gplace_id":null,"gplace_url":"https://maps.google.com/?cid=13835565878378250944","dealerID":64251,"trusted":false,"image_id":"v1597283919/porsche.jpg","phone":"8777044071","cityStateSlug":"phoenix.az","slug":"Phoenix.AZ/porsche+north+scottsdale","location":"33.6482346,-111.9266318","brandsList":["porsche"]},{"id":4328,"crm_id":67037518,"name":"Earnhardt Honda","dealerSlug":"earnhardt+honda","city_state_slug":"Avondale.AZ","brand":"Honda","website":"www.earnhardthonda.com","address":"10151 W Papago Fwy","city":"Avondale","state":"AZ","zip":85323,"latitude":33.4596479,"longitude":-112.2802758,"phone_number_service":"8884189933","phone_number_main":"6239345211","service_hours":"Mo-Fr 07:00 - 19:00 | Sa 07:00 - 18:00","utc_offset":"-420","gplace_id":null,"gplace_url":"https://maps.google.com/?cid=3289639705270648591","dealerID":64285,"trusted":false,"image_id":"v1597284047/honda_ms.png","phone":"8884189933","cityStateSlug":"avondale.az","slug":"Avondale.AZ/earnhardt+honda","location":"33.4596479,-112.2802758","brandsList":["honda"]},{"id":2805,"crm_id":67037818,"name":"Chapman Mazda","dealerSlug":"chapman+mazda","city_state_slug":"Phoenix.AZ","brand":"Mazda","website":"www.chapmanmazda.com","address":"999 West Bell Rd","city":"Phoenix","state":"AZ","zip":85023,"latitude":33.6394444,"longitude":-112.0855556,"phone_number_service":"8884377198","phone_number_main":"6023446940","service_hours":"Mo-Fr 07:00 - 18:00 | Sa 07:00 - 16:00","utc_offset":"-420","gplace_id":null,"gplace_url":"https://maps.google.com/?cid=10858859263332876164","dealerID":64368,"trusted":false,"image_id":"v1597283937/mazda.png","phone":"8884377198","cityStateSlug":"phoenix.az","slug":"Phoenix.AZ/chapman+mazda","location":"33.6394444,-112.0855556","brandsList":["mazda"]},{"id":11838,"crm_id":67038766,"name":"Prescott Honda","dealerSlug":"prescott+honda","city_state_slug":"Prescott.AZ","brand":"Honda","website":"www.prescotthonda.com","address":"3291 Willow Creek Rd","city":"Prescott","state":"AZ","zip":86301,"latitude":34.6058106,"longitude":-112.4517761,"phone_number_service":"9282272389","phone_number_main":"9284326049","service_hours":"Mo-Fr 07:30 - 17:00 | Sa Closed | Su 08:00 - 16:00","utc_offset":"-420","gplace_id":null,"gplace_url":"https://maps.google.com/?cid=8768957328772838573","dealerID":64631,"trusted":false,"image_id":"v1597284047/honda_ms.png","phone":"9282272389","cityStateSlug":"prescott.az","slug":"Prescott.AZ/prescott+honda","location":"34.6058106,-112.4517761","brandsList":["honda"]},{"id":13212,"crm_id":67038886,"name":"Sierra Toyota","dealerSlug":"sierra+toyota","city_state_slug":"Sierra-Vista.AZ","brand":"Toyota","website":"www.sierratoyota-az.com","address":"2596 E Fry Blvd","city":"Sierra Vista","state":"AZ","zip":85635,"latitude":31.553872,"longitude":-110.2737396,"phone_number_service":"5204588880","phone_number_main":"5204588880","service_hours":"Mo-Fr 07:00 - 17:30 | Sa 08:00 - 14:00","utc_offset":"-420","gplace_id":null,"gplace_url":"https://maps.google.com/?cid=4354355209710555256","dealerID":64665,"trusted":false,"image_id":"v1597284039/toyota_ms.png","phone":"5204588880","cityStateSlug":"sierra-vista.az","slug":"Sierra-Vista.AZ/sierra+toyota","location":"31.553872,-110.2737396","brandsList":["toyota"]},{"id":11392,"crm_id":67038901,"name":"Peoria Nissan","dealerSlug":"peoria+nissan","city_state_slug":"Peoria.AZ","brand":"Nissan","website":"www.peorianissan.com","address":"9151 W Bell Rd","city":"Peoria","state":"AZ","zip":85382,"latitude":33.6365601,"longitude":-112.2535839,"phone_number_service":"8666960154","phone_number_main":"6233851467","service_hours":"Mo-Fr 07:00 - 19:00 | Sa 07:00 - 16:00","utc_offset":"-420","gplace_id":null,"gplace_url":"https://maps.google.com/?cid=150268948918631910","dealerID":64668,"trusted":false,"image_id":"v1597283926/nissan_RM.png","phone":"8666960154","cityStateSlug":"peoria.az","slug":"Peoria.AZ/peoria+nissan","location":"33.6365601,-112.2535839","brandsList":["nissan"]},{"id":4815,"crm_id":67039063,"name":"Findlay Volkswagen","dealerSlug":"findlay+volkswagen","city_state_slug":"Flagstaff.AZ","brand":"Volkswagen","website":"www.findlayvolkswagenflagstaff.com","address":"5160 N Test Drive","city":"Flagstaff","state":"AZ","zip":86004,"latitude":35.2236111,"longitude":-111.5677778,"phone_number_service":"9282165708","phone_number_main":"9285222700","service_hours":"Mo-Fr 08:00 - 18:00 | Sa 08:00 - 14:00","utc_offset":"-420","gplace_id":null,"gplace_url":"https://maps.google.com/?cid=14746831131420066083","dealerID":64711,"trusted":false,"image_id":"v1597283902/volkswagen.png","phone":"9282165708","cityStateSlug":"flagstaff.az","slug":"Flagstaff.AZ/findlay+volkswagen","location":"35.2236111,-111.5677778","brandsList":["volkswagen"]},{"id":7991,"crm_id":67040350,"name":"Kingman Chevrolet Buick","dealerSlug":"kingman+chevrolet+buick","city_state_slug":"Kingman.AZ","brand":"Buick,Chevrolet","website":"www.kingmanchevrolet-buick.com","address":"3730 Stockton Hill Rd","city":"Kingman","state":"AZ","zip":86409,"latitude":35.2315542,"longitude":-114.0358735,"phone_number_service":"9283775127","phone_number_main":"9287574041","service_hours":"Mo-Fr 07:00 - 18:00 | Sa 08:00 - 15:00","utc_offset":"-420","gplace_id":null,"gplace_url":"https://maps.google.com/?cid=9118246636681628507","dealerID":65059,"trusted":false,"image_id":"v1597283981/buick_RM.png","phone":"9283775127","cityStateSlug":"kingman.az","slug":"Kingman.AZ/kingman+chevrolet+buick","location":"35.2315542,-114.0358735","brandsList":["buick","chevrolet"]},{"id":13630,"crm_id":67040422,"name":"Steve Coury Ford","dealerSlug":"steve+coury+ford","city_state_slug":"Star-Valley.AZ","brand":"Ford","website":"www.stevecouryfordsales.com","address":"4397 East Highway 260","city":"Star Valley","state":"AZ","zip":85541,"latitude":34.2563586,"longitude":-111.2538698,"phone_number_service":"9283238103","phone_number_main":"9284748888","service_hours":"Mo-Fr 07:30 - 17:30 | Sa 08:00 - 16:00","utc_offset":"-420","gplace_id":null,"gplace_url":"https://maps.google.com/?cid=3805590973920157471","dealerID":65082,"trusted":false,"image_id":"v1597283967/ford_RM.png","phone":"9283238103","cityStateSlug":"star-valley.az","slug":"Star-Valley.AZ/steve+coury+ford","location":"34.2563586,-111.2538698","brandsList":["ford"]},{"id":4806,"crm_id":67040860,"name":"Findlay Honda Flagstaff","dealerSlug":"findlay+honda+flagstaff","city_state_slug":"Flagstaff.AZ","brand":"Honda","website":"www.findlayhondaflagstaff.com","address":"5199 N Test Dr","city":"Flagstaff","state":"AZ","zip":86004,"latitude":35.2244444,"longitude":-111.57,"phone_number_service":"9287747200","phone_number_main":"9287747200","service_hours":"Mo-Fr 08:00 - 17:00","utc_offset":"-420","gplace_id":null,"gplace_url":"https://maps.google.com/?cid=12407784187234878","dealerID":65191,"trusted":false,"image_id":"v1597284047/honda_ms.png","phone":"9287747200","cityStateSlug":"flagstaff.az","slug":"Flagstaff.AZ/findlay+honda+flagstaff","location":"35.2244444,-111.57","brandsList":["honda"]},{"id":56,"crm_id":67042777,"name":"Acura North Scottsdale","dealerSlug":"acura+north+scottsdale","city_state_slug":"Phoenix.AZ","brand":"Acura","website":"www.acuranorthscottsdale.com","address":"7007 E Chauncey Ln","city":"Phoenix","state":"AZ","zip":85054,"latitude":33.6506468,"longitude":-111.9288675,"phone_number_service":"8442072296","phone_number_main":"4805088434","service_hours":"Mo-Fr 07:00 - 18:00","utc_offset":"-420","gplace_id":null,"gplace_url":"https://maps.google.com/?cid=9956340945134146112","dealerID":65699,"trusted":false,"image_id":"v1597283988/acura.png","phone":"8442072296","cityStateSlug":"phoenix.az","slug":"Phoenix.AZ/acura+north+scottsdale","location":"33.6506468,-111.9288675","brandsList":["acura"]},{"id":87,"crm_id":67043044,"name":"Acura of Peoria","dealerSlug":"acura+of+peoria","city_state_slug":"Peoria.AZ","brand":"Acura","website":"www.acuraofpeoria.com","address":"9190 W Bell Rd","city":"Peoria","state":"AZ","zip":85382,"latitude":33.6411719,"longitude":-112.2555145,"phone_number_service":"8666979452","phone_number_main":"6233851478","service_hours":"Mo-Fr 07:00 - 18:00 | Sa 07:00 - 17:00","utc_offset":"-420","gplace_id":null,"gplace_url":"https://maps.google.com/?cid=964088092139759148","dealerID":65776,"trusted":false,"image_id":"v1597283988/acura.png","phone":"8666979452","cityStateSlug":"peoria.az","slug":"Peoria.AZ/acura+of+peoria","location":"33.6411719,-112.2555145","brandsList":["acura"]},{"id":5402,"crm_id":67043614,"name":"Garrett Motors","dealerSlug":"garrett+motors","city_state_slug":"Coolidge.AZ","brand":"Buick,Chevrolet,GMC","website":"www.garrettmotors.com","address":"197 N Arizona Blvd","city":"Coolidge","state":"AZ","zip":85128,"latitude":32.978498,"longitude":-111.52368,"phone_number_service":"5205100749","phone_number_main":"5207235401","service_hours":"Mo-Fr 07:30 - 17:30 | Sa 08:00-17:00","utc_offset":"-420","gplace_id":null,"gplace_url":"https://maps.google.com/?cid=9540171265952385178","dealerID":65937,"trusted":false,"image_id":"v1597283981/buick_RM.png","phone":"5205100749","cityStateSlug":"coolidge.az","slug":"Coolidge.AZ/garrett+motors","location":"32.978498,-111.52368","brandsList":["buick","chevrolet","gmc"]},{"id":632,"crm_id":67043641,"name":"Audi Peoria","dealerSlug":"audi+peoria","city_state_slug":"Peoria.AZ","brand":"Audi","website":"www.audipeoriaaz.com","address":"16900 N 88th Dr","city":"Peoria","state":"AZ","zip":85382,"latitude":33.6372,"longitude":-112.25,"phone_number_service":"8669489943","phone_number_main":"6023997002","service_hours":"Mo-Fr 07:00 - 19:00 | Sa 07:00 - 16:00","utc_offset":"-420","gplace_id":null,"gplace_url":"https://maps.google.com/?cid=13050116126388977905","dealerID":65944,"trusted":false,"image_id":"v1597283985/audi_RM.png","phone":"8669489943","cityStateSlug":"peoria.az","slug":"Peoria.AZ/audi+peoria","location":"33.6372,-112.25","brandsList":["audi"]},{"id":930,"crm_id":67044163,"name":"AutoWits","dealerSlug":"autowits","city_state_slug":"Scottsdale.AZ","brand":"Hyundai","website":"www.autowits.com/","address":"7224 E McDowell Rd.","city":"Scottsdale","state":"AZ","zip":85257,"latitude":33.4660045,"longitude":-111.9272287,"phone_number_service":"4809491200","phone_number_main":"4809225200","service_hours":"Mo-Fr  08:00 - 17:00 | Sa 08:00 - 13:00","utc_offset":"-420","gplace_id":null,"gplace_url":"https://maps.google.com/?cid=717460388157334150","dealerID":66084,"trusted":false,"image_id":"v1597283959/hyundai_RM.png","phone":"4809491200","cityStateSlug":"scottsdale.az","slug":"Scottsdale.AZ/autowits","location":"33.4660045,-111.9272287","brandsList":["hyundai"]},{"id":6645,"crm_id":67044625,"name":"Honda of Superstition Springs","dealerSlug":"honda+of+superstition+springs","city_state_slug":"Mesa.AZ","brand":"Honda","website":"www.supershonda.com","address":"6229 E Auto Park Dr","city":"Mesa","state":"AZ","zip":85206,"latitude":33.38861,"longitude":-111.697086,"phone_number_service":"8339380097","phone_number_main":"8339380096","service_hours":"Mo-Sa 07:00 - 17:00","utc_offset":"-420","gplace_id":null,"gplace_url":"https://maps.google.com/?cid=1896615540249796992","dealerID":66206,"trusted":false,"image_id":"v1597284047/honda_ms.png","phone":"8339380097","cityStateSlug":"mesa.az","slug":"Mesa.AZ/honda+of+superstition+springs","location":"33.38861,-111.697086","brandsList":["honda"]},{"id":516,"crm_id":67045483,"name":"Audi Chandler","dealerSlug":"audi+chandler","city_state_slug":"Chandler.AZ","brand":"Audi","website":"www.audichandler.com","address":"7460 W Orchid Ln","city":"Chandler","state":"AZ","zip":85226,"latitude":33.324066,"longitude":-111.9710764,"phone_number_service":"8888484582","phone_number_main":"4804707367","service_hours":"Mo-Fr 07:00 - 18:00","utc_offset":"-420","gplace_id":null,"gplace_url":"https://maps.google.com/?cid=9737558081919281103","dealerID":66440,"trusted":false,"image_id":"v1597283985/audi_RM.png","phone":"8888484582","cityStateSlug":"chandler.az","slug":"Chandler.AZ/audi+chandler","location":"33.324066,-111.9710764","brandsList":["audi"]},{"id":14648,"crm_id":67045606,"name":"Tucson Subaru","dealerSlug":"tucson+subaru","city_state_slug":"Tucson.AZ","brand":"Subaru","website":"www.tucsonsubaru.com","address":"4901 N Oracle Rd","city":"Tucson","state":"AZ","zip":85704,"latitude":32.295451,"longitude":-110.9794438,"phone_number_service":"8886047190","phone_number_main":"5204222111","service_hours":"Mo-Fr 07:30 - 18:00 | Sa 08:00-17:00","utc_offset":"-420","gplace_id":null,"gplace_url":"https://maps.google.com/?cid=5797593021032743618","dealerID":66477,"trusted":false,"image_id":"v1597283982/subaru_ms.png","phone":"8886047190","cityStateSlug":"tucson.az","slug":"Tucson.AZ/tucson+subaru","location":"32.295451,-110.9794438","brandsList":["subaru"]},{"id":9860,"crm_id":67045744,"name":"Mercedes-Benz of Tucson","dealerSlug":"mercedes+benz+of+tucson","city_state_slug":"Tucson.AZ","brand":"Mercedes-Benz","website":"www.mercedesoftucson.com","address":"6350 E Grant Rd","city":"Tucson","state":"AZ","zip":85715,"latitude":32.2499529,"longitude":-110.8574112,"phone_number_service":"5208861311","phone_number_main":"5208861311","service_hours":"Mo-Fr 07:00 - 18:00 | Sa 08:00 - 16:00","utc_offset":"-420","gplace_id":null,"gplace_url":"https://maps.google.com/?cid=17635830321953810180","dealerID":66512,"trusted":false,"image_id":"v1597283934/mercedes_RM.png","phone":"5208861311","cityStateSlug":"tucson.az","slug":"Tucson.AZ/mercedes+benz+of+tucson","location":"32.2499529,-110.8574112","brandsList":["mercedes-benz"]},{"id":2446,"crm_id":67045837,"name":"Camelback Toyota","dealerSlug":"camelback+toyota","city_state_slug":"Phoenix.AZ","brand":"Toyota","website":"www.camelbacktoyota.com","address":"1550 E Camelback Rd","city":"Phoenix","state":"AZ","zip":85014,"latitude":33.5105499,"longitude":-112.0495932,"phone_number_service":"8446664396","phone_number_main":"6024647261","service_hours":"Mo-Fr 07:00 - 18:00","utc_offset":"-420","gplace_id":null,"gplace_url":"https://maps.google.com/?cid=17700487227824762540","dealerID":66529,"trusted":false,"image_id":"v1597284039/toyota_ms.png","phone":"8446664396","cityStateSlug":"phoenix.az","slug":"Phoenix.AZ/camelback+toyota","location":"33.5105499,-112.0495932","brandsList":["toyota"]},{"id":6944,"crm_id":67046170,"name":"INFINITI of Scottsdale","dealerSlug":"infiniti+of+scottsdale","city_state_slug":"Scottsdale.AZ","brand":"INFINITI","website":"www.infinitiofscottsdale.com","address":"7601 E Frank Lloyd Wright Blvd","city":"Scottsdale","state":"AZ","zip":85260,"latitude":33.6346929,"longitude":-111.915918,"phone_number_service":"8777658597","phone_number_main":"4804482423","service_hours":"Mo-Fr 07:30 - 18:00 | Sa 08:00 - 16:00","utc_offset":"-420","gplace_id":null,"gplace_url":"https://maps.google.com/?cid=17662786029785784974","dealerID":66617,"trusted":false,"image_id":"v1597283957/infiniti_RM.png","phone":"8777658597","cityStateSlug":"scottsdale.az","slug":"Scottsdale.AZ/infiniti+of+scottsdale","location":"33.6346929,-111.915918","brandsList":["infiniti"]},{"id":6687,"crm_id":67046596,"name":"Horne Chrysler Jeep Dodge","dealerSlug":"horne+chrysler+jeep+dodge","city_state_slug":"Globe.AZ","brand":"Chrysler,Dodge,Jeep,RAM","website":"www.hornechryslerjeepdodge.com","address":"2030 Highway 60","city":"Globe","state":"AZ","zip":85501,"latitude":33.4190875,"longitude":-110.8133127,"phone_number_service":"8888492384","phone_number_main":"9286155600","service_hours":"Mo-Fr 07:30 - 17:30","utc_offset":"-420","gplace_id":null,"gplace_url":"https://maps.google.com/?cid=10597705611999424734","dealerID":66722,"trusted":false,"image_id":"v1597283975/chrysler_RM.png","phone":"8888492384","cityStateSlug":"globe.az","slug":"Globe.AZ/horne+chrysler+jeep+dodge","location":"33.4190875,-110.8133127","brandsList":["chrysler","dodge","jeep","ram"]},{"id":1198,"crm_id":67046788,"name":"Bell Lexus North Scottsdale","dealerSlug":"bell+lexus+north+scottsdale","city_state_slug":"Scottsdale.AZ","brand":"Lexus","website":"www.belllexusnorthscottsdale.com","address":"18555 N Scottsdale Rd","city":"Scottsdale","state":"AZ","zip":85255,"latitude":33.6541752,"longitude":-111.9236318,"phone_number_service":"4805666785","phone_number_main":"4805025000","service_hours":"Mo-Fr 07:00 - 18:00 | Sa 08:00 - 16:00","utc_offset":"-420","gplace_id":null,"gplace_url":"https://maps.google.com/?cid=198265678376839901","dealerID":66772,"trusted":false,"image_id":"v1597284042/lexus_ms.png","phone":"4805666785","cityStateSlug":"scottsdale.az","slug":"Scottsdale.AZ/bell+lexus+north+scottsdale","location":"33.6541752,-111.9236318","brandsList":["lexus"]},{"id":12666,"crm_id":67046800,"name":"Royal Kia of Tucson","dealerSlug":"royal+kia+of+tucson","city_state_slug":"Tucson.AZ","brand":"Kia","website":"www.royalkia.com","address":"4333 E Speedway Blvd","city":"Tucson","state":"AZ","zip":85712,"latitude":32.2369924,"longitude":-110.9006312,"phone_number_service":"5204770569","phone_number_main":"5204770569","service_hours":"Mo-Fr 07:00 - 17:30 | Sa 08:00 - 15:00","utc_offset":"-420","gplace_id":null,"gplace_url":"https://maps.google.com/?cid=9884590800628842667","dealerID":66776,"trusted":false,"image_id":"v1597283948/kia_RM.png","phone":"5204770569","cityStateSlug":"tucson.az","slug":"Tucson.AZ/royal+kia+of+tucson","location":"32.2369924,-110.9006312","brandsList":["kia"]},{"id":1271,"crm_id":67047253,"name":"Berge Volkswagen","dealerSlug":"berge+volkswagen","city_state_slug":"Gilbert.AZ","brand":"Volkswagen","website":"www.bergevw.com","address":"385 W Baseline Rd","city":"Gilbert","state":"AZ","zip":85233,"latitude":33.378125,"longitude":-111.840581,"phone_number_service":"4805598170","phone_number_main":"4806464858","service_hours":"Mo-Fr 07:00 - 18:00 | Sa 08:00 - 17:00","utc_offset":"-420","gplace_id":null,"gplace_url":"https://maps.google.com/?cid=13095379424496981701","dealerID":66897,"trusted":false,"image_id":"v1597283902/volkswagen.png","phone":"4805598170","cityStateSlug":"gilbert.az","slug":"Gilbert.AZ/berge+volkswagen","location":"33.378125,-111.840581","brandsList":["volkswagen"]},{"id":13943,"crm_id":67047550,"name":"Superstition Springs Lexus","dealerSlug":"superstition+springs+lexus","city_state_slug":"Mesa.AZ","brand":"Lexus","website":"www.sslexus.com","address":"6206 E Test Dr","city":"Mesa","state":"AZ","zip":85206,"latitude":33.3857606,"longitude":-111.6980257,"phone_number_service":"8669123703","phone_number_main":"4802699631","service_hours":"Mo-Fr 07:00 - 18:00 | Sa 08:00 - 16:00","utc_offset":"-420","gplace_id":null,"gplace_url":"https://maps.google.com/?cid=10108668472082259712","dealerID":66987,"trusted":false,"image_id":"v1597284042/lexus_ms.png","phone":"8669123703","cityStateSlug":"mesa.az","slug":"Mesa.AZ/superstition+springs+lexus","location":"33.3857606,-111.6980257","brandsList":["lexus"]},{"id":4323,"crm_id":67048432,"name":"Earnhardt Cadillac","dealerSlug":"earnhardt+cadillac","city_state_slug":"Scottsdale.AZ","brand":"Cadillac","website":"www.earnhardtcadillac.com","address":"7901 E Frank Lloyd Wright Blvd","city":"Scottsdale","state":"AZ","zip":85260,"latitude":33.6336972,"longitude":-111.9095739,"phone_number_service":"4804834000","phone_number_main":"4804834000","service_hours":"Mo-Fr 07:00 - 18:00 | Sa 08:00 - 15:00","utc_offset":"-420","gplace_id":null,"gplace_url":"https://maps.google.com/?cid=7130549017596581162","dealerID":67220,"trusted":false,"image_id":"v1597283980/cadillac.png","phone":"4804834000","cityStateSlug":"scottsdale.az","slug":"Scottsdale.AZ/earnhardt+cadillac","location":"33.6336972,-111.9095739","brandsList":["cadillac"]},{"id":8435,"crm_id":67048519,"name":"Larry H. Miller Chrysler Jeep Tucson","dealerSlug":"larry+h+miller+chrysler+jeep+tucson","city_state_slug":"Tucson.AZ","brand":"Chrysler,Jeep","website":"www.larrymillerchryslerjeeptucson.com","address":"7800 E 22nd St","city":"Tucson","state":"AZ","zip":85710,"latitude":32.2057621,"longitude":-110.8263015,"phone_number_service":"5208150130","phone_number_main":"5203959310","service_hours":"Mo-Fr 07:00 - 18:00 | Sa 07:00 - 16:00","utc_offset":"-420","gplace_id":null,"gplace_url":"https://maps.google.com/?cid=2016117117443598908","dealerID":67240,"trusted":false,"image_id":"v1597283975/chrysler_RM.png","phone":"5208150130","cityStateSlug":"tucson.az","slug":"Tucson.AZ/larry+h+miller+chrysler+jeep+tucson","location":"32.2057621,-110.8263015","brandsList":["chrysler","jeep"]},{"id":13339,"crm_id":67049215,"name":"Sonora Nissan","dealerSlug":"sonora+nissan","city_state_slug":"Yuma.AZ","brand":"Nissan","website":"www.sonoranissancars.com","address":"3160 S Pacific Ave","city":"Yuma","state":"AZ","zip":85365,"latitude":32.6705389,"longitude":-114.5991855,"phone_number_service":"8777375333","phone_number_main":"9287260525","service_hours":"Mo-Fr 07:00 - 20:00 | Sa 08:00 - 18:00 | Su 9:00-17:00","utc_offset":"-420","gplace_id":null,"gplace_url":"https://maps.google.com/?cid=6011455374673403057","dealerID":67430,"trusted":false,"image_id":"v1597283926/nissan_RM.png","phone":"8777375333","cityStateSlug":"yuma.az","slug":"Yuma.AZ/sonora+nissan","location":"32.6705389,-114.5991855","brandsList":["nissan"]},{"id":614,"crm_id":67049644,"name":"Audi North Scottsdale","dealerSlug":"audi+north+scottsdale","city_state_slug":"Phoenix.AZ","brand":"Audi","website":"www.audinorthscottsdale.com","address":"7150 E Princess Dr","city":"Phoenix","state":"AZ","zip":85054,"latitude":33.6472367,"longitude":-111.9266318,"phone_number_service":"8888596649","phone_number_main":"4804709443","service_hours":"Mo-Fr 07:00 - 18:00 | Sa 08:00 - 14:00","utc_offset":"-420","gplace_id":null,"gplace_url":"https://maps.google.com/?cid=17031123611088713720","dealerID":67552,"trusted":false,"image_id":"v1597283985/audi_RM.png","phone":"8888596649","cityStateSlug":"phoenix.az","slug":"Phoenix.AZ/audi+north+scottsdale","location":"33.6472367,-111.9266318","brandsList":["audi"]},{"id":8685,"crm_id":67050172,"name":"Lexus of Chandler","dealerSlug":"lexus+of+chandler","city_state_slug":"Chandler.AZ","brand":"Lexus","website":"www.lexusofchandler.com","address":"7430 W Orchid Ln","city":"Chandler","state":"AZ","zip":85226,"latitude":33.3263564,"longitude":-111.9702882,"phone_number_service":"8555823621","phone_number_main":"4804707965","service_hours":"Mo-Fr 07:00 - 18:00","utc_offset":"-420","gplace_id":null,"gplace_url":"https://maps.google.com/?cid=14267292730261087978","dealerID":67700,"trusted":false,"image_id":"v1597284042/lexus_ms.png","phone":"8555823621","cityStateSlug":"chandler.az","slug":"Chandler.AZ/lexus+of+chandler","location":"33.3263564,-111.9702882","brandsList":["lexus"]},{"id":2059,"crm_id":67051903,"name":"Bradley Chevrolet","dealerSlug":"bradley+chevrolet","city_state_slug":"Lake-Havasu-City.AZ","brand":"Chevrolet","website":"www.bradleychevrolet.com","address":"711 N Lake Havasu Ave","city":"Lake Havasu City","state":"AZ","zip":86403,"latitude":34.494851,"longitude":-114.348683,"phone_number_service":"8886071560","phone_number_main":"9288550577","service_hours":"Mo-Fr 07:30 - 17:30 | Sa 07:30 - 16:00","utc_offset":"-420","gplace_id":null,"gplace_url":"https://maps.google.com/?cid=3431914774692452954","dealerID":68172,"trusted":false,"image_id":"v1597284079/chevy_ms.png","phone":"8886071560","cityStateSlug":"lake-havasu-city.az","slug":"Lake-Havasu-City.AZ/bradley+chevrolet","location":"34.494851,-114.348683","brandsList":["chevrolet"]},{"id":11719,"crm_id":67052698,"name":"Porsche of Tucson","dealerSlug":"porsche+of+tucson","city_state_slug":"Tucson.AZ","brand":"Porsche","website":"www.porscheoftucson.com","address":"4690 E 22nd St","city":"Tucson","state":"AZ","zip":85711,"latitude":32.206534,"longitude":-110.892753,"phone_number_service":"5204454059","phone_number_main":"5204454059","service_hours":"Mo-Fr 07:00 - 17:30","utc_offset":"-420","gplace_id":null,"gplace_url":"https://maps.google.com/?cid=10955322653770924888","dealerID":68389,"trusted":false,"image_id":"v1597283919/porsche.jpg","phone":"5204454059","cityStateSlug":"tucson.az","slug":"Tucson.AZ/porsche+of+tucson","location":"32.206534,-110.892753","brandsList":["porsche"]},{"id":11574,"crm_id":67052758,"name":"Planet Chrysler Dodge Jeep RAM FIAT of Flagstaff","dealerSlug":"planet+chrysler+dodge+jeep+ram+fiat+of+flagstaff","city_state_slug":"Flagstaff.AZ","brand":"Chrysler,Dodge,Jeep,RAM,Fiat","website":"www.planetchryslerdodgejeepram.com","address":"5190 N Test Dr","city":"Flagstaff","state":"AZ","zip":86004,"latitude":35.2245254,"longitude":-111.5685424,"phone_number_service":"9282252595","phone_number_main":"9282551498","service_hours":"Mo-Fr 07:30 - 18:00 | Sa 08:00 - 17:00","utc_offset":"-420","gplace_id":null,"gplace_url":"https://maps.google.com/?cid=6704447892123086708","dealerID":68403,"trusted":false,"image_id":"v1597283975/chrysler_RM.png","phone":"9282252595","cityStateSlug":"flagstaff.az","slug":"Flagstaff.AZ/planet+chrysler+dodge+jeep+ram+fiat+of+flagstaff","location":"35.2245254,-111.5685424","brandsList":["chrysler","dodge","jeep","ram","fiat"]},{"id":9270,"crm_id":67052809,"name":"Mark Mitsubishi","dealerSlug":"mark+mitsubishi","city_state_slug":"Phoenix.AZ","brand":"Mitsubishi","website":"www.markmitsubishiphoenix.com","address":"1901 E Bell Rd","city":"Phoenix","state":"AZ","zip":85022,"latitude":33.6400298,"longitude":-112.0417678,"phone_number_service":"6028923780","phone_number_main":"6028882840","service_hours":"Mo-Fr 07:30 - 18:00 | Sa 08:00 - 16:00","utc_offset":"-420","gplace_id":null,"gplace_url":"https://maps.google.com/?cid=3178589293043049383","dealerID":68418,"trusted":false,"image_id":"v1597283928/mitsubishi.png","phone":"6028923780","cityStateSlug":"phoenix.az","slug":"Phoenix.AZ/mark+mitsubishi","location":"33.6400298,-112.0417678","brandsList":["mitsubishi"]},{"id":7371,"crm_id":67053241,"name":"Jim Click Ford Green Valley","dealerSlug":"jim+click+ford+green+valley","city_state_slug":"Green-Valley.AZ","brand":"Ford","website":"www.jimclickfordgreenvalley.com","address":"1030 Duval Road.","city":"Green Valley","state":"AZ","zip":85614,"latitude":31.9002778,"longitude":-110.9872222,"phone_number_service":"5203204650","phone_number_main":"5206258262","service_hours":"Mo-Fr 07:00 - 18:00 | Sa 08:00 - 17:00","utc_offset":"-420","gplace_id":null,"gplace_url":"https://maps.google.com/?cid=15324984893203264142","dealerID":68539,"trusted":false,"image_id":"v1597283967/ford_RM.png","phone":"5203204650","cityStateSlug":"green-valley.az","slug":"Green-Valley.AZ/jim+click+ford+green+valley","location":"31.9002778,-110.9872222","brandsList":["ford"]},{"id":2789,"crm_id":67053748,"name":"Chapman BMW Chandler","dealerSlug":"chapman+bmw+chandler","city_state_slug":"Chandler.AZ","brand":"BMW","website":"www.chapmanbmwchandler.com","address":"7455 W Orchid Ln","city":"Chandler","state":"AZ","zip":85226,"latitude":33.3225544,"longitude":-111.9710355,"phone_number_service":"8884038902","phone_number_main":"4803444269","service_hours":"Mo-Fr 07:00 - 18:00 | Sa 08:00 - 17:00","utc_offset":"-420","gplace_id":null,"gplace_url":"https://maps.google.com/?cid=5383639256426772012","dealerID":51523,"trusted":true,"image_id":"v1597283982/bmw_RM.png","phone":"8884038902","cityStateSlug":"chandler.az","slug":"Chandler.AZ/chapman+bmw+chandler","location":"33.3225544,-111.9710355","brandsList":["bmw"]},{"id":7370,"crm_id":67053751,"name":"Jim Click Ford","dealerSlug":"jim+click+ford","city_state_slug":"Tucson.AZ","brand":"Ford","website":"www.jimclickford.com","address":"6244 E 22nd St","city":"Tucson","state":"AZ","zip":85711,"latitude":32.2059161,"longitude":-110.8590806,"phone_number_service":"5205707301","phone_number_main":"8667874416","service_hours":"Mo-Th 07:00 - 18:00 | Fr-Sa 07:00 - 17:00","utc_offset":"-420","gplace_id":null,"gplace_url":"https://maps.google.com/?cid=1226402700532044582","dealerID":68681,"trusted":false,"image_id":"v1597283967/ford_RM.png","phone":"5205707301","cityStateSlug":"tucson.az","slug":"Tucson.AZ/jim+click+ford","location":"32.2059161,-110.8590806","brandsList":["ford"]},{"id":7332,"crm_id":67053985,"name":"Jerry Seiner Chrysler Dodge Jeep RAM","dealerSlug":"jerry+seiner+chrysler+dodge+jeep+ram","city_state_slug":"Casa-Grande.AZ","brand":"Chrysler,Dodge,Jeep,RAM","website":"www.jerryseinerchryslercasagrande.com/","address":"1990 N Pinal Ave","city":"Casa Grande","state":"AZ","zip":85122,"latitude":32.9072,"longitude":-111.7571,"phone_number_service":"5208362147","phone_number_main":"5208362147","service_hours":"Mo-Fr 07:00 - 18:00 | Sa 07:00 - 13:00","utc_offset":"-420","gplace_id":null,"gplace_url":"https://maps.google.com/?cid=1097040510712603135","dealerID":68748,"trusted":false,"image_id":"v1597283975/chrysler_RM.png","phone":"5208362147","cityStateSlug":"casa-grande.az","slug":"Casa-Grande.AZ/jerry+seiner+chrysler+dodge+jeep+ram","location":"32.9072,-111.7571","brandsList":["chrysler","dodge","jeep","ram"]},{"id":6690,"crm_id":67054273,"name":"Horne Mazda","dealerSlug":"horne+mazda","city_state_slug":"Tempe.AZ","brand":"Mazda","website":"www.hornemazda.com","address":"7777 S Test Dr","city":"Tempe","state":"AZ","zip":85284,"latitude":33.34694,"longitude":-111.966173,"phone_number_service":"4804180805","phone_number_main":"4804053006","service_hours":"Mo-Fr 07:00-18:00 | Sa 08:00-16:00","utc_offset":"-420","gplace_id":null,"gplace_url":"https://maps.google.com/?cid=14957405854327219925","dealerID":68823,"trusted":false,"image_id":"v1597283937/mazda.png","phone":"4804180805","cityStateSlug":"tempe.az","slug":"Tempe.AZ/horne+mazda","location":"33.34694,-111.966173","brandsList":["mazda"]},{"id":3363,"crm_id":67054381,"name":"Coulter Buick GMC Tempe","dealerSlug":"coulter+buick+gmc+tempe","city_state_slug":"Tempe.AZ","brand":"Buick,GMC","website":"www.coultertempe.com","address":"7780 S. Autoplex Loop","city":"Tempe","state":"AZ","zip":85284,"latitude":33.3480463,"longitude":-111.9682655,"phone_number_service":"4803047458","phone_number_main":"4809406000","service_hours":"Mo-Fr 07:00 - 18:00 | Sa 08:00 - 15:00","utc_offset":"-420","gplace_id":null,"gplace_url":"https://maps.google.com/?cid=8024594290462466437","dealerID":68852,"trusted":false,"image_id":"v1597283981/buick_RM.png","phone":"4803047458","cityStateSlug":"tempe.az","slug":"Tempe.AZ/coulter+buick+gmc+tempe","location":"33.3480463,-111.9682655","brandsList":["buick","gmc"]},{"id":13802,"crm_id":67054840,"name":"Subaru Superstore of Chandler","dealerSlug":"subaru+superstore+of+chandler","city_state_slug":"Chandler.AZ","brand":"Subaru","website":"www.subarusuperstore.com","address":"1050 S Gilbert Rd","city":"Chandler","state":"AZ","zip":85286,"latitude":33.2903507,"longitude":-111.7917189,"phone_number_service":"8886216827","phone_number_main":"4802226000","service_hours":"Mo-Fr 07:00 - 18:00 | Sa 07:00 - 17:00","utc_offset":"-420","gplace_id":null,"gplace_url":"https://maps.google.com/?cid=10493932991925393457","dealerID":68983,"trusted":false,"image_id":"v1597283982/subaru_ms.png","phone":"8886216827","cityStateSlug":"chandler.az","slug":"Chandler.AZ/subaru+superstore+of+chandler","location":"33.2903507,-111.7917189","brandsList":["subaru"]},{"id":833,"crm_id":67054921,"name":"AutoNation Ford Scottsdale","dealerSlug":"autonation+ford+scottsdale","city_state_slug":"Scottsdale.AZ","brand":"Ford","website":"www.autonationfordscottsdale.com","address":"8555 E Frank Lloyd Wright Blvd # A","city":"Scottsdale","state":"AZ","zip":85260,"latitude":33.6311677,"longitude":-111.8966874,"phone_number_service":"4806302827","phone_number_main":"4806580388","service_hours":"Mo-Fr 07:00 - 19:00 | Sa 07:00 - 16:00","utc_offset":"-420","gplace_id":null,"gplace_url":"https://maps.google.com/?cid=7270621273932320750","dealerID":69005,"trusted":false,"image_id":"v1597283967/ford_RM.png","phone":"4806302827","cityStateSlug":"scottsdale.az","slug":"Scottsdale.AZ/autonation+ford+scottsdale","location":"33.6311677,-111.8966874","brandsList":["ford"]},{"id":8452,"crm_id":67055380,"name":"Larry H. Miller Hyundai Peoria","dealerSlug":"larry+h+miller+hyundai+peoria","city_state_slug":"Peoria.AZ","brand":"Hyundai","website":"www.larrymillerhyundai.com","address":"8425 W Bell Rd","city":"Peoria","state":"AZ","zip":85382,"latitude":33.6369402,"longitude":-112.2428861,"phone_number_service":"8665384651","phone_number_main":"4808653988","service_hours":"Mo-Fr 07:00 - 18:00 | Sa 07:00 - 16:00","utc_offset":"-420","gplace_id":null,"gplace_url":"https://maps.google.com/?cid=9355552364763258874","dealerID":69129,"trusted":false,"image_id":"v1597283959/hyundai_RM.png","phone":"8665384651","cityStateSlug":"peoria.az","slug":"Peoria.AZ/larry+h+miller+hyundai+peoria","location":"33.6369402,-112.2428861","brandsList":["hyundai"]},{"id":4843,"crm_id":67055482,"name":"Fisher Chrysler Dodge Jeep RAM","dealerSlug":"fisher+chrysler+dodge+jeep+ram","city_state_slug":"Yuma.AZ","brand":"Chrysler,Dodge,Jeep,RAM","website":"www.fisherchryslerdodgejeep.com","address":"349 E 32nd St","city":"Yuma","state":"AZ","zip":85365,"latitude":32.6686714,"longitude":-114.6183889,"phone_number_service":"8448177907","phone_number_main":"9283442650","service_hours":"Mo-Fr 07:00 - 17:30 | Sa 08:00 - 17:00","utc_offset":"-420","gplace_id":null,"gplace_url":"https://maps.google.com/?cid=16741328120183377201","dealerID":69162,"trusted":false,"image_id":"v1597283975/chrysler_RM.png","phone":"8448177907","cityStateSlug":"yuma.az","slug":"Yuma.AZ/fisher+chrysler+dodge+jeep+ram","location":"32.6686714,-114.6183889","brandsList":["chrysler","dodge","jeep","ram"]},{"id":4327,"crm_id":67055878,"name":"Earnhardt Ford","dealerSlug":"earnhardt+ford","city_state_slug":"Chandler.AZ","brand":"Ford","website":"www.earnhardtford.com","address":"7300 W Orchid Ln","city":"Chandler","state":"AZ","zip":85226,"latitude":33.3249364,"longitude":-111.9678605,"phone_number_service":"8337359305","phone_number_main":"4808930000","service_hours":"Mo-Fr 07:00 - 18:00 | Sa 07:00 - 16:00","utc_offset":"-420","gplace_id":null,"gplace_url":"https://maps.google.com/?cid=12090148235410840048","dealerID":69269,"trusted":false,"image_id":"v1597283967/ford_RM.png","phone":"8337359305","cityStateSlug":"chandler.az","slug":"Chandler.AZ/earnhardt+ford","location":"33.3249364,-111.9678605","brandsList":["ford"]},{"id":7992,"crm_id":67056052,"name":"Kingman Honda","dealerSlug":"kingman+honda","city_state_slug":"Kingman.AZ","brand":"Honda","website":"www.kingmanhonda.com/","address":"3800 N. Stockton Hill Road","city":"Kingman","state":"AZ","zip":86409,"latitude":35.233045,"longitude":-114.036254,"phone_number_service":"9286814041","phone_number_main":"9286814041","service_hours":"Mo-Sa 08:00 - 16:30","utc_offset":"-420","gplace_id":null,"gplace_url":"https://maps.google.com/?cid=7583802537938535125","dealerID":69307,"trusted":false,"image_id":"v1597284047/honda_ms.png","phone":"9286814041","cityStateSlug":"kingman.az","slug":"Kingman.AZ/kingman+honda","location":"35.233045,-114.036254","brandsList":["honda"]},{"id":8516,"crm_id":67057513,"name":"Lawley Kia","dealerSlug":"lawley+kia","city_state_slug":"Sierra-Vista.AZ","brand":"Kia","website":"www.lawleykia.com","address":"100 N Highway 90","city":"Sierra Vista","state":"AZ","zip":85635,"latitude":31.5558902,"longitude":-110.2582086,"phone_number_service":"5203336584","phone_number_main":"5202269560","service_hours":"Mo-Fr 07:00 - 18:00","utc_offset":"-420","gplace_id":null,"gplace_url":"https://maps.google.com/?cid=17669374340450812373","dealerID":69704,"trusted":false,"image_id":"v1597283948/kia_RM.png","phone":"5203336584","cityStateSlug":"sierra-vista.az","slug":"Sierra-Vista.AZ/lawley+kia","location":"31.5558902,-110.2582086","brandsList":["kia"]},{"id":8518,"crm_id":67057519,"name":"Lawley's Team Ford","dealerSlug":"lawleys+team+ford","city_state_slug":"Sierra-Vista.AZ","brand":"Ford","website":"www.lawleyteamford.com","address":"100 N Highway 90","city":"Sierra Vista","state":"AZ","zip":85635,"latitude":31.5558902,"longitude":-110.2582086,"phone_number_service":"5202264567","phone_number_main":"5204588140","service_hours":"Mo-Fr 07:00 - 18:00","utc_offset":"-420","gplace_id":null,"gplace_url":"https://maps.google.com/?cid=13146694957966761147","dealerID":69706,"trusted":false,"image_id":"v1597283967/ford_RM.png","phone":"5202264567","cityStateSlug":"sierra-vista.az","slug":"Sierra-Vista.AZ/lawleys+team+ford","location":"31.5558902,-110.2582086","brandsList":["ford"]},{"id":8513,"crm_id":67057534,"name":"Lawley Chrysler Dodge Jeep RAM","dealerSlug":"lawley+chrysler+dodge+jeep+ram","city_state_slug":"Sierra-Vista.AZ","brand":"Chrysler,Dodge,Jeep,RAM","website":"www.lawleychryslerdodgejeepram.com","address":"1901 S Highway 92","city":"Sierra Vista","state":"AZ","zip":85635,"latitude":31.5363803,"longitude":-110.2567168,"phone_number_service":"5202007039","phone_number_main":"5204588000","service_hours":"Mo-Fr 07:00 - 18:00 | Sa 07:00 - 12:00","utc_offset":"-420","gplace_id":null,"gplace_url":"https://maps.google.com/?cid=14043304097523014655","dealerID":69711,"trusted":false,"image_id":"v1597283975/chrysler_RM.png","phone":"5202007039","cityStateSlug":"sierra-vista.az","slug":"Sierra-Vista.AZ/lawley+chrysler+dodge+jeep+ram","location":"31.5363803,-110.2567168","brandsList":["chrysler","dodge","jeep","ram"]},{"id":8515,"crm_id":67057546,"name":"Lawley Hyundai","dealerSlug":"lawley+hyundai","city_state_slug":"Sierra-Vista.AZ","brand":"Hyundai","website":"www.lawleyhyundai.com","address":"2800 E Fry Blvd","city":"Sierra Vista","state":"AZ","zip":85635,"latitude":31.5542154,"longitude":-110.2708302,"phone_number_service":"5202269686","phone_number_main":"5204582141","service_hours":"Mo-Fr 07:00 - 18:00 | Sa 07:00 - 12:00","utc_offset":"-420","gplace_id":null,"gplace_url":"https://maps.google.com/?cid=9399331640069644241","dealerID":69714,"trusted":false,"image_id":"v1597283959/hyundai_RM.png","phone":"5202269686","cityStateSlug":"sierra-vista.az","slug":"Sierra-Vista.AZ/lawley+hyundai","location":"31.5542154,-110.2708302","brandsList":["hyundai"]},{"id":8517,"crm_id":67057552,"name":"Lawley Nissan","dealerSlug":"lawley+nissan","city_state_slug":"Sierra-Vista.AZ","brand":"Nissan","website":"www.lawleynissan.com","address":"2960 E Fry Blvd","city":"Sierra Vista","state":"AZ","zip":85635,"latitude":31.554148,"longitude":-110.2683974,"phone_number_service":"5202269080","phone_number_main":"5204592000","service_hours":"Mo-Fr 07:00 - 18:00 | Sa 07:00 - 12:00","utc_offset":"-420","gplace_id":null,"gplace_url":"https://maps.google.com/?cid=3325161821869062075","dealerID":69716,"trusted":false,"image_id":"v1597283926/nissan_RM.png","phone":"5202269080","cityStateSlug":"sierra-vista.az","slug":"Sierra-Vista.AZ/lawley+nissan","location":"31.554148,-110.2683974","brandsList":["nissan"]},{"id":8514,"crm_id":67057555,"name":"Lawley Honda","dealerSlug":"lawley+honda","city_state_slug":"Sierra-Vista.AZ","brand":"Honda","website":"www.lawleyhonda.com","address":"3200 E Fry Blvd","city":"Sierra Vista","state":"AZ","zip":85635,"latitude":31.5542473,"longitude":-110.2654386,"phone_number_service":"5202269338","phone_number_main":"5208001200","service_hours":"Mo-Fr 07:00 - 18:00 | Sa 07:00 - 12:00","utc_offset":"-420","gplace_id":null,"gplace_url":"https://maps.google.com/?cid=15408295322236471875","dealerID":69717,"trusted":false,"image_id":"v1597284047/honda_ms.png","phone":"5202269338","cityStateSlug":"sierra-vista.az","slug":"Sierra-Vista.AZ/lawley+honda","location":"31.5542473,-110.2654386","brandsList":["honda"]},{"id":8787,"crm_id":67057918,"name":"Liberty Buick","dealerSlug":"liberty+buick","city_state_slug":"Peoria.AZ","brand":"Buick","website":"www.libertybuick.com","address":"8737 W Bell Rd","city":"Peoria","state":"AZ","zip":85382,"latitude":33.6374285,"longitude":-112.2473812,"phone_number_service":"6237480841","phone_number_main":"4803591335","service_hours":"Mo-Fr 07:00 - 17:00 | Sa 07:00 - 13:00","utc_offset":"-420","gplace_id":null,"gplace_url":"https://maps.google.com/?cid=7467016327927969791","dealerID":69811,"trusted":false,"image_id":"v1597283981/buick_RM.png","phone":"6237480841","cityStateSlug":"peoria.az","slug":"Peoria.AZ/liberty+buick","location":"33.6374285,-112.2473812","brandsList":["buick"]},{"id":96,"crm_id":67058443,"name":"Acura of Tempe","dealerSlug":"acura+of+tempe","city_state_slug":"Tempe.AZ","brand":"Acura","website":"www.acuraoftempe.com","address":"7800 S Autoplex Loop","city":"Tempe","state":"AZ","zip":85284,"latitude":33.3467673,"longitude":-111.9704812,"phone_number_service":"4803445800","phone_number_main":"4803445800","service_hours":"Mo-Fr 07:00 - 17:00","utc_offset":"-420","gplace_id":null,"gplace_url":"https://maps.google.com/?cid=13293147455235403358","dealerID":69967,"trusted":false,"image_id":"v1597283988/acura.png","phone":"4803445800","cityStateSlug":"tempe.az","slug":"Tempe.AZ/acura+of+tempe","location":"33.3467673,-111.9704812","brandsList":["acura"]},{"id":6817,"crm_id":67058611,"name":"Hyundai of Cottonwood","dealerSlug":"hyundai+of+cottonwood","city_state_slug":"Cottonwood.AZ","brand":"Hyundai","website":"www.hyundaiofcottonwood.com","address":"2090 Rodeo Dr.","city":"Cottonwood","state":"AZ","zip":86326,"latitude":34.714385,"longitude":-112.0026914,"phone_number_service":"8669654114","phone_number_main":"9286342228","service_hours":"Mo-Fr 08:00 - 16:30","utc_offset":"-420","gplace_id":null,"gplace_url":"https://maps.google.com/?cid=15647874385466314329","dealerID":70015,"trusted":false,"image_id":"v1597283959/hyundai_RM.png","phone":"8669654114","cityStateSlug":"cottonwood.az","slug":"Cottonwood.AZ/hyundai+of+cottonwood","location":"34.714385,-112.0026914","brandsList":["hyundai"]},{"id":6536,"crm_id":67058644,"name":"Holmes Tuttle Ford","dealerSlug":"holmes+tuttle+ford","city_state_slug":"Tucson.AZ","brand":"Ford","website":"www.holmestuttle.com","address":"660 W Auto Mall Dr","city":"Tucson","state":"AZ","zip":85705,"latitude":32.2908333,"longitude":-110.9825,"phone_number_service":"5202923675","phone_number_main":"8669306255","service_hours":"Mo-Fr 07:00 - 18:00 | Sa 07:00 - 17:00","utc_offset":"-420","gplace_id":null,"gplace_url":"https://maps.google.com/?cid=13587622762803238872","dealerID":70025,"trusted":false,"image_id":"v1597283967/ford_RM.png","phone":"5202923675","cityStateSlug":"tucson.az","slug":"Tucson.AZ/holmes+tuttle+ford","location":"32.2908333,-110.9825","brandsList":["ford"]},{"id":1414,"crm_id":67059124,"name":"Bill Alexander Ford Lincoln","dealerSlug":"bill+alexander+ford+lincoln","city_state_slug":"Yuma.AZ","brand":"Ford,Lincoln,Mercury","website":"www.billalexanderford.com","address":"801 E 32nd St","city":"Yuma","state":"AZ","zip":85365,"latitude":32.6682447,"longitude":-114.6110326,"phone_number_service":"8884528376","phone_number_main":"9283442200","service_hours":"Mo-Fr 07:00 - 18:00 | Sa 07:00 - 16:00","utc_offset":"-420","gplace_id":null,"gplace_url":"https://maps.google.com/?cid=14392838646371453667","dealerID":70154,"trusted":false,"image_id":"v1597283967/ford_RM.png","phone":"8884528376","cityStateSlug":"yuma.az","slug":"Yuma.AZ/bill+alexander+ford+lincoln","location":"32.6682447,-114.6110326","brandsList":["ford","lincoln","mercury"]},{"id":2787,"crm_id":67060009,"name":"Chapman Acura","dealerSlug":"chapman+acura","city_state_slug":"Tucson.AZ","brand":"Acura","website":"www.chapmanacura.com","address":"4600 E 22nd St","city":"Tucson","state":"AZ","zip":85711,"latitude":32.2063193,"longitude":-110.8950607,"phone_number_service":"5204454061","phone_number_main":"5204454061","service_hours":"Mo-Fr 07:00 - 18:00 | Sa 08:00 - 16:00","utc_offset":"-420","gplace_id":null,"gplace_url":"https://maps.google.com/?cid=9680966372136781080","dealerID":70401,"trusted":false,"image_id":"v1597283988/acura.png","phone":"5204454061","cityStateSlug":"tucson.az","slug":"Tucson.AZ/chapman+acura","location":"32.2063193,-110.8950607","brandsList":["acura"]},{"id":12829,"crm_id":67060216,"name":"Sanderson Ford","dealerSlug":"sanderson+ford","city_state_slug":"Glendale.AZ","brand":"Ford","website":"www.sandersonford.com","address":"6400 N 51st Ave","city":"Glendale","state":"AZ","zip":85301,"latitude":33.53,"longitude":-112.1694444,"phone_number_service":"8005954838","phone_number_main":"8007293501","service_hours":"Mo-Fr 07:00 - 18:00 | Sa 07:00 - 15:00","utc_offset":"-420","gplace_id":null,"gplace_url":"https://maps.google.com/?cid=11960097246533100203","dealerID":70456,"trusted":false,"image_id":"v1597283967/ford_RM.png","phone":"8005954838","cityStateSlug":"glendale.az","slug":"Glendale.AZ/sanderson+ford","location":"33.53,-112.1694444","brandsList":["ford"]},{"id":7373,"crm_id":67060444,"name":"Jim Click Kia","dealerSlug":"jim+click+kia","city_state_slug":"Tucson.AZ","brand":"Kia","website":"www.jimclickkia.com","address":"775 W Wetmore Rd","city":"Tucson","state":"AZ","zip":85704,"latitude":32.2854163,"longitude":-110.9841316,"phone_number_service":"5205260018","phone_number_main":"8663764307","service_hours":"Mo-Fr 07:00 - 18:00 | Sa 07:00 - 17:00","utc_offset":"-420","gplace_id":null,"gplace_url":"https://maps.google.com/?cid=2954179353085963876","dealerID":70515,"trusted":false,"image_id":"v1597283948/kia_RM.png","phone":"5205260018","cityStateSlug":"tucson.az","slug":"Tucson.AZ/jim+click+kia","location":"32.2854163,-110.9841316","brandsList":["kia"]},{"id":8419,"crm_id":67060627,"name":"Larry Green Chevrolet","dealerSlug":"larry+green+chevrolet","city_state_slug":"Cottonwood.AZ","brand":"Chevrolet","website":"www.larrygreenchevrolet.com","address":"2050 RODEO DR","city":"Cottonwood","state":"AZ","zip":86326,"latitude":34.7150573,"longitude":-112.001527,"phone_number_service":"9282391308","phone_number_main":"9286342227","service_hours":"Mo-Fr 08:00 - 17:00 | Sa 08:00 - 13:00","utc_offset":"-420","gplace_id":null,"gplace_url":"https://maps.google.com/?cid=5057158671988265977","dealerID":70569,"trusted":false,"image_id":"v1597284079/chevy_ms.png","phone":"9282391308","cityStateSlug":"cottonwood.az","slug":"Cottonwood.AZ/larry+green+chevrolet","location":"34.7150573,-112.001527","brandsList":["chevrolet"]},{"id":7949,"crm_id":67061233,"name":"Kia Of Yuma","dealerSlug":"kia+of+yuma","city_state_slug":"Yuma.AZ","brand":"Kia","website":"www.kiaofyuma.com","address":"2841 S Pacific Ave","city":"Yuma","state":"AZ","zip":85365,"latitude":32.676209,"longitude":-114.598081,"phone_number_service":"9283141077","phone_number_main":"9283445345","service_hours":"Mo-Fr 07:00 - 18:00 | Sa 08:00 - 16:00","utc_offset":"-420","gplace_id":null,"gplace_url":"https://maps.google.com/?cid=10993971448295664160","dealerID":70747,"trusted":false,"image_id":"v1597283948/kia_RM.png","phone":"9283141077","cityStateSlug":"yuma.az","slug":"Yuma.AZ/kia+of+yuma","location":"32.676209,-114.598081","brandsList":["kia"]},{"id":2443,"crm_id":67077298,"name":"Camelback Ford","dealerSlug":"camelback+ford","city_state_slug":"Phoenix.AZ","brand":"Ford","website":"www.camelbackford.com","address":"1330 E Camelback Rd","city":"Phoenix","state":"AZ","zip":85014,"latitude":33.5098888,"longitude":-112.0527877,"phone_number_service":"8332884498","phone_number_main":"6026357551","service_hours":"Mo-Fr 07:00 - 18:00 | Sa 07:00 - 16:00","utc_offset":"-420","gplace_id":null,"gplace_url":"https://maps.google.com/?cid=11961931541076446348","dealerID":74245,"trusted":false,"image_id":"v1597283967/ford_RM.png","phone":"8332884498","cityStateSlug":"phoenix.az","slug":"Phoenix.AZ/camelback+ford","location":"33.5098888,-112.0527877","brandsList":["ford"]},{"id":2445,"crm_id":67077301,"name":"Camelback Subaru","dealerSlug":"camelback+subaru","city_state_slug":"Phoenix.AZ","brand":"Subaru","website":"www.camelbacksubaru.com","address":"1521 E Camelback Rd","city":"Phoenix","state":"AZ","zip":85014,"latitude":33.5082681,"longitude":-112.0491732,"phone_number_service":"8777629650","phone_number_main":"6023251548","service_hours":"Mo-Fr 07:00 - 18:00 | Sa 08:00 - 16:00","utc_offset":"-420","gplace_id":null,"gplace_url":"https://maps.google.com/?cid=12791481775752236954","dealerID":74246,"trusted":false,"image_id":"v1597283982/subaru_ms.png","phone":"8777629650","cityStateSlug":"phoenix.az","slug":"Phoenix.AZ/camelback+subaru","location":"33.5082681,-112.0491732","brandsList":["subaru"]},{"id":4332,"crm_id":67077304,"name":"Earnhardt Lexus","dealerSlug":"earnhardt+lexus","city_state_slug":"Phoenix.AZ","brand":"Lexus","website":"www.earnhardtlexus.com","address":"800 E Camelback Rd","city":"Phoenix","state":"AZ","zip":85014,"latitude":33.5093956,"longitude":-112.063356,"phone_number_service":"8338225593","phone_number_main":"4809907000","service_hours":"Mo-Fr 07:00 - 18:00 | Sa 07:00 - 16:00","utc_offset":"-420","gplace_id":null,"gplace_url":"https://maps.google.com/?cid=17675383716269063394","dealerID":74247,"trusted":false,"image_id":"v1597284042/lexus_ms.png","phone":"8338225593","cityStateSlug":"phoenix.az","slug":"Phoenix.AZ/earnhardt+lexus","location":"33.5093956,-112.063356","brandsList":["lexus"]},{"id":7144,"crm_id":67077307,"name":"Jaguar North Scottsdale","dealerSlug":"jaguar+north+scottsdale","city_state_slug":"Phoenix.AZ","brand":"Jaguar","website":"www.jaguarnorthscottsdale.com","address":"18100 N Scottsdale","city":"Phoenix","state":"AZ","zip":85054,"latitude":33.6502996,"longitude":-111.9262592,"phone_number_service":"8777046950","phone_number_main":"4804707406","service_hours":"Mo-Fr 07:00 - 18:00 | Sa 08:00 - 16:00","utc_offset":"-420","gplace_id":null,"gplace_url":"https://maps.google.com/?cid=6490164984734179526","dealerID":74248,"trusted":false,"image_id":"v1597283954/jaguar_RM.png","phone":"8777046950","cityStateSlug":"phoenix.az","slug":"Phoenix.AZ/jaguar+north+scottsdale","location":"33.6502996,-111.9262592","brandsList":["jaguar"]},{"id":8318,"crm_id":67077310,"name":"Land Rover North Scottsdale","dealerSlug":"land+rover+north+scottsdale","city_state_slug":"Phoenix.AZ","brand":"Land Rover","website":"www.landrovernorthscottsdale.com","address":"18100 N Scottsdale Rd","city":"Phoenix","state":"AZ","zip":85054,"latitude":33.6502996,"longitude":-111.9262592,"phone_number_service":"8777046950","phone_number_main":"4802073441","service_hours":"Mo-Fr 07:00 - 18:00 | Sa 08:00 - 16:00","utc_offset":"-420","gplace_id":null,"gplace_url":"https://maps.google.com/?cid=588676876940620413","dealerID":74249,"trusted":false,"image_id":"v1597283945/landrover_RM.png","phone":"8777046950","cityStateSlug":"phoenix.az","slug":"Phoenix.AZ/land+rover+north+scottsdale","location":"33.6502996,-111.9262592","brandsList":["land rover"]},{"id":12987,"crm_id":67077313,"name":"Scottsdale Ferrari","dealerSlug":"scottsdale+ferrari","city_state_slug":"Phoenix.AZ","brand":"Ferrari","website":"www.scottsdaleferrari.com","address":"18118 N Scottsdale Rd","city":"Phoenix","state":"AZ","zip":85054,"latitude":33.6504608,"longitude":-111.9262011,"phone_number_service":"8777041039","phone_number_main":"4804213800","service_hours":"Mo-Fr 07:30 - 18:00","utc_offset":"-420","gplace_id":null,"gplace_url":"https://maps.google.com/?cid=307555578305193784","dealerID":74250,"trusted":false,"image_id":"v2-motorsafety/assets/images/default-logo","phone":"8777041039","cityStateSlug":"phoenix.az","slug":"Phoenix.AZ/scottsdale+ferrari","location":"33.6504608,-111.9262011","brandsList":["ferrari"]},{"id":7628,"crm_id":67077316,"name":"Jones Ford Casa Grande","dealerSlug":"jones+ford+casa+grande","city_state_slug":"Casa-Grande.AZ","brand":"Ford","website":"www.jonesfordcasagrande.com","address":"1932 North Pinal Avenue","city":"Casa Grande","state":"AZ","zip":85122,"latitude":32.906083,"longitude":-111.7560438,"phone_number_service":"8883784954","phone_number_main":"5208363100","service_hours":"Mo-Fr 07:30 - 18:00 | Sa 07:30 - 13:00","utc_offset":"-420","gplace_id":null,"gplace_url":"https://maps.google.com/?cid=9355813300620566485","dealerID":74251,"trusted":false,"image_id":"v1597283967/ford_RM.png","phone":"8883784954","cityStateSlug":"casa-grande.az","slug":"Casa-Grande.AZ/jones+ford+casa+grande","location":"32.906083,-111.7560438","brandsList":["ford"]},{"id":6305,"crm_id":67077319,"name":"Henry Brown Chevrolet","dealerSlug":"henry+brown+chevrolet","city_state_slug":"Casa-Grande.AZ","brand":"Chevrolet","website":"www.henrybrownchevy.com","address":"1990 N Pinal Ave","city":"Casa Grande","state":"AZ","zip":85122,"latitude":32.9077947,"longitude":-111.7561204,"phone_number_service":"5202269725","phone_number_main":"5208362147","service_hours":"Mo-Fr 07:00 - 18:00 | Sa 07:00 - 13:00","utc_offset":"-420","gplace_id":null,"gplace_url":"https://maps.google.com/?cid=1202873914303965197","dealerID":74252,"trusted":false,"image_id":"v1597284079/chevy_ms.png","phone":"5202269725","cityStateSlug":"casa-grande.az","slug":"Casa-Grande.AZ/henry+brown+chevrolet","location":"32.9077947,-111.7561204","brandsList":["chevrolet"]},{"id":8461,"crm_id":67077322,"name":"Larry H. Miller Nissan Mesa","dealerSlug":"larry+h+miller+nissan+mesa","city_state_slug":"Mesa.AZ","brand":"Nissan","website":"www.lhmnissanmesa.com","address":"2025 Riverview Auto Dr","city":"Mesa","state":"AZ","zip":85201,"latitude":33.4342281,"longitude":-111.8716335,"phone_number_service":"8665432595","phone_number_main":"4808653989","service_hours":"Mo-Fr 07:00 - 18:00 | Sa 07:00 - 16:00","utc_offset":"-420","gplace_id":null,"gplace_url":"https://maps.google.com/?cid=14373903060332381188","dealerID":74253,"trusted":false,"image_id":"v1597283926/nissan_RM.png","phone":"8665432595","cityStateSlug":"mesa.az","slug":"Mesa.AZ/larry+h+miller+nissan+mesa","location":"33.4342281,-111.8716335","brandsList":["nissan"]},{"id":3392,"crm_id":67077325,"name":"Courtesy CDJR of Superstition Springs","dealerSlug":"courtesy+cdjr+of+superstition+springs","city_state_slug":"Mesa.AZ","brand":"Chrysler,Dodge,Jeep,RAM","website":"www.courtesychryslerdodgeramsuperstitionsprings.com","address":"6130 E Auto Park Dr","city":"Mesa","state":"AZ","zip":85206,"latitude":33.3904645,"longitude":-111.6990039,"phone_number_service":"4809367871","phone_number_main":"4805655627","service_hours":"Mo-Fr 07:00 - 18:00 | Sa 07:00 - 17:00","utc_offset":"-420","gplace_id":null,"gplace_url":"https://maps.google.com/?cid=3216663009481909561","dealerID":74254,"trusted":false,"image_id":"v1597283975/chrysler_RM.png","phone":"4809367871","cityStateSlug":"mesa.az","slug":"Mesa.AZ/courtesy+cdjr+of+superstition+springs","location":"33.3904645,-111.6990039","brandsList":["chrysler","dodge","jeep","ram"]},{"id":4335,"crm_id":67077328,"name":"Earnhardt Toyota","dealerSlug":"earnhardt+toyota","city_state_slug":"Mesa.AZ","brand":"Toyota","website":"www.earnhardttoyota.com","address":"6136 E Auto Loop Ave","city":"Mesa","state":"AZ","zip":85206,"latitude":33.388444,"longitude":-111.6992576,"phone_number_service":"4803254100","phone_number_main":"4808079700","service_hours":"Mo-Sa 07:00 - 18:00","utc_offset":"-420","gplace_id":null,"gplace_url":"https://maps.google.com/?cid=3057658325262549680","dealerID":74255,"trusted":false,"image_id":"v1597284039/toyota_ms.png","phone":"4803254100","cityStateSlug":"mesa.az","slug":"Mesa.AZ/earnhardt+toyota","location":"33.388444,-111.6992576","brandsList":["toyota"]},{"id":3366,"crm_id":67077337,"name":"Coulter INFINITI","dealerSlug":"coulter+infiniti","city_state_slug":"Mesa.AZ","brand":"INFINITI","website":"www.coulterinfiniti.com","address":"6225 E Test Dr","city":"Mesa","state":"AZ","zip":85206,"latitude":33.3845296,"longitude":-111.6965784,"phone_number_service":"4805258127","phone_number_main":"4809992695","service_hours":"Mo-Fr 07:00 - 18:00 | Sa 08:00 - 16:00","utc_offset":"-420","gplace_id":null,"gplace_url":"https://maps.google.com/?cid=15477508430811946128","dealerID":74256,"trusted":false,"image_id":"v1597283957/infiniti_RM.png","phone":"4805258127","cityStateSlug":"mesa.az","slug":"Mesa.AZ/coulter+infiniti","location":"33.3845296,-111.6965784","brandsList":["infiniti"]},{"id":4352,"crm_id":67077340,"name":"East Valley Nissan","dealerSlug":"east+valley+nissan","city_state_slug":"Mesa.AZ","brand":"Nissan","website":"www.eastvalleynissan.com","address":"6354 E Test Dr","city":"Mesa","state":"AZ","zip":85206,"latitude":33.3853712,"longitude":-111.6949049,"phone_number_service":"4802957188","phone_number_main":"4803248800","service_hours":"Mo-Fr 07:00 - 18:00 | Sa 07:00 - 16:30","utc_offset":"-420","gplace_id":null,"gplace_url":"https://maps.google.com/?cid=8253069720212130892","dealerID":74257,"trusted":false,"image_id":"v1597283926/nissan_RM.png","phone":"4802957188","cityStateSlug":"mesa.az","slug":"Mesa.AZ/east+valley+nissan","location":"33.3853712,-111.6949049","brandsList":["nissan"]},{"id":9698,"crm_id":67077343,"name":"Mercedes-Benz of Chandler","dealerSlug":"mercedes+benz+of+chandler","city_state_slug":"Chandler.AZ","brand":"Mercedes-Benz","website":"www.mercedesbenzofchandler.com","address":"7450 W Orchid Ln","city":"Chandler","state":"AZ","zip":85226,"latitude":33.3252945,"longitude":-111.9699483,"phone_number_service":"8663066308","phone_number_main":"4804708687","service_hours":"Mo-Fr 07:00 - 18:00 | Sa 08:00 - 13:00","utc_offset":"-420","gplace_id":null,"gplace_url":"https://maps.google.com/?cid=7382437771704043611","dealerID":74258,"trusted":false,"image_id":"v1597283934/mercedes_RM.png","phone":"8663066308","cityStateSlug":"chandler.az","slug":"Chandler.AZ/mercedes+benz+of+chandler","location":"33.3252945,-111.9699483","brandsList":["mercedes-benz"]},{"id":890,"crm_id":67077349,"name":"AutoNation Subaru Scottsdale","dealerSlug":"autonation+subaru+scottsdale","city_state_slug":"Scottsdale.AZ","brand":"Subaru","website":"www.autonationsubaruscottsdale.com","address":"15678 N Northsight Blvd","city":"Scottsdale","state":"AZ","zip":85260,"latitude":33.6299438,"longitude":-111.8982238,"phone_number_service":"8448803276","phone_number_main":"4804203440","service_hours":"Mo-Fr 07:00 - 19:00 | Sa 07:00 - 16:00","utc_offset":"-420","gplace_id":null,"gplace_url":"https://maps.google.com/?cid=17640847629166207685","dealerID":74259,"trusted":false,"image_id":"v1597283982/subaru_ms.png","phone":"8448803276","cityStateSlug":"scottsdale.az","slug":"Scottsdale.AZ/autonation+subaru+scottsdale","location":"33.6299438,-111.8982238","brandsList":["subaru"]},{"id":2791,"crm_id":67077355,"name":"Chapman Chevrolet","dealerSlug":"chapman+chevrolet","city_state_slug":"Tempe.AZ","brand":"Chevrolet","website":"www.chapmanchevy.com","address":"1717 E Baseline Rd","city":"Tempe","state":"AZ","zip":85283,"latitude":33.3781087,"longitude":-111.9099205,"phone_number_service":"8886006712","phone_number_main":"4808381234","service_hours":"Mo-Fr 07:00 - 18:00 | Sa 07:00 - 17:00","utc_offset":"-420","gplace_id":null,"gplace_url":"https://maps.google.com/?cid=9802307141650632601","dealerID":74260,"trusted":false,"image_id":"v1597284079/chevy_ms.png","phone":"8886006712","cityStateSlug":"tempe.az","slug":"Tempe.AZ/chapman+chevrolet","location":"33.3781087,-111.9099205","brandsList":["chevrolet"]},{"id":909,"crm_id":67077358,"name":"AutoNation Toyota Tempe","dealerSlug":"autonation+toyota+tempe","city_state_slug":"Tempe.AZ","brand":"Toyota,Scion","website":"www.autonationtoyotatempe.com","address":"7970 S Autoplex Loop","city":"Tempe","state":"AZ","zip":85284,"latitude":33.3444728,"longitude":-111.9703287,"phone_number_service":"4804203425","phone_number_main":"4804203425","service_hours":"Mo-Fr 07:00 - 19:00 | Sa 07:00 - 16:00","utc_offset":"-420","gplace_id":null,"gplace_url":"https://maps.google.com/?cid=10616028853990569222","dealerID":74261,"trusted":false,"image_id":"v1597284039/toyota_ms.png","phone":"4804203425","cityStateSlug":"tempe.az","slug":"Tempe.AZ/autonation+toyota+tempe","location":"33.3444728,-111.9703287","brandsList":["toyota","scion"]},{"id":941,"crm_id":67077364,"name":"Avondale Toyota","dealerSlug":"avondale+toyota","city_state_slug":"Avondale.AZ","brand":"Toyota","website":"www.avondaletoyota.com","address":"10005 W Papago Fwy","city":"Avondale","state":"AZ","zip":85323,"latitude":33.459781,"longitude":-112.27618,"phone_number_service":"8445284833","phone_number_main":"8775546890","service_hours":"Mo-Fr 07:00 - 18:00 | Sa 07:00 - 16:00","utc_offset":"-420","gplace_id":null,"gplace_url":"https://maps.google.com/?cid=6628792306588022996","dealerID":51001,"trusted":true,"image_id":"v1597284039/toyota_ms.png","phone":"8445284833","cityStateSlug":"avondale.az","slug":"Avondale.AZ/avondale+toyota","location":"33.459781,-112.27618","brandsList":["toyota"]},{"id":8427,"crm_id":67077367,"name":"Larry H. Miller Chrysler Jeep Avondale","dealerSlug":"larry+h+miller+chrysler+jeep+avondale","city_state_slug":"Avondale.AZ","brand":"Chrysler,Jeep","website":"www.larrymillerchryslerjeepavondale.com","address":"10055 W. Papago Freeway","city":"Avondale","state":"AZ","zip":85323,"latitude":33.4596196,"longitude":-112.2778005,"phone_number_service":"8774416927","phone_number_main":"4808653981","service_hours":"Mo-Fr 07:00 - 18:00 | Sa 07:00 - 16:00","utc_offset":"-420","gplace_id":null,"gplace_url":"https://maps.google.com/?cid=580292789749937747","dealerID":74263,"trusted":false,"image_id":"v1597283975/chrysler_RM.png","phone":"8774416927","cityStateSlug":"avondale.az","slug":"Avondale.AZ/larry+h+miller+chrysler+jeep+avondale","location":"33.4596196,-112.2778005","brandsList":["chrysler","jeep"]},{"id":4329,"crm_id":67077370,"name":"Earnhardt Hyundai","dealerSlug":"earnhardt+hyundai","city_state_slug":"Avondale.AZ","brand":"Hyundai","website":"www.earnhardthyundai.com","address":"10401 Papago Fwy","city":"Avondale","state":"AZ","zip":85323,"latitude":33.4596594,"longitude":-112.2855266,"phone_number_service":"8333310184","phone_number_main":"6233885800","service_hours":"Mo-Fr 07:00 - 18:00 | Sa 07:00 - 16:00","utc_offset":"-420","gplace_id":null,"gplace_url":"https://maps.google.com/?cid=2320117680288187806","dealerID":74264,"trusted":false,"image_id":"v1597283959/hyundai_RM.png","phone":"8333310184","cityStateSlug":"avondale.az","slug":"Avondale.AZ/earnhardt+hyundai","location":"33.4596594,-112.2855266","brandsList":["hyundai"]},{"id":1415,"crm_id":67077373,"name":"Bill Alexander's Flightline Mazda","dealerSlug":"bill+alexanders+flightline+mazda","city_state_slug":"Yuma.AZ","brand":"Mazda","website":"www.flightlinemazda.com","address":"1350 E 32nd St","city":"Yuma","state":"AZ","zip":85365,"latitude":32.6701078,"longitude":-114.6060659,"phone_number_service":"8669495751","phone_number_main":"9283143400","service_hours":"Mo-Fr 07:00 - 18:00 | Sa 07:00 - 15:00","utc_offset":"-420","gplace_id":null,"gplace_url":"https://maps.google.com/?cid=17246769434458438870","dealerID":74265,"trusted":false,"image_id":"v1597283937/mazda.png","phone":"8669495751","cityStateSlug":"yuma.az","slug":"Yuma.AZ/bill+alexanders+flightline+mazda","location":"32.6701078,-114.6060659","brandsList":["mazda"]},{"id":11393,"crm_id":67077376,"name":"Peoria Subaru","dealerSlug":"peoria+subaru","city_state_slug":"Peoria.AZ","brand":"Subaru","website":"www.peoriasubaru.com","address":"8590 W Bell Rd","city":"Peoria","state":"AZ","zip":85382,"latitude":33.6389236,"longitude":-112.2434769,"phone_number_service":"8884360761","phone_number_main":"6232320086","service_hours":"Mo-Fr 07:00 - 18:00 | Sa 07:00 - 17:00","utc_offset":"-420","gplace_id":null,"gplace_url":"https://maps.google.com/?cid=8691432389130670924","dealerID":74266,"trusted":false,"image_id":"v1597283982/subaru_ms.png","phone":"8884360761","cityStateSlug":"peoria.az","slug":"Peoria.AZ/peoria+subaru","location":"33.6389236,-112.2434769","brandsList":["subaru"]},{"id":10295,"crm_id":67077379,"name":"Moore Chrysler Jeep Fiat","dealerSlug":"moore+chrysler+jeep+fiat","city_state_slug":"Peoria.AZ","brand":"Chrysler,Jeep,Fiat","website":"www.mooreauto.com","address":"8600 W Bell Rd","city":"Peoria","state":"AZ","zip":85382,"latitude":33.638889,"longitude":-112.244205,"phone_number_service":"8773099992","phone_number_main":"8007570140","service_hours":"Mo-Fr 07:00 - 18:00 | Sa 07:00 - 17:00","utc_offset":"-420","gplace_id":null,"gplace_url":"https://maps.google.com/?cid=9381281165945278444","dealerID":74267,"trusted":false,"image_id":"v1597283975/chrysler_RM.png","phone":"8773099992","cityStateSlug":"peoria.az","slug":"Peoria.AZ/moore+chrysler+jeep+fiat","location":"33.638889,-112.244205","brandsList":["chrysler","jeep","fiat"]},{"id":8472,"crm_id":67077382,"name":"Larry H. Miller Toyota Peoria","dealerSlug":"larry+h+miller+toyota+peoria","city_state_slug":"Peoria.AZ","brand":"Toyota","website":"www.larrymillertoyota.com","address":"8633 W Bell Rd","city":"Peoria","state":"AZ","zip":85382,"latitude":33.6373621,"longitude":-112.2442002,"phone_number_service":"8339150505","phone_number_main":"4808653990","service_hours":"Mo-Fr 07:00 - 18:00 | Sa 07:00 - 17:00","utc_offset":"-420","gplace_id":null,"gplace_url":"https://maps.google.com/?cid=8157074526512380642","dealerID":74268,"trusted":false,"image_id":"v1597284039/toyota_ms.png","phone":"8339150505","cityStateSlug":"peoria.az","slug":"Peoria.AZ/larry+h+miller+toyota+peoria","location":"33.6373621,-112.2442002","brandsList":["toyota"]},{"id":8438,"crm_id":67077385,"name":"Larry H. Miller Dodge RAM Peoria","dealerSlug":"larry+h+miller+dodge+ram+peoria","city_state_slug":"Peoria.AZ","brand":"Dodge,RAM","website":"www.larrymillerdodge.com","address":"8665 W Bell Rd","city":"Peoria","state":"AZ","zip":85382,"latitude":33.6371261,"longitude":-112.2454457,"phone_number_service":"6234329863","phone_number_main":"4808653986","service_hours":"Mo-Fr 07:00 - 18:00 | Sa 07:00 - 16:00","utc_offset":"-420","gplace_id":null,"gplace_url":"https://maps.google.com/?cid=11687690715750860680","dealerID":74269,"trusted":false,"image_id":"v1597283974/dodge.png","phone":"6234329863","cityStateSlug":"peoria.az","slug":"Peoria.AZ/larry+h+miller+dodge+ram+peoria","location":"33.6371261,-112.2454457","brandsList":["dodge","ram"]},{"id":9674,"crm_id":67077388,"name":"Mercedes-Benz of Arrowhead","dealerSlug":"mercedes+benz+of+arrowhead","city_state_slug":"Peoria.AZ","brand":"Mercedes-Benz","website":"www.arrowheadmb.com","address":"9260 W Bell Rd","city":"Peoria","state":"AZ","zip":85382,"latitude":33.639331,"longitude":-112.258527,"phone_number_service":"6238153900","phone_number_main":"6238153900","service_hours":"Mo-Fr 07:30 - 18:00 | Sa 08:00 - 12:00","utc_offset":"-420","gplace_id":null,"gplace_url":"https://maps.google.com/?cid=2870002978303748191","dealerID":74270,"trusted":false,"image_id":"v1597283934/mercedes_RM.png","phone":"6238153900","cityStateSlug":"peoria.az","slug":"Peoria.AZ/mercedes+benz+of+arrowhead","location":"33.639331,-112.258527","brandsList":["mercedes-benz"]},{"id":3367,"crm_id":67077391,"name":"Coulter Nissan","dealerSlug":"coulter+nissan","city_state_slug":"Surprise.AZ","brand":"Nissan","website":"www.coulternissan.com","address":"13301 N Autoshow Ave","city":"Surprise","state":"AZ","zip":85388,"latitude":33.6053425,"longitude":-112.4201477,"phone_number_service":"6232079168","phone_number_main":"6027484842","service_hours":"Mo-Fr 07:00 - 18:00 | Sa 07:00 - 17:00","utc_offset":"-420","gplace_id":null,"gplace_url":"https://maps.google.com/?cid=1191599596653722270","dealerID":74271,"trusted":false,"image_id":"v1597283926/nissan_RM.png","phone":"6232079168","cityStateSlug":"surprise.az","slug":"Surprise.AZ/coulter+nissan","location":"33.6053425,-112.4201477","brandsList":["nissan"]},{"id":7629,"crm_id":67077394,"name":"Jones Ford Wickenburg","dealerSlug":"jones+ford+wickenburg","city_state_slug":"Wickenburg.AZ","brand":"Ford","website":"www.jonesfordwickenburg.com","address":"555 E. Wickenburg Way Suite A","city":"Wickenburg","state":"AZ","zip":85390,"latitude":33.9680437,"longitude":-112.7214973,"phone_number_service":"8885047086","phone_number_main":"6022581611","service_hours":"Mo-Fr 08:00 - 17:00 | Sa 08:00- 15:00","utc_offset":"-420","gplace_id":null,"gplace_url":"https://maps.google.com/?cid=6910324948238606919","dealerID":74272,"trusted":false,"image_id":"v1597283967/ford_RM.png","phone":"8885047086","cityStateSlug":"wickenburg.az","slug":"Wickenburg.AZ/jones+ford+wickenburg","location":"33.9680437,-112.7214973","brandsList":["ford"]},{"id":9604,"crm_id":67077397,"name":"Mcspadden Ford","dealerSlug":"mcspadden+ford","city_state_slug":"Globe.AZ","brand":"Ford","website":"www.mcspaddenfordlincoln.com","address":"601 N Broad St","city":"Globe","state":"AZ","zip":85501,"latitude":33.40092,"longitude":-110.7907458,"phone_number_service":"8887206005","phone_number_main":"","service_hours":"Mo-Fr 08:00 - 17:30 | Sa 08:00 - 14:00","utc_offset":"-420","gplace_id":null,"gplace_url":"https://maps.google.com/?cid=14935677598315227986","dealerID":74273,"trusted":false,"image_id":"v1597283967/ford_RM.png","phone":"8887206005","cityStateSlug":"globe.az","slug":"Globe.AZ/mcspadden+ford","location":"33.40092,-110.7907458","brandsList":["ford"]},{"id":7771,"crm_id":67077406,"name":"Kempton Chevrolet Buick","dealerSlug":"kempton+chevrolet+buick","city_state_slug":"Safford.AZ","brand":"Buick,Chevrolet","website":"www.kemptonchevrolet.com","address":"715 W 5th St","city":"Safford","state":"AZ","zip":85546,"latitude":32.8339352,"longitude":-109.7152093,"phone_number_service":"8772233760","phone_number_main":"9284280252","service_hours":"Mo-Fr 07:00 - 17:30 | Sa 08:00 - 14:00","utc_offset":"-420","gplace_id":null,"gplace_url":"https://maps.google.com/?cid=13029688360320278603","dealerID":74274,"trusted":false,"image_id":"v1597283981/buick_RM.png","phone":"8772233760","cityStateSlug":"safford.az","slug":"Safford.AZ/kempton+chevrolet+buick","location":"32.8339352,-109.7152093","brandsList":["buick","chevrolet"]},{"id":3508,"crm_id":67077409,"name":"Cropper's Nogales Auto Center","dealerSlug":"croppers+nogales+auto+center","city_state_slug":"Nogales.AZ","brand":"Buick,Chevrolet","website":"www.croppercare.com","address":"1831 N Grand Ave","city":"Nogales","state":"AZ","zip":85621,"latitude":31.365162,"longitude":-110.9317323,"phone_number_service":"5203759011","phone_number_main":"5207626446","service_hours":"Mo-Fr 07:30 - 17:30 | Sa 09:00 - 13:00","utc_offset":"-420","gplace_id":null,"gplace_url":"https://maps.google.com/?cid=18146627784334948672","dealerID":74275,"trusted":false,"image_id":"v1597283981/buick_RM.png","phone":"5203759011","cityStateSlug":"nogales.az","slug":"Nogales.AZ/croppers+nogales+auto+center","location":"31.365162,-110.9317323","brandsList":["buick","chevrolet"]},{"id":11012,"crm_id":67077412,"name":"Oracle Ford","dealerSlug":"oracle+ford","city_state_slug":"Oracle.AZ","brand":"Ford","website":"www.oracleford.com","address":"3950 AZ-77","city":"Oracle","state":"AZ","zip":85623,"latitude":32.6184899,"longitude":-110.8162696,"phone_number_service":"8553365898","phone_number_main":"5208183673","service_hours":"Mo-Fr 07:00 - 17:30","utc_offset":"-420","gplace_id":null,"gplace_url":"https://maps.google.com/?cid=7466431374902799262","dealerID":74276,"trusted":false,"image_id":"v1597283967/ford_RM.png","phone":"8553365898","cityStateSlug":"oracle.az","slug":"Oracle.AZ/oracle+ford","location":"32.6184899,-110.8162696","brandsList":["ford"]},{"id":8754,"crm_id":67077418,"name":"Lexus of Tucson Automall","dealerSlug":"lexus+of+tucson+automall","city_state_slug":"Tucson.AZ","brand":"Lexus","website":"www.lexusoftucsonautomall.com","address":"4670 Circuit Rd","city":"Tucson","state":"AZ","zip":85705,"latitude":32.291867,"longitude":-110.981011,"phone_number_service":"5206962800","phone_number_main":"5204770561","service_hours":"Mo-Fr 07:00 - 17:30 | Sa 08:00 - 15:00","utc_offset":"-420","gplace_id":null,"gplace_url":"https://maps.google.com/?cid=10649120705726542766","dealerID":74277,"trusted":false,"image_id":"v1597284042/lexus_ms.png","phone":"5206962800","cityStateSlug":"tucson.az","slug":"Tucson.AZ/lexus+of+tucson+automall","location":"32.291867,-110.981011","brandsList":["lexus"]},{"id":12665,"crm_id":67077421,"name":"Royal Jaguar Tucson","dealerSlug":"royal+jaguar+tucson","city_state_slug":"Tucson.AZ","brand":"Jaguar","website":"www.royaljaguar.com","address":"4670 N Circuit Rd Ste 2","city":"Tucson","state":"AZ","zip":85705,"latitude":32.2911799,"longitude":-110.9809289,"phone_number_service":"5204770572","phone_number_main":"5204770572","service_hours":"Mo-Fr 07:00 - 17:30 | Sa 08:00 - 15:00","utc_offset":"-420","gplace_id":null,"gplace_url":"https://maps.google.com/?cid=10096602959883473320","dealerID":74278,"trusted":false,"image_id":"v1597283954/jaguar_RM.png","phone":"5204770572","cityStateSlug":"tucson.az","slug":"Tucson.AZ/royal+jaguar+tucson","location":"32.2911799,-110.9809289","brandsList":["jaguar"]},{"id":6953,"crm_id":67077424,"name":"INFINITI of Tucson","dealerSlug":"infiniti+of+tucson","city_state_slug":"Tucson.AZ","brand":"INFINITI","website":"www.infinitioftucson.com","address":"625 W Auto Mall Dr","city":"Tucson","state":"AZ","zip":85705,"latitude":32.2893121,"longitude":-110.9831054,"phone_number_service":"5206000962","phone_number_main":"5206901500","service_hours":"Mo-Fr 07:00 - 18:00","utc_offset":"-420","gplace_id":null,"gplace_url":"https://maps.google.com/?cid=10188443086081936371","dealerID":74279,"trusted":false,"image_id":"v1597283957/infiniti_RM.png","phone":"5206000962","cityStateSlug":"tucson.az","slug":"Tucson.AZ/infiniti+of+tucson","location":"32.2893121,-110.9831054","brandsList":["infiniti"]},{"id":15276,"crm_id":67077427,"name":"Watson Chevrolet","dealerSlug":"watson+chevrolet","city_state_slug":"Tucson.AZ","brand":"Chevrolet","website":"www.watsonchevrolet.com","address":"625 W Auto Mall Dr","city":"Tucson","state":"AZ","zip":85705,"latitude":32.2895434,"longitude":-110.9821213,"phone_number_service":"5204414947","phone_number_main":"5207779425","service_hours":"Mo-Fr 07:00 - 19:00 | Sa 08:30 - 15:30","utc_offset":"-420","gplace_id":null,"gplace_url":"https://maps.google.com/?cid=17698308432342142785","dealerID":74280,"trusted":false,"image_id":"v1597284079/chevy_ms.png","phone":"5204414947","cityStateSlug":"tucson.az","slug":"Tucson.AZ/watson+chevrolet","location":"32.2895434,-110.9821213","brandsList":["chevrolet"]},{"id":7374,"crm_id":67077430,"name":"Jim Click Mazda Auto Mall","dealerSlug":"jim+click+mazda+auto+mall","city_state_slug":"Tucson.AZ","brand":"Mazda","website":"www.jimclickmazdaautomall.com","address":"700 W Auto Mall Dr","city":"Tucson","state":"AZ","zip":85705,"latitude":32.2902727,"longitude":-110.9843051,"phone_number_service":"5203405199","phone_number_main":"5204074850","service_hours":"Mo-Fr 07:00 - 18:00 | Sa 07:00 - 17:00","utc_offset":"-420","gplace_id":null,"gplace_url":"https://maps.google.com/?cid=17886548186810334086","dealerID":74281,"trusted":false,"image_id":"v1597283937/mazda.png","phone":"5203405199","cityStateSlug":"tucson.az","slug":"Tucson.AZ/jim+click+mazda+auto+mall","location":"32.2902727,-110.9843051","brandsList":["mazda"]},{"id":8439,"crm_id":67077433,"name":"Larry H. Miller Dodge RAM Tucson","dealerSlug":"larry+h+miller+dodge+ram+tucson","city_state_slug":"Tucson.AZ","brand":"Dodge,RAM","website":"www.larrymillerdodgeramtucson.com","address":"4220 E 22nd St","city":"Tucson","state":"AZ","zip":85711,"latitude":32.2056769,"longitude":-110.9019274,"phone_number_service":"5208150120","phone_number_main":"5203959311","service_hours":"Mo-Fr 07:00 - 18:00 | Sa 07:00 - 17:00","utc_offset":"-420","gplace_id":null,"gplace_url":"https://maps.google.com/?cid=7823825126257745524","dealerID":74282,"trusted":false,"image_id":"v1597283974/dodge.png","phone":"5208150120","cityStateSlug":"tucson.az","slug":"Tucson.AZ/larry+h+miller+dodge+ram+tucson","location":"32.2056769,-110.9019274","brandsList":["dodge","ram"]},{"id":2808,"crm_id":67077436,"name":"Chapman Volkswagen of Tucson","dealerSlug":"chapman+volkswagen+of+tucson","city_state_slug":"Tucson.AZ","brand":"Volkswagen","website":"www.tucsonvw.com","address":"4500 E 22nd St","city":"Tucson","state":"AZ","zip":85711,"latitude":32.2065247,"longitude":-110.8960206,"phone_number_service":"5204454090","phone_number_main":"5204454090","service_hours":"Mo-Fr 07:00 - 18:00 | Sa 08:00 - 16:00","utc_offset":"-420","gplace_id":null,"gplace_url":"https://maps.google.com/?cid=5470945223121382743","dealerID":74283,"trusted":false,"image_id":"v1597283902/volkswagen.png","phone":"5204454090","cityStateSlug":"tucson.az","slug":"Tucson.AZ/chapman+volkswagen+of+tucson","location":"32.2065247,-110.8960206","brandsList":["volkswagen"]},{"id":14233,"crm_id":67077439,"name":"Thoroughbred Nissan","dealerSlug":"thoroughbred+nissan","city_state_slug":"Tucson.AZ","brand":"Nissan","website":"www.tucsonnissan.com","address":"5163 22nd St","city":"Tucson","state":"AZ","zip":85711,"latitude":32.2073758,"longitude":-110.8817526,"phone_number_service":"5206186550","phone_number_main":"5206186550","service_hours":"Mo-Fr 07:00 - 18:00 | Sa 07:00 - 16:00","utc_offset":"-420","gplace_id":null,"gplace_url":"https://maps.google.com/?cid=17697173469723924664","dealerID":74284,"trusted":false,"image_id":"v1597283926/nissan_RM.png","phone":"5206186550","cityStateSlug":"tucson.az","slug":"Tucson.AZ/thoroughbred+nissan","location":"32.2073758,-110.8817526","brandsList":["nissan"]},{"id":8755,"crm_id":67077442,"name":"Lexus of Tucson Speedway","dealerSlug":"lexus+of+tucson+speedway","city_state_slug":"Tucson.AZ","brand":"Lexus","website":"www.lexusoftucsonspeedway.com","address":"4373 E Speedway Blvd","city":"Tucson","state":"AZ","zip":85712,"latitude":32.2366667,"longitude":-110.8994444,"phone_number_service":"5207453987","phone_number_main":"5204770582","service_hours":"Mo-Fr 07:00 - 17:30 | Sa 08:00 - 15:00","utc_offset":"-420","gplace_id":null,"gplace_url":"https://maps.google.com/?cid=13218431157519936205","dealerID":74285,"trusted":false,"image_id":"v1597284042/lexus_ms.png","phone":"5207453987","cityStateSlug":"tucson.az","slug":"Tucson.AZ/lexus+of+tucson+speedway","location":"32.2366667,-110.8994444","brandsList":["lexus"]},{"id":8198,"crm_id":67077445,"name":"Lake Powell Ford","dealerSlug":"lake+powell+ford","city_state_slug":"Page.AZ","brand":"Ford","website":"www.ford.com","address":"619 S Lake Powell Blvd","city":"Page","state":"AZ","zip":86040,"latitude":36.9063889,"longitude":-111.4744444,"phone_number_service":"9286455450","phone_number_main":"9286455450","service_hours":"Mo-Fr 08:00 - 18:00 | Sa 08:00 - 17:00","utc_offset":"-420","gplace_id":null,"gplace_url":"https://maps.google.com/?cid=11382307790898886608","dealerID":74286,"trusted":false,"image_id":"v1597283967/ford_RM.png","phone":"9286455450","cityStateSlug":"page.az","slug":"Page.AZ/lake+powell+ford","location":"36.9063889,-111.4744444","brandsList":["ford"]},{"id":15579,"crm_id":67077448,"name":"Winslow Ford","dealerSlug":"winslow+ford","city_state_slug":"Winslow.AZ","brand":"Ford","website":"www.winslowford.com/","address":"840 Mike's Pike St","city":"Winslow","state":"AZ","zip":86047,"latitude":35.0415858,"longitude":-110.7037723,"phone_number_service":"9282893354","phone_number_main":"8003316698","service_hours":"Tu-Sa  08:00 - 17:00","utc_offset":"-420","gplace_id":null,"gplace_url":"https://maps.google.com/?cid=4229683316006108711","dealerID":74287,"trusted":false,"image_id":"v1597283967/ford_RM.png","phone":"9282893354","cityStateSlug":"winslow.az","slug":"Winslow.AZ/winslow+ford","location":"35.0415858,-110.7037723","brandsList":["ford"]},{"id":4800,"crm_id":67077454,"name":"Findlay Buick GMC","dealerSlug":"findlay+buick+gmc","city_state_slug":"Prescott.AZ","brand":"Buick,GMC","website":"www.findlaybuickgmc.com/","address":"1006 Commerce Drive","city":"Prescott","state":"AZ","zip":86305,"latitude":34.6052804,"longitude":-112.4566789,"phone_number_service":"9282084265","phone_number_main":"9284438300","service_hours":"Mo-Fr 07:00 - 18:00 | Sa 08:00 - 14:00","utc_offset":"-420","gplace_id":null,"gplace_url":"https://maps.google.com/?cid=17919498588135466864","dealerID":74288,"trusted":false,"image_id":"v1597283981/buick_RM.png","phone":"9282084265","cityStateSlug":"prescott.az","slug":"Prescott.AZ/findlay+buick+gmc","location":"34.6052804,-112.4566789","brandsList":["buick","gmc"]},{"id":4814,"crm_id":67077457,"name":"Findlay Toyota Prescott","dealerSlug":"findlay+toyota+prescott","city_state_slug":"Prescott.AZ","brand":"Toyota","website":"www.findlaytoyotaprescott.com","address":"3200 Willow Creek Rd","city":"Prescott","state":"AZ","zip":86301,"latitude":34.6056964,"longitude":-112.455345,"phone_number_service":"8887821577","phone_number_main":"9284438300","service_hours":"Mo-Fr 07:00 - 18:00 | Sa 07:00 - 17:00","utc_offset":"-420","gplace_id":null,"gplace_url":"https://maps.google.com/?cid=18174894244418955639","dealerID":74289,"trusted":false,"image_id":"v1597284039/toyota_ms.png","phone":"8887821577","cityStateSlug":"prescott.az","slug":"Prescott.AZ/findlay+toyota+prescott","location":"34.6056964,-112.455345","brandsList":["toyota"]},{"id":4811,"crm_id":67077460,"name":"Findlay Subaru Prescott","dealerSlug":"findlay+subaru+prescott","city_state_slug":"Prescott.AZ","brand":"Subaru","website":"findlaysubaruprescott.com","address":"3230 Willow Creek Rd","city":"Prescott","state":"AZ","zip":86305,"latitude":34.6065427,"longitude":-112.4536548,"phone_number_service":"8772562316","phone_number_main":"9284336037","service_hours":"Mo-Fr 07:00 - 18:00 | Sa 08:00 - 14:00","utc_offset":"-420","gplace_id":null,"gplace_url":"https://maps.google.com/?cid=7273700424723461951","dealerID":74290,"trusted":false,"image_id":"v1597283982/subaru_ms.png","phone":"8772562316","cityStateSlug":"prescott.az","slug":"Prescott.AZ/findlay+subaru+prescott","location":"34.6065427,-112.4536548","brandsList":["subaru"]},{"id":2060,"crm_id":67077466,"name":"Bradley Ford","dealerSlug":"bradley+ford","city_state_slug":"Lake-Havasu-City.AZ","brand":"Ford","website":"www.bradleyford.com","address":"1690 Industrial Blvd","city":"Lake Havasu City","state":"AZ","zip":86403,"latitude":34.4930371,"longitude":-114.3503459,"phone_number_service":"8884313066","phone_number_main":"9288551191","service_hours":"Mo-Fr 07:30 - 17:30 | Sa 08:00 - 16:00","utc_offset":"-420","gplace_id":null,"gplace_url":"https://maps.google.com/?cid=5667658161693948067","dealerID":74291,"trusted":false,"image_id":"v1597283967/ford_RM.png","phone":"8884313066","cityStateSlug":"lake-havasu-city.az","slug":"Lake-Havasu-City.AZ/bradley+ford","location":"34.4930371,-114.3503459","brandsList":["ford"]},{"id":314,"crm_id":67077469,"name":"Anderson Chrysler Dodge Jeep RAM","dealerSlug":"anderson+chrysler+dodge+jeep+ram","city_state_slug":"Lake-Havasu-City.AZ","brand":"Chrysler,Dodge,Jeep,RAM,Fiat","website":"www.andersonchrysleraz.com","address":"3920 North Highway 95","city":"Lake Havasu City","state":"AZ","zip":86404,"latitude":34.544262,"longitude":-114.3549951,"phone_number_service":"9284665131","phone_number_main":"9283311753","service_hours":"Mo-Fr 07:30 - 18:30 | Sa 07:30 - 16:00","utc_offset":"-420","gplace_id":null,"gplace_url":"https://maps.google.com/?cid=9262214972423402124","dealerID":74292,"trusted":false,"image_id":"v1597283975/chrysler_RM.png","phone":"9284665131","cityStateSlug":"lake-havasu-city.az","slug":"Lake-Havasu-City.AZ/anderson+chrysler+dodge+jeep+ram","location":"34.544262,-114.3549951","brandsList":["chrysler","dodge","jeep","ram","fiat"]},{"id":13952,"crm_id":67131952,"name":"Surprise Honda","dealerSlug":"surprise+honda","city_state_slug":"Surprise.AZ","brand":"Honda","website":"www.surprisehonda.net","address":"13270 N Autoshow Ave","city":"Surprise","state":"AZ","zip":85388,"latitude":33.6048414,"longitude":-112.4225735,"phone_number_service":"6028758600","phone_number_main":"6028758600","service_hours":"Mo-Fr 07:00 - 18:00 | Sa 07:00 - 17:00","utc_offset":"-420","gplace_id":null,"gplace_url":"https://maps.google.com/?cid=8808552612409120834","dealerID":51531,"trusted":true,"image_id":"v1597284047/honda_ms.png","phone":"6028758600","cityStateSlug":"surprise.az","slug":"Surprise.AZ/surprise+honda","location":"33.6048414,-112.4225735","brandsList":["honda"]},{"id":9032,"crm_id":68168734,"name":"Lunde's Peoria Volkswagen","dealerSlug":"lundes+peoria+volkswagen","city_state_slug":"Peoria.AZ","brand":"Volkswagen","website":"www.peoriavw.com","address":"8801 W Bell Rd","city":"Peoria","state":"AZ","zip":85382,"latitude":33.6372908,"longitude":-112.2485098,"phone_number_service":"8448193047","phone_number_main":"6238754000","service_hours":"Mo-Fr 07:00 - 18:00 | Sa 08:30 - 16:00","utc_offset":"-420","gplace_id":null,"gplace_url":"https://maps.google.com/?cid=7969963749229235550","dealerID":50055,"trusted":true,"image_id":"v1597283902/volkswagen.png","phone":"8448193047","cityStateSlug":"peoria.az","slug":"Peoria.AZ/lundes+peoria+volkswagen","location":"33.6372908,-112.2485098","brandsList":["volkswagen"]},{"id":129,"crm_id":70598296,"name":"Airpark Dodge Chrysler Jeep","dealerSlug":"airpark+dodge+chrysler+jeep","city_state_slug":"Scottsdale.AZ","brand":"Chrysler,Dodge,Jeep","website":"www.airparkdodgechryslerjeep.com","address":"7801 E Frank Lloyd Wright Blvd","city":"Scottsdale","state":"AZ","zip":85260,"latitude":33.6343855,"longitude":-111.9123136,"phone_number_service":"8666980490","phone_number_main":"4806965885","service_hours":"Mo-Fr 07:00 - 19:00 | Sa 07:00 - 17:00","utc_offset":"-420","gplace_id":null,"gplace_url":"https://maps.google.com/?cid=13482541028045733085","dealerID":74984,"trusted":false,"image_id":"v1597283975/chrysler_RM.png","phone":"8666980490","cityStateSlug":"scottsdale.az","slug":"Scottsdale.AZ/airpark+dodge+chrysler+jeep","location":"33.6343855,-111.9123136","brandsList":["chrysler","dodge","jeep"]},{"id":7375,"crm_id":71612116,"name":"Jim Click Mazda East","dealerSlug":"jim+click+mazda+east","city_state_slug":"Tucson.AZ","brand":"Mazda","website":"www.jimclickmazdaeast.com","address":"1301 S Wilmot Rd","city":"Tucson","state":"AZ","zip":85711,"latitude":32.2050107,"longitude":-110.857295,"phone_number_service":"5204484280","phone_number_main":"8667874429","service_hours":"Mo-Fr 07:00 - 18:00 | Sa 08:00 - 17:00","utc_offset":"-420","gplace_id":null,"gplace_url":"https://maps.google.com/?cid=2196666565055602056","dealerID":75036,"trusted":false,"image_id":"v1597283937/mazda.png","phone":"5204484280","cityStateSlug":"tucson.az","slug":"Tucson.AZ/jim+click+mazda+east","location":"32.2050107,-110.857295","brandsList":["mazda"]},{"id":8448,"crm_id":71673613,"name":"Larry H. Miller Genesis Peoria","dealerSlug":"larry+h+miller+genesis+peoria","city_state_slug":"Peoria.AZ","brand":"Genesis","website":"www.larrymillergenesis.com","address":"8425 W Bell Rd # A","city":"Peoria","state":"AZ","zip":85382,"latitude":33.6373546,"longitude":-112.2429723,"phone_number_service":"8665465344","phone_number_main":"8884391145","service_hours":"Mo-Fr 07:00 - 18:00 | Sa 07:00 - 16:00","utc_offset":"-420","gplace_id":null,"gplace_url":"https://maps.google.com/?cid=11290413041348754365","dealerID":75040,"trusted":false,"image_id":"v2-motorsafety/assets/images/default-logo","phone":"8665465344","cityStateSlug":"peoria.az","slug":"Peoria.AZ/larry+h+miller+genesis+peoria","location":"33.6373546,-112.2429723","brandsList":["genesis"]},{"id":8434,"crm_id":71673625,"name":"Larry H. Miller Chrysler Jeep Dodge RAM Surprise","dealerSlug":"larry+h+miller+chrysler+jeep+dodge+ram+surprise","city_state_slug":"Surprise.AZ","brand":"Chrysler,Dodge,Jeep,RAM","website":"www.chryslerjeepdodgesurprise.com","address":"13165 N. Autoshow Ave.","city":"Surprise","state":"AZ","zip":85388,"latitude":33.6038727,"longitude":-112.4199555,"phone_number_service":"6233777523","phone_number_main":"4808653984","service_hours":"Mo-Fr 07:00 - 18:00 | Sa 07:00 - 16:00","utc_offset":"-420","gplace_id":null,"gplace_url":"https://maps.google.com/?cid=3327222699390255190","dealerID":75041,"trusted":false,"image_id":"v1597283975/chrysler_RM.png","phone":"6233777523","cityStateSlug":"surprise.az","slug":"Surprise.AZ/larry+h+miller+chrysler+jeep+dodge+ram+surprise","location":"33.6038727,-112.4199555","brandsList":["chrysler","dodge","jeep","ram"]},{"id":8442,"crm_id":71673772,"name":"Larry H. Miller FIAT Tucson","dealerSlug":"larry+h+miller+fiat+tucson","city_state_slug":"Tucson.AZ","brand":"Fiat","website":"www.fiatusaoftucson.com","address":"1000 W Wetmore Rd","city":"Tucson","state":"AZ","zip":85705,"latitude":32.2871434,"longitude":-110.9896797,"phone_number_service":"8775302717","phone_number_main":"5203996919","service_hours":"Mo-Fr 07:30 - 17:30","utc_offset":"-420","gplace_id":null,"gplace_url":"https://maps.google.com/?cid=10313496517098063276","dealerID":75042,"trusted":false,"image_id":"v2-motorsafety/assets/images/default-logo","phone":"8775302717","cityStateSlug":"tucson.az","slug":"Tucson.AZ/larry+h+miller+fiat+tucson","location":"32.2871434,-110.9896797","brandsList":["fiat"]},{"id":8475,"crm_id":71673787,"name":"Larry H. Miller Volkswagen Tucson","dealerSlug":"larry+h+miller+volkswagen+tucson","city_state_slug":"Tucson.AZ","brand":"Volkswagen","website":"www.volkswagenoftucson.com","address":"900 W Auto Mall Dr","city":"Tucson","state":"AZ","zip":85705,"latitude":32.28706,"longitude":-110.9878265,"phone_number_service":"8778980894","phone_number_main":"5204472227","service_hours":"Mo-Fr 07:00 - 18:00 | Sa 08:00 - 16:00","utc_offset":"-420","gplace_id":null,"gplace_url":"https://maps.google.com/?cid=11240370155631982997","dealerID":75043,"trusted":false,"image_id":"v1597283902/volkswagen.png","phone":"8778980894","cityStateSlug":"tucson.az","slug":"Tucson.AZ/larry+h+miller+volkswagen+tucson","location":"32.28706,-110.9878265","brandsList":["volkswagen"]},{"id":324,"crm_id":74603005,"name":"Anderson Toyota","dealerSlug":"anderson+toyota","city_state_slug":"Lake-Havasu-City.AZ","brand":"Toyota","website":"www.andersontoyotaaz.com","address":"6510 Showplace Ave","city":"Lake Havasu City","state":"AZ","zip":86404,"latitude":34.5739293,"longitude":-114.3678951,"phone_number_service":"8664365356","phone_number_main":"9286158932","service_hours":"Mo-Fr 07:30 - 18:30 | Sa 07:30 - 16:00","utc_offset":"-420","gplace_id":null,"gplace_url":"https://maps.google.com/?cid=4134565073379689263","dealerID":75107,"trusted":false,"image_id":"v1597284039/toyota_ms.png","phone":"8664365356","cityStateSlug":"lake-havasu-city.az","slug":"Lake-Havasu-City.AZ/anderson+toyota","location":"34.5739293,-114.3678951","brandsList":["toyota"]},{"id":1272,"crm_id":75706222,"name":"Bergeâ€™s Riverview Toyota","dealerSlug":"berge+s+riverview+toyota","city_state_slug":"Mesa.AZ","brand":"Toyota","website":"www.riverviewtoyota.com","address":"2020 Riverview Auto Dr","city":"Mesa","state":"AZ","zip":85201,"latitude":33.435544,"longitude":-111.871111,"phone_number_service":"4803890465","phone_number_main":"4806554450","service_hours":"Mo-Fr 07:00 - 18:00 | Sa 07:00 - 16:00","utc_offset":"-420","gplace_id":null,"gplace_url":"https://maps.google.com/?cid=7820621191895278591","dealerID":75132,"trusted":false,"image_id":"v1597284039/toyota_ms.png","phone":"4803890465","cityStateSlug":"mesa.az","slug":"Mesa.AZ/berge+s+riverview+toyota","location":"33.435544,-111.871111","brandsList":["toyota"]},{"id":11391,"crm_id":85297156,"name":"Peoria Ford","dealerSlug":"peoria+ford","city_state_slug":"Peoria.AZ","brand":"Ford","website":"www.peoriaford.com","address":"9130 W Bell Rd","city":"Peoria","state":"AZ","zip":85382,"latitude":33.6392541,"longitude":-112.2540042,"phone_number_service":"8777387519","phone_number_main":"6232393722","service_hours":"Mo-Fr 07:00 - 18:00 | Sa 07:00 - 17:00","utc_offset":"-420","gplace_id":null,"gplace_url":"https://maps.google.com/?cid=3815553183446595761","dealerID":75341,"trusted":false,"image_id":"v1597283967/ford_RM.png","phone":"8777387519","cityStateSlug":"peoria.az","slug":"Peoria.AZ/peoria+ford","location":"33.6392541,-112.2540042","brandsList":["ford"]},{"id":6853,"crm_id":86439532,"name":"Hyundai of Yuma","dealerSlug":"hyundai+of+yuma","city_state_slug":"Yuma.AZ","brand":"Hyundai","website":"www.hyundaiofyuma.com","address":"1125 E 32nd St","city":"Yuma","state":"AZ","zip":85365,"latitude":32.668476,"longitude":-114.608835,"phone_number_service":"9283441100","phone_number_main":"9283441100","service_hours":"Mo-Fr 07:00 - 18:00 | Sa 08:00 - 16:00","utc_offset":"-420","gplace_id":null,"gplace_url":"https://maps.google.com/?cid=6723045374793620651","dealerID":75389,"trusted":false,"image_id":"v1597283959/hyundai_RM.png","phone":"9283441100","cityStateSlug":"yuma.az","slug":"Yuma.AZ/hyundai+of+yuma","location":"32.668476,-114.608835","brandsList":["hyundai"]},{"id":874,"crm_id":86449168,"name":"AutoNation Hyundai Tempe","dealerSlug":"autonation+hyundai+tempe","city_state_slug":"Tempe.AZ","brand":"Hyundai","website":"www.autonationhyundaitempe.com","address":"8050 S Autoplex Loop Suite A","city":"Tempe","state":"AZ","zip":85284,"latitude":33.34337,"longitude":-111.9648406,"phone_number_service":"4805054247","phone_number_main":"8004984725","service_hours":"Mo-Fr 07:00 - 19:00 | Sa 07:00 - 16:00","utc_offset":"-420","gplace_id":null,"gplace_url":"https://maps.google.com/?cid=16052999281628662938","dealerID":75390,"trusted":false,"image_id":"v1597283959/hyundai_RM.png","phone":"4805054247","cityStateSlug":"tempe.az","slug":"Tempe.AZ/autonation+hyundai+tempe","location":"33.34337,-111.9648406","brandsList":["hyundai"]},{"id":4330,"crm_id":86456326,"name":"Earnhardt Hyundai North Scottsdale","dealerSlug":"earnhardt+hyundai+north+scottsdale","city_state_slug":"Scottsdale.AZ","brand":"Hyundai","website":"www.northscottsdalehyundai.com","address":"8445 E Frank Lloyd Wright Blvd","city":"Scottsdale","state":"AZ","zip":85260,"latitude":33.6313889,"longitude":-111.8980556,"phone_number_service":"8885050099","phone_number_main":"4809225200","service_hours":"Mo-Sa 07:00 - 18:00","utc_offset":"-420","gplace_id":null,"gplace_url":"https://maps.google.com/?cid=717460388157334150","dealerID":75391,"trusted":false,"image_id":"v1597283959/hyundai_RM.png","phone":"8885050099","cityStateSlug":"scottsdale.az","slug":"Scottsdale.AZ/earnhardt+hyundai+north+scottsdale","location":"33.6313889,-111.8980556","brandsList":["hyundai"]},{"id":6688,"crm_id":86457940,"name":"Horne Hyundai","dealerSlug":"horne+hyundai","city_state_slug":"Apache-Junction.AZ","brand":"Hyundai","website":"www.hornehyundai.com","address":"1360 E Auto Center Dr.","city":"Apache Junction","state":"AZ","zip":85119,"latitude":33.38491,"longitude":-111.531322,"phone_number_service":"4807716542","phone_number_main":"4807718213","service_hours":"Mo-Fr 07:00 - 18:00 | Sa 07:00 - 14:00","utc_offset":"-420","gplace_id":null,"gplace_url":"https://maps.google.com/?cid=14176416665226840960","dealerID":75392,"trusted":false,"image_id":"v1597283959/hyundai_RM.png","phone":"4807716542","cityStateSlug":"apache-junction.az","slug":"Apache-Junction.AZ/horne+hyundai","location":"33.38491,-111.531322","brandsList":["hyundai"]},{"id":2444,"crm_id":86459296,"name":"Camelback Hyundai","dealerSlug":"camelback+hyundai","city_state_slug":"Phoenix.AZ","brand":"Hyundai","website":"www.camelbackhyundai.com","address":"1500 E Camelback Rd","city":"Phoenix","state":"AZ","zip":85014,"latitude":33.5096481,"longitude":-112.0499658,"phone_number_service":"8559975920","phone_number_main":"6022350684","service_hours":"Mo-Fr 07:00 - 18:00 | Sa 07:00 - 16:00","utc_offset":"-420","gplace_id":null,"gplace_url":"https://maps.google.com/?cid=12960219462213146283","dealerID":75393,"trusted":false,"image_id":"v1597283959/hyundai_RM.png","phone":"8559975920","cityStateSlug":"phoenix.az","slug":"Phoenix.AZ/camelback+hyundai","location":"33.5096481,-112.0499658","brandsList":["hyundai"]},{"id":2801,"crm_id":86459500,"name":"Chapman Hyundai Scottsdale","dealerSlug":"chapman+hyundai+scottsdale","city_state_slug":"Scottsdale.AZ","brand":"Hyundai","website":"www.chapmanhyundaiscottsdale.com","address":"3600 N 89th St","city":"Scottsdale","state":"AZ","zip":85251,"latitude":33.4890654,"longitude":-111.8892884,"phone_number_service":"8883747365","phone_number_main":"4804243558","service_hours":"Mo-Fr 07:00 - 18:00 | Sa 07:00 - 17:00","utc_offset":"-420","gplace_id":null,"gplace_url":"https://maps.google.com/?cid=643073110476187568","dealerID":75394,"trusted":false,"image_id":"v1597283959/hyundai_RM.png","phone":"8883747365","cityStateSlug":"scottsdale.az","slug":"Scottsdale.AZ/chapman+hyundai+scottsdale","location":"33.4890654,-111.8892884","brandsList":["hyundai"]},{"id":12486,"crm_id":86459737,"name":"Rodeo Hyundai","dealerSlug":"rodeo+hyundai","city_state_slug":"Surprise.AZ","brand":"Hyundai","website":"www.rodeohyundai.com","address":"12925 N Autoshow Ave","city":"Surprise","state":"AZ","zip":85388,"latitude":33.6017922,"longitude":-112.4200645,"phone_number_service":"8778362141","phone_number_main":"6232144100","service_hours":"Mo-Fr 07:00 - 18:00 | Sa 07:00 - 16:00","utc_offset":"-420","gplace_id":null,"gplace_url":"https://maps.google.com/?cid=12242829645831242165","dealerID":75395,"trusted":false,"image_id":"v1597283959/hyundai_RM.png","phone":"8778362141","cityStateSlug":"surprise.az","slug":"Surprise.AZ/rodeo+hyundai","location":"33.6017922,-112.4200645","brandsList":["hyundai"]},{"id":7372,"crm_id":86460859,"name":"Jim Click Hyundai Auto Mall","dealerSlug":"jim+click+hyundai+auto+mall","city_state_slug":"Tucson.AZ","brand":"Hyundai","website":"www.jimclickhyundaiautomall.com","address":"700 W Auto Mall Dr","city":"Tucson","state":"AZ","zip":85705,"latitude":32.2903183,"longitude":-110.9843428,"phone_number_service":"5203464815","phone_number_main":"8778882231","service_hours":"Mo-Fr 07:00 - 18:00 | Sa 07:00 - 17:00","utc_offset":"-420","gplace_id":null,"gplace_url":"https://maps.google.com/?cid=169926453173700960","dealerID":75396,"trusted":false,"image_id":"v1597283959/hyundai_RM.png","phone":"5203464815","cityStateSlug":"tucson.az","slug":"Tucson.AZ/jim+click+hyundai+auto+mall","location":"32.2903183,-110.9843428","brandsList":["hyundai"]},{"id":9319,"crm_id":86462713,"name":"Martin Swanty Hyundai","dealerSlug":"martin+swanty+hyundai","city_state_slug":"Kingman.AZ","brand":"Hyundai","website":"www.martinswantyhyundai.net","address":"4180 Stockton Hill Rd","city":"Kingman","state":"AZ","zip":86409,"latitude":35.244477,"longitude":-114.037907,"phone_number_service":"8882637004","phone_number_main":"9286923232","service_hours":"Mo-Fr 07:30 - 17:30 | Sa 08:00 - 14:00","utc_offset":"-420","gplace_id":null,"gplace_url":"https://maps.google.com/?cid=12431828660197267273","dealerID":75397,"trusted":false,"image_id":"v1597283959/hyundai_RM.png","phone":"8882637004","cityStateSlug":"kingman.az","slug":"Kingman.AZ/martin+swanty+hyundai","location":"35.244477,-114.037907","brandsList":["hyundai"]},{"id":12839,"crm_id":86469286,"name":"Sands Kia","dealerSlug":"sands+kia","city_state_slug":"Surprise.AZ","brand":"Kia","website":"www.sandskia.com","address":"13474 N Autoshow Ave","city":"Surprise","state":"AZ","zip":85388,"latitude":33.6067963,"longitude":-112.4232677,"phone_number_service":"8442831506","phone_number_main":"6234743344","service_hours":"Mo-Fr 07:00 - 18:00 | Sa 07:00 - 17:00","utc_offset":"-420","gplace_id":null,"gplace_url":"https://maps.google.com/?cid=12092411964407315673","dealerID":75398,"trusted":false,"image_id":"v1597283948/kia_RM.png","phone":"8442831506","cityStateSlug":"surprise.az","slug":"Surprise.AZ/sands+kia","location":"33.6067963,-112.4232677","brandsList":["kia"]},{"id":11097,"crm_id":86679304,"name":"Oxendale Chrysler Dodge Jeep RAM","dealerSlug":"oxendale+chrysler+dodge+jeep+ram","city_state_slug":"Cottonwood.AZ","brand":"Chrysler,Dodge,Jeep,RAM","website":"www.oxendalechryslerdodgejeep.com","address":"920 E State Route 89a","city":"Cottonwood","state":"AZ","zip":86326,"latitude":34.7293414,"longitude":-112.0173971,"phone_number_service":"9286343656","phone_number_main":"9286343656","service_hours":"Mo-Fr 07:30 - 17:30 | Sa 07:30 - 15:30","utc_offset":"-420","gplace_id":null,"gplace_url":"https://maps.google.com/?cid=15829355485524450844","dealerID":75444,"trusted":false,"image_id":"v1597283975/chrysler_RM.png","phone":"9286343656","cityStateSlug":"cottonwood.az","slug":"Cottonwood.AZ/oxendale+chrysler+dodge+jeep+ram","location":"34.7293414,-112.0173971","brandsList":["chrysler","dodge","jeep","ram"]},{"id":13980,"crm_id":86679484,"name":"Swanty's Chrysler Dodge Jeep","dealerSlug":"swantys+chrysler+dodge+jeep","city_state_slug":"Bullhead-City.AZ","brand":"Chrysler,Dodge,Jeep,RAM","website":"www.swantyschryslerdodgejeep.com","address":"2494 South Hwy 95","city":"Bullhead City","state":"AZ","zip":86442,"latitude":35.0956674,"longitude":-114.5971531,"phone_number_service":"9285424071","phone_number_main":"9287042222","service_hours":"Mo-Fr 07:30 - 17:30 | Sa 07:15-16:00","utc_offset":"-420","gplace_id":null,"gplace_url":"https://maps.google.com/?cid=4305344345281949892","dealerID":75445,"trusted":false,"image_id":"v1597283975/chrysler_RM.png","phone":"9285424071","cityStateSlug":"bullhead-city.az","slug":"Bullhead-City.AZ/swantys+chrysler+dodge+jeep","location":"35.0956674,-114.5971531","brandsList":["chrysler","dodge","jeep","ram"]},{"id":4884,"crm_id":90004525,"name":"Flagstaff Nissan","dealerSlug":"flagstaff+nissan","city_state_slug":"Flagstaff.AZ","brand":"Nissan","website":"www.flagnissan.com","address":"4960 E Marketplace Dr","city":"Flagstaff","state":"AZ","zip":86004,"latitude":35.2244964,"longitude":-111.5738388,"phone_number_service":"8887665971","phone_number_main":"9285226386","service_hours":"Mo-Fr 07:00 - 18:00 | Sa 08:00 - 17:00","utc_offset":"-420","gplace_id":null,"gplace_url":"https://maps.google.com/?cid=3757371957295459263","dealerID":50994,"trusted":true,"image_id":"v1597283926/nissan_RM.png","phone":"8887665971","cityStateSlug":"flagstaff.az","slug":"Flagstaff.AZ/flagstaff+nissan","location":"35.2244964,-111.5738388","brandsList":["nissan"]},{"id":4885,"crm_id":90004543,"name":"Flagstaff Subaru","dealerSlug":"flagstaff+subaru","city_state_slug":"Flagstaff.AZ","brand":"Subaru","website":"www.flagstaffsubaru.com","address":"4910 E Marketplace Dr","city":"Flagstaff","state":"AZ","zip":86004,"latitude":35.224655,"longitude":-111.57519,"phone_number_service":"8669063098","phone_number_main":"9285226386","service_hours":"Mo-Fr 07:00 - 18:00 | Sa 08:00 - 17:00","utc_offset":"-420","gplace_id":null,"gplace_url":"https://maps.google.com/?cid=17324076703364657791","dealerID":51364,"trusted":true,"image_id":"v1597283982/subaru_ms.png","phone":"8669063098","cityStateSlug":"flagstaff.az","slug":"Flagstaff.AZ/flagstaff+subaru","location":"35.224655,-111.57519","brandsList":["subaru"]},{"id":4331,"crm_id":92768296,"name":"Earnhardt KIA","dealerSlug":"earnhardt+kia","city_state_slug":"Phoenix.AZ","brand":"Kia","website":"www.earnhardtkia.com","address":"2121 E Bell Rd","city":"Phoenix","state":"AZ","zip":85022,"latitude":33.6395065,"longitude":-112.0369247,"phone_number_service":"8443466155","phone_number_main":"6023465400","service_hours":"Mo-Fr 07:00 - 18:00 | Sa 07:00 - 17:00","utc_offset":"-420","gplace_id":null,"gplace_url":"https://maps.google.com/?cid=170973915144999797","dealerID":76151,"trusted":false,"image_id":"v1597283948/kia_RM.png","phone":"8443466155","cityStateSlug":"phoenix.az","slug":"Phoenix.AZ/earnhardt+kia","location":"33.6395065,-112.0369247","brandsList":["kia"]},{"id":30,"crm_id":92768980,"name":"ABC Nissan","dealerSlug":"abc+nissan","city_state_slug":"Phoenix.AZ","brand":"Nissan","website":"www.abcnissan.com","address":"1300 E Camelback Rd","city":"Phoenix","state":"AZ","zip":85014,"latitude":33.5101499,"longitude":-112.0543554,"phone_number_service":"8666976214","phone_number_main":"6026824468","service_hours":"Mo-Fr 07:00 - 18:00 | Sa 07:00 - 16:00","utc_offset":"-420","gplace_id":null,"gplace_url":"https://maps.google.com/?cid=2314207840814114857","dealerID":76152,"trusted":false,"image_id":"v1597283926/nissan_RM.png","phone":"8666976214","cityStateSlug":"phoenix.az","slug":"Phoenix.AZ/abc+nissan","location":"33.5101499,-112.0543554","brandsList":["nissan"]},{"id":1486,"crm_id":92769178,"name":"Bill Luke Chrysler Jeep Dodge RAM","dealerSlug":"bill+luke+chrysler+jeep+dodge+ram","city_state_slug":"Phoenix.AZ","brand":"Chrysler,Dodge,Jeep,RAM","website":"www.billluke.com","address":"2425 W Camelback Rd","city":"Phoenix","state":"AZ","zip":85015,"latitude":33.5086566,"longitude":-112.1100321,"phone_number_service":"6024574646","phone_number_main":"6022491234","service_hours":"Mo-Fr 07:00 - 18:00 | Sa 07:00 - 15:00","utc_offset":"-420","gplace_id":null,"gplace_url":"https://maps.google.com/?cid=4503900356315761183","dealerID":76153,"trusted":false,"image_id":"v1597283975/chrysler_RM.png","phone":"6024574646","cityStateSlug":"phoenix.az","slug":"Phoenix.AZ/bill+luke+chrysler+jeep+dodge+ram","location":"33.5086566,-112.1100321","brandsList":["chrysler","dodge","jeep","ram"]},{"id":4326,"crm_id":93076879,"name":"Earnhardt Chrysler Dodge Jeep RAM","dealerSlug":"earnhardt+chrysler+dodge+jeep+ram","city_state_slug":"Gilbert.AZ","brand":"Chrysler,Dodge,Jeep,RAM","website":"www.earnhardtcjd.com","address":"1521 E Drivers Way","city":"Gilbert","state":"AZ","zip":85297,"latitude":33.2907296,"longitude":-111.7563532,"phone_number_service":"4802691905","phone_number_main":"4809264000","service_hours":"Mo-Fr 07:00 - 18:00 | Sa 07:00 - 15:00","utc_offset":"-420","gplace_id":null,"gplace_url":"https://maps.google.com/?cid=5345841655741885809","dealerID":76155,"trusted":false,"image_id":"v1597283975/chrysler_RM.png","phone":"4802691905","cityStateSlug":"gilbert.az","slug":"Gilbert.AZ/earnhardt+chrysler+dodge+jeep+ram","location":"33.2907296,-111.7563532","brandsList":["chrysler","dodge","jeep","ram"]},{"id":4336,"crm_id":93083821,"name":"Earnhardt Volkswagen","dealerSlug":"earnhardt+volkswagen","city_state_slug":"Gilbert.AZ","brand":"Volkswagen","website":"www.earnhardtvw.com","address":"1489 E Motorplex Loop","city":"Gilbert","state":"AZ","zip":85297,"latitude":33.2887278,"longitude":-111.7585306,"phone_number_service":"8337385618","phone_number_main":"4807868900","service_hours":"Mo-Fr 07:00 - 18:00 | Sa 07:00 - 16:00","utc_offset":"-420","gplace_id":null,"gplace_url":"https://maps.google.com/?cid=5513365911901852920","dealerID":76157,"trusted":false,"image_id":"v1597283902/volkswagen.png","phone":"8337385618","cityStateSlug":"gilbert.az","slug":"Gilbert.AZ/earnhardt+volkswagen","location":"33.2887278,-111.7585306","brandsList":["volkswagen"]},{"id":4324,"crm_id":93261664,"name":"Earnhardt Chandler Cadillac","dealerSlug":"earnhardt+chandler+cadillac","city_state_slug":"Chandler.AZ","brand":"Cadillac","website":"www.chandlercadillac.com","address":"1450 S Gilbert Rd","city":"Chandler","state":"AZ","zip":85286,"latitude":33.2855556,"longitude":-111.7911111,"phone_number_service":"8665603034","phone_number_main":"4809451200","service_hours":"Mo-Fr 07:00 - 18:00 | Sa 08:00 - 16:00","utc_offset":"-420","gplace_id":null,"gplace_url":"https://maps.google.com/?cid=17827989943408635628","dealerID":76159,"trusted":false,"image_id":"v1597283980/cadillac.png","phone":"8665603034","cityStateSlug":"chandler.az","slug":"Chandler.AZ/earnhardt+chandler+cadillac","location":"33.2855556,-111.7911111","brandsList":["cadillac"]},{"id":4325,"crm_id":93261739,"name":"Earnhardt Chevrolet","dealerSlug":"earnhardt+chevrolet","city_state_slug":"Chandler.AZ","brand":"Chevrolet","website":"www.earnhardtchevroletaz.com","address":"2121 N Arizona Ave","city":"Chandler","state":"AZ","zip":85225,"latitude":33.3386551,"longitude":-111.8401055,"phone_number_service":"4808141234","phone_number_main":"4803592787","service_hours":"Mo-Fr 07:00 - 18:00 | Sa 07:00 - 15:00","utc_offset":"-420","gplace_id":null,"gplace_url":"https://maps.google.com/?cid=7256228103510980260","dealerID":76160,"trusted":false,"image_id":"v1597284079/chevy_ms.png","phone":"4808141234","cityStateSlug":"chandler.az","slug":"Chandler.AZ/earnhardt+chevrolet","location":"33.3386551,-111.8401055","brandsList":["chevrolet"]},{"id":11839,"crm_id":93289354,"name":"Prescott Valley Kia","dealerSlug":"prescott+valley+kia","city_state_slug":"Prescott-Valley.AZ","brand":"Kia","website":"www.prescottvalleykia.com","address":"5600 Market St","city":"Prescott Valley","state":"AZ","zip":86314,"latitude":34.5803134,"longitude":-112.3681306,"phone_number_service":"9287595600","phone_number_main":"9287595600","service_hours":"Mo-Fr 07:30 - 17:00 | Sa 08:00 - 14:00","utc_offset":"-420","gplace_id":null,"gplace_url":"https://maps.google.com/?cid=3063909944776370366","dealerID":76161,"trusted":false,"image_id":"v1597283948/kia_RM.png","phone":"9287595600","cityStateSlug":"prescott-valley.az","slug":"Prescott-Valley.AZ/prescott+valley+kia","location":"34.5803134,-112.3681306","brandsList":["kia"]},{"id":12487,"crm_id":93289525,"name":"Rodeo Kia","dealerSlug":"rodeo+kia","city_state_slug":"Avondale.AZ","brand":"Kia","website":"www.rodeokia.com","address":"10685 Papago Fwy","city":"Avondale","state":"AZ","zip":85323,"latitude":33.458572,"longitude":-112.288696,"phone_number_service":"8337919984","phone_number_main":"6232981200","service_hours":"Mo-Fr 07:00 - 18:00 | Sa 07:00 - 17:00","utc_offset":"-420","gplace_id":null,"gplace_url":"https://maps.google.com/?cid=2187372876000740333","dealerID":76162,"trusted":false,"image_id":"v1597283948/kia_RM.png","phone":"8337919984","cityStateSlug":"avondale.az","slug":"Avondale.AZ/rodeo+kia","location":"33.458572,-112.288696","brandsList":["kia"]},{"id":12484,"crm_id":93289567,"name":"Rodeo Chrysler Dodge Jeep RAM","dealerSlug":"rodeo+chrysler+dodge+jeep+ram","city_state_slug":"Queen-Creek.AZ","brand":"Chrysler,Dodge,Jeep,RAM","website":"www.rodeocdjr.com","address":"35747 N Ellsworth Rd","city":"Queen Creek","state":"AZ","zip":85142,"latitude":33.2039756,"longitude":-111.6328353,"phone_number_service":"4806665955","phone_number_main":"4805503800","service_hours":"Mo-Fr 07:00 - 18:00 | Sa 07:00 - 15:00","utc_offset":"-420","gplace_id":null,"gplace_url":"https://maps.google.com/?cid=14823549202817893341","dealerID":76163,"trusted":false,"image_id":"v1597283975/chrysler_RM.png","phone":"4806665955","cityStateSlug":"queen-creek.az","slug":"Queen-Creek.AZ/rodeo+chrysler+dodge+jeep+ram","location":"33.2039756,-111.6328353","brandsList":["chrysler","dodge","jeep","ram"]},{"id":2799,"crm_id":94777891,"name":"Chapman Honda","dealerSlug":"chapman+honda","city_state_slug":"Tucson.AZ","brand":"Honda","website":"www.chapmanhonda.com","address":"4426 E 22nd St","city":"Tucson","state":"AZ","zip":85711,"latitude":32.2062638,"longitude":-110.8982605,"phone_number_service":"5204454024","phone_number_main":"5204454024","service_hours":"Mo-Fr 07:00 - 18:00 | Sa 08:00 - 16:00","utc_offset":"-420","gplace_id":null,"gplace_url":"https://maps.google.com/?cid=18208470857393742013","dealerID":76232,"trusted":false,"image_id":"v1597284047/honda_ms.png","phone":"5204454024","cityStateSlug":"tucson.az","slug":"Tucson.AZ/chapman+honda","location":"32.2062638,-110.8982605","brandsList":["honda"]},{"id":14545,"crm_id":94887733,"name":"Toyota of Surprise","dealerSlug":"toyota+of+surprise","city_state_slug":"Surprise.AZ","brand":"Toyota","website":"www.toyotaofsurprise.com","address":"13543 N Autoshow Ave","city":"Surprise","state":"AZ","zip":85388,"latitude":33.6074003,"longitude":-112.4207825,"phone_number_service":"6234697328","phone_number_main":"6232098514","service_hours":"Mo-Fr 07:00 - 18:00 | Sa 07:00 - 16:00","utc_offset":"-420","gplace_id":null,"gplace_url":"https://maps.google.com/?cid=888229040117271612","dealerID":76252,"trusted":false,"image_id":"v1597284039/toyota_ms.png","phone":"6234697328","cityStateSlug":"surprise.az","slug":"Surprise.AZ/toyota+of+surprise","location":"33.6074003,-112.4207825","brandsList":["toyota"]},{"id":419,"crm_id":96088726,"name":"Arrowhead Cadillac","dealerSlug":"arrowhead+cadillac","city_state_slug":"Glendale.AZ","brand":"Cadillac","website":"www.arrowheadcadillac.com","address":"8310 W Bell Rd","city":"Glendale","state":"AZ","zip":85308,"latitude":33.6396048,"longitude":-112.2343609,"phone_number_service":"6232950494","phone_number_main":"6234556910","service_hours":"Mo-Fr 07:00 - 18:00 | Sa 08:00 - 17:00","utc_offset":"-420","gplace_id":null,"gplace_url":"https://maps.google.com/?cid=15407823096353818492","dealerID":76310,"trusted":false,"image_id":"v1597283980/cadillac.png","phone":"6232950494","cityStateSlug":"glendale.az","slug":"Glendale.AZ/arrowhead+cadillac","location":"33.6396048,-112.2343609","brandsList":["cadillac"]},{"id":1197,"crm_id":96360040,"name":"Bell Honda","dealerSlug":"bell+honda","city_state_slug":"Phoenix.AZ","brand":"Honda","website":"www.bellhonda.com","address":"701 W Bell Rd","city":"Phoenix","state":"AZ","zip":85023,"latitude":33.6393603,"longitude":-112.0837327,"phone_number_service":"8559838534","phone_number_main":"6023251546","service_hours":"Mo-Fr 07:00 - 18:00 | Sa 07:00 - 17:00","utc_offset":"-420","gplace_id":null,"gplace_url":"https://maps.google.com/?cid=1373828560915399518","dealerID":76328,"trusted":false,"image_id":"v1597284047/honda_ms.png","phone":"8559838534","cityStateSlug":"phoenix.az","slug":"Phoenix.AZ/bell+honda","location":"33.6393603,-112.0837327","brandsList":["honda"]},{"id":666,"crm_id":96747577,"name":"Audi Tucson","dealerSlug":"audi+tucson","city_state_slug":"Tucson.AZ","brand":"Audi","website":"www.tucsonaudi.com","address":"4646 E 22nd St","city":"Tucson","state":"AZ","zip":85711,"latitude":32.2064208,"longitude":-110.8940029,"phone_number_service":"5204454060","phone_number_main":"5204454060","service_hours":"Mo-Fr 07:00 - 17:30 | Sa 08:00-16:00","utc_offset":"-420","gplace_id":null,"gplace_url":"https://maps.google.com/?cid=2763332424021363516","dealerID":76337,"trusted":false,"image_id":"v1597283985/audi_RM.png","phone":"5204454060","cityStateSlug":"tucson.az","slug":"Tucson.AZ/audi+tucson","location":"32.2064208,-110.8940029","brandsList":["audi"]},{"id":5195,"crm_id":96747688,"name":"Freeway Chevrolet","dealerSlug":"freeway+chevrolet","city_state_slug":"Chandler.AZ","brand":"Chevrolet","website":"www.freewaychevrolet.com","address":"1150 N 54th St","city":"Chandler","state":"AZ","zip":85226,"latitude":33.3225909,"longitude":-111.9691114,"phone_number_service":"4807851911","phone_number_main":"4807350399","service_hours":"Mo-Fr 07:00 - 18:00 | Sa 07:00 - 16:00","utc_offset":"-420","gplace_id":null,"gplace_url":"https://maps.google.com/?cid=6331505470959689183","dealerID":76338,"trusted":false,"image_id":"v1597284079/chevy_ms.png","phone":"4807851911","cityStateSlug":"chandler.az","slug":"Chandler.AZ/freeway+chevrolet","location":"33.3225909,-111.9691114","brandsList":["chevrolet"]},{"id":2795,"crm_id":96748309,"name":"Chapman Dodge Chrysler Jeep RAM Scottsdale","dealerSlug":"chapman+dodge+chrysler+jeep+ram+scottsdale","city_state_slug":"Scottsdale.AZ","brand":"Chrysler,Dodge,Jeep,RAM","website":"www.chapmandodge.com","address":"3800 N 89th St","city":"Scottsdale","state":"AZ","zip":85251,"latitude":33.4914484,"longitude":-111.8904518,"phone_number_service":"8882437211","phone_number_main":"4804243559","service_hours":"Mo-Fr 07:00 - 18:00 | Sa 07:00 - 17:00","utc_offset":"-420","gplace_id":null,"gplace_url":"https://maps.google.com/?cid=11273456641664604404","dealerID":76339,"trusted":false,"image_id":"v1597283975/chrysler_RM.png","phone":"8882437211","cityStateSlug":"scottsdale.az","slug":"Scottsdale.AZ/chapman+dodge+chrysler+jeep+ram+scottsdale","location":"33.4914484,-111.8904518","brandsList":["chrysler","dodge","jeep","ram"]},{"id":2809,"crm_id":96748450,"name":"Chapman Volkswagen Scottsdale","dealerSlug":"chapman+volkswagen+scottsdale","city_state_slug":"Scottsdale.AZ","brand":"Volkswagen","website":"www.chapmanvw.com","address":"3700 N 89th St.","city":"Scottsdale","state":"AZ","zip":85251,"latitude":33.4901715,"longitude":-111.8893698,"phone_number_service":"8884887505","phone_number_main":"4804243560","service_hours":"Mo-Fr 07:00 - 18:00 | Sa 07:00 - 17:00","utc_offset":"-420","gplace_id":null,"gplace_url":"https://maps.google.com/?cid=16469480722525902579","dealerID":76340,"trusted":false,"image_id":"v1597283902/volkswagen.png","phone":"8884887505","cityStateSlug":"scottsdale.az","slug":"Scottsdale.AZ/chapman+volkswagen+scottsdale","location":"33.4901715,-111.8893698","brandsList":["volkswagen"]},{"id":1772,"crm_id":97878991,"name":"BMW of Tucson","dealerSlug":"bmw+of+tucson","city_state_slug":"Tucson.AZ","brand":"BMW","website":"www.bmwoftucson.com","address":"855 W. Wetmore Rd.","city":"Tucson","state":"AZ","zip":85705,"latitude":32.2853044,"longitude":-110.9860575,"phone_number_service":"5205492167","phone_number_main":"5203997949","service_hours":"Mo-Fr 07:00 - 18:00 | Sa 07:00 - 16:00","utc_offset":"-420","gplace_id":null,"gplace_url":"https://maps.google.com/?cid=9339910901624741823","dealerID":51724,"trusted":true,"image_id":"v1597283982/bmw_RM.png","phone":"5205492167","cityStateSlug":"tucson.az","slug":"Tucson.AZ/bmw+of+tucson","location":"32.2853044,-110.9860575","brandsList":["bmw"]},{"id":1270,"crm_id":98003860,"name":"Berge Mazda","dealerSlug":"berge+mazda","city_state_slug":"Gilbert.AZ","brand":"Mazda","website":"www.bergemazda.com","address":"385 W Baseline Rd","city":"Gilbert","state":"AZ","zip":85233,"latitude":33.377702,"longitude":-111.8401836,"phone_number_service":"8669691677","phone_number_main":"4804985614","service_hours":"Mo-Fr 07:00 - 18:00 | Sa 07:00 - 17:00","utc_offset":"-420","gplace_id":null,"gplace_url":"https://maps.google.com/?cid=2679536764564267422","dealerID":76432,"trusted":false,"image_id":"v1597283937/mazda.png","phone":"8669691677","cityStateSlug":"gilbert.az","slug":"Gilbert.AZ/berge+mazda","location":"33.377702,-111.8401836","brandsList":["mazda"]},{"id":2560,"crm_id":98003980,"name":"CardinaleWay Mazda - Peoria","dealerSlug":"cardinaleway+mazda+peoria","city_state_slug":"Peoria.AZ","brand":"Mazda","website":"www.cardinalewaymazdapeoria.com","address":"8424 W Bell Rd","city":"Peoria","state":"AZ","zip":85382,"latitude":33.6390743,"longitude":-112.242662,"phone_number_service":"8332393153","phone_number_main":"6237380755","service_hours":"Mo-Fr 07:00 - 18:00 | Sa 07:00 - 15:00","utc_offset":"-420","gplace_id":null,"gplace_url":"https://maps.google.com/?cid=16779166396592746302","dealerID":76433,"trusted":false,"image_id":"v1597283937/mazda.png","phone":"8332393153","cityStateSlug":"peoria.az","slug":"Peoria.AZ/cardinaleway+mazda+peoria","location":"33.6390743,-112.242662","brandsList":["mazda"]},{"id":15130,"crm_id":101791288,"name":"Volvo Cars Tucson","dealerSlug":"volvo+cars+tucson","city_state_slug":"Tucson.AZ","brand":"Volvo","website":"www.volvocarstucson.com","address":"831 W Wetmore Rd","city":"Tucson","state":"AZ","zip":85705,"latitude":32.2855907,"longitude":-110.9855175,"phone_number_service":"8338982804","phone_number_main":"5208679014","service_hours":"Mo-Fr 07:30 - 17:00 | Sa 08:00 - 13:00","utc_offset":"-420","gplace_id":null,"gplace_url":"https://maps.google.com/?cid=10353899109768721259","dealerID":76581,"trusted":false,"image_id":"v1597283901/volvo.jpg","phone":"8338982804","cityStateSlug":"tucson.az","slug":"Tucson.AZ/volvo+cars+tucson","location":"32.2855907,-110.9855175","brandsList":["volvo"]},{"id":418,"crm_id":106999030,"name":"Arrowhead BMW","dealerSlug":"arrowhead+bmw","city_state_slug":"Glendale.AZ","brand":"BMW","website":"www.arrowheadbmw.com","address":"19250 North Loop 101","city":"Glendale","state":"AZ","zip":85308,"latitude":33.65865,"longitude":-112.2362051,"phone_number_service":"8338745707","phone_number_main":"6232018338","service_hours":"Mo-Fr 07:00 - 18:00 | Sa 08:00 - 16:00","utc_offset":"-420","gplace_id":null,"gplace_url":"https://maps.google.com/?cid=16458436831296067335","dealerID":51549,"trusted":true,"image_id":"v1597283982/bmw_RM.png","phone":"8338745707","cityStateSlug":"glendale.az","slug":"Glendale.AZ/arrowhead+bmw","location":"33.65865,-112.2362051","brandsList":["bmw"]},{"id":14131,"crm_id":110028286,"name":"Tempe Kia","dealerSlug":"tempe+kia","city_state_slug":"Tempe.AZ","brand":"Kia","website":"www.tempekia.com","address":"8005 S Autoplex Loop","city":"Tempe","state":"AZ","zip":85284,"latitude":33.3440892,"longitude":-111.9683567,"phone_number_service":"4806668615","phone_number_main":"4805982300","service_hours":"Mo-Fr 07:00 - 18:00 | Sa 08:00-15:00","utc_offset":"-420","gplace_id":null,"gplace_url":"https://maps.google.com/?cid=5569389648668487564","dealerID":76761,"trusted":false,"image_id":"v1597283948/kia_RM.png","phone":"4806668615","cityStateSlug":"tempe.az","slug":"Tempe.AZ/tempe+kia","location":"33.3440892,-111.9683567","brandsList":["kia"]},{"id":14132,"crm_id":110028334,"name":"Tempe RAM","dealerSlug":"tempe+ram","city_state_slug":"Tempe.AZ","brand":"RAM","website":"www.temperam.com","address":"8060 S Autoplex Loop","city":"Tempe","state":"AZ","zip":85284,"latitude":33.3445773,"longitude":-111.9645666,"phone_number_service":"4805654460","phone_number_main":"4805625300","service_hours":"Mo-Fr 07:00 - 18:00 | Sa 08:00-15:00","utc_offset":"-420","gplace_id":null,"gplace_url":"https://maps.google.com/?cid=6111534595898890419","dealerID":76762,"trusted":false,"image_id":"v1597283918/RAM.png","phone":"4805654460","cityStateSlug":"tempe.az","slug":"Tempe.AZ/tempe+ram","location":"33.3445773,-111.9645666","brandsList":["ram"]},{"id":11551,"crm_id":112460158,"name":"Pinnacle Nissan","dealerSlug":"pinnacle+nissan","city_state_slug":"Scottsdale.AZ","brand":"Nissan","website":"www.pinnaclenissan.com","address":"7601 E Frank Lloyd Wright Blvd","city":"Scottsdale","state":"AZ","zip":85260,"latitude":33.6346929,"longitude":-111.915918,"phone_number_service":"8559807834","phone_number_main":"4803397780","service_hours":"Mo-Fr 07:00 - 18:00 | Sa 08:00 - 16:00","utc_offset":"-420","gplace_id":null,"gplace_url":"https://maps.google.com/?cid=6910537888890956697","dealerID":76799,"trusted":false,"image_id":"v1597283926/nissan_RM.png","phone":"8559807834","cityStateSlug":"scottsdale.az","slug":"Scottsdale.AZ/pinnacle+nissan","location":"33.6346929,-111.915918","brandsList":["nissan"]},{"id":8437,"crm_id":113101624,"name":"Larry H. Miller Dodge RAM Avondale","dealerSlug":"larry+h+miller+dodge+ram+avondale","city_state_slug":"Avondale.AZ","brand":"Dodge,RAM","website":"www.avondaledodge.com","address":"10101 W Papago Fwy","city":"Avondale","state":"AZ","zip":85323,"latitude":33.4593495,"longitude":-112.2791893,"phone_number_service":"8442665574","phone_number_main":"4808653985","service_hours":"Mo-Fr 07:00 - 18:00 | Sa 07:00 - 16:00","utc_offset":"-420","gplace_id":null,"gplace_url":"https://maps.google.com/?cid=12206083992170700728","dealerID":76825,"trusted":false,"image_id":"v1597283974/dodge.png","phone":"8442665574","cityStateSlug":"avondale.az","slug":"Avondale.AZ/larry+h+miller+dodge+ram+avondale","location":"33.4593495,-112.2791893","brandsList":["dodge","ram"]},{"id":14141,"crm_id":114418610,"name":"Terry Marxen Chevrolet Cadillac","dealerSlug":"terry+marxen+chevrolet+cadillac","city_state_slug":"Flagstaff.AZ","brand":"Cadillac,Chevrolet","website":"www.terrymarxen.com","address":"1118 W Rte 66","city":"Flagstaff","state":"AZ","zip":86001,"latitude":35.1899422,"longitude":-111.6663869,"phone_number_service":"8884950038","phone_number_main":"9283022515","service_hours":"Mo-Fr 07:30 - 18:00 | Sa 08:00 - 13:00","utc_offset":"-420","gplace_id":null,"gplace_url":"https://maps.google.com/?cid=5193399304076041138","dealerID":76906,"trusted":false,"image_id":"v1597283980/cadillac.png","phone":"8884950038","cityStateSlug":"flagstaff.az","slug":"Flagstaff.AZ/terry+marxen+chevrolet+cadillac","location":"35.1899422,-111.6663869","brandsList":["cadillac","chevrolet"]},{"id":10182,"crm_id":114996181,"name":"MINI of Tucson","dealerSlug":"mini+of+tucson","city_state_slug":"Tucson.AZ","brand":"MINI","website":"www.minioftucson.com","address":"4635 E 22nd St lot a","city":"Tucson","state":"AZ","zip":85711,"latitude":32.2074419,"longitude":-110.893798,"phone_number_service":"5204686312","phone_number_main":"5204686312","service_hours":"Mo-Fr 07:30 - 17:30 | Sa 08:00 - 15:00","utc_offset":"-420","gplace_id":null,"gplace_url":"https://maps.google.com/?cid=1976871329287100478","dealerID":76976,"trusted":false,"image_id":"v1597283930/mini_RM.png","phone":"5204686312","cityStateSlug":"tucson.az","slug":"Tucson.AZ/mini+of+tucson","location":"32.2074419,-110.893798","brandsList":["mini"]},{"id":8256,"crm_id":115514507,"name":"Land Rover Chandler","dealerSlug":"land+rover+chandler","city_state_slug":"Chandler.AZ","brand":"Land Rover","website":"www.landroverchandler.com","address":"7470 W Orchid Ln","city":"Chandler","state":"AZ","zip":85226,"latitude":33.3266551,"longitude":-111.9711593,"phone_number_service":"8554741292","phone_number_main":"4807393796","service_hours":"Mo-Fr 07:00 - 18:00 | Sa 08:00 - 13:00","utc_offset":"-420","gplace_id":null,"gplace_url":"https://maps.google.com/?cid=2731484069751493675","dealerID":77080,"trusted":false,"image_id":"v1597283945/landrover_RM.png","phone":"8554741292","cityStateSlug":"chandler.az","slug":"Chandler.AZ/land+rover+chandler","location":"33.3266551,-111.9711593","brandsList":["land rover"]},{"id":9797,"crm_id":115515458,"name":"Mercedes-Benz of North Scottsdale","dealerSlug":"mercedes+benz+of+north+scottsdale","city_state_slug":"Phoenix.AZ","brand":"Mercedes-Benz","website":"www.mbofnorthscottsdale.com","address":"18530 N Scottsdale Rd","city":"Phoenix","state":"AZ","zip":85054,"latitude":33.652529,"longitude":-111.9264588,"phone_number_service":"8444002067","phone_number_main":"4804707746","service_hours":"Mo-Fr 07:00 - 18:00","utc_offset":"-420","gplace_id":null,"gplace_url":"https://maps.google.com/?cid=10634169760768139247","dealerID":77081,"trusted":false,"image_id":"v1597283934/mercedes_RM.png","phone":"8444002067","cityStateSlug":"phoenix.az","slug":"Phoenix.AZ/mercedes+benz+of+north+scottsdale","location":"33.652529,-111.9264588","brandsList":["mercedes-benz"]},{"id":772,"crm_id":115533652,"name":"AutoNation Chevrolet Arrowhead","dealerSlug":"autonation+chevrolet+arrowhead","city_state_slug":"Peoria.AZ","brand":"Chevrolet","website":"www.autonationchevroletarrowhead.com","address":"9055 W Bell Rd Suite A","city":"Peoria","state":"AZ","zip":85382,"latitude":33.6372476,"longitude":-112.2520763,"phone_number_service":"6237485317","phone_number_main":"6234321719","service_hours":"Mo-Fr 07:00 - 19:00 | Sa 07:00 - 16:00","utc_offset":"-420","gplace_id":null,"gplace_url":"https://maps.google.com/?cid=11835590713825304306","dealerID":77098,"trusted":false,"image_id":"v1597284079/chevy_ms.png","phone":"6237485317","cityStateSlug":"peoria.az","slug":"Peoria.AZ/autonation+chevrolet+arrowhead","location":"33.6372476,-112.2520763","brandsList":["chevrolet"]},{"id":775,"crm_id":115533653,"name":"AutoNation Chevrolet Gilbert","dealerSlug":"autonation+chevrolet+gilbert","city_state_slug":"Gilbert.AZ","brand":"Chevrolet","website":"www.autonationchevroletgilbert.com","address":"3215 S Auto Way","city":"Gilbert","state":"AZ","zip":85297,"latitude":33.294308,"longitude":-111.7569744,"phone_number_service":"4803592273","phone_number_main":"4806302821","service_hours":"Mo-Fr 07:00 - 19:00 | Sa 07:00 - 16:00","utc_offset":"-420","gplace_id":null,"gplace_url":"https://maps.google.com/?cid=9318802862585980125","dealerID":77099,"trusted":false,"image_id":"v1597284079/chevy_ms.png","phone":"4803592273","cityStateSlug":"gilbert.az","slug":"Gilbert.AZ/autonation+chevrolet+gilbert","location":"33.294308,-111.7569744","brandsList":["chevrolet"]},{"id":779,"crm_id":115533654,"name":"Autonation Chevrolet Mesa","dealerSlug":"autonation+chevrolet+mesa","city_state_slug":"Mesa.AZ","brand":"Chevrolet","website":"www.autonationchevroletmesa.com","address":"6330 E Superstition Springs Blvd","city":"Mesa","state":"AZ","zip":85206,"latitude":33.3904269,"longitude":-111.6950079,"phone_number_service":"4803593432","phone_number_main":"4806303890","service_hours":"Mo-Fr 07:00 - 19:00 | Sa 07:00 - 16:00","utc_offset":"-420","gplace_id":null,"gplace_url":"https://maps.google.com/?cid=2485334648060321511","dealerID":77100,"trusted":false,"image_id":"v1597284079/chevy_ms.png","phone":"4803593432","cityStateSlug":"mesa.az","slug":"Mesa.AZ/autonation+chevrolet+mesa","location":"33.3904269,-111.6950079","brandsList":["chevrolet"]},{"id":792,"crm_id":115533676,"name":"AutoNation Chrysler Dodge Jeep RAM & FIAT North Phoenix","dealerSlug":"autonation+chrysler+dodge+jeep+ram+and+fiat+north+phoenix","city_state_slug":"Phoenix.AZ","brand":"Chrysler,Dodge,Jeep,RAM,Fiat","website":"www.autonationchryslerdodgejeepramnorthphoenix.com","address":"16406 N 26th Ave","city":"Phoenix","state":"AZ","zip":85023,"latitude":33.6353108,"longitude":-112.114198,"phone_number_service":"4804008441","phone_number_main":"4806302825","service_hours":"Mo-Fr 07:00 - 19:00 | Sa 07:00 - 17:00","utc_offset":"-420","gplace_id":null,"gplace_url":"https://maps.google.com/?cid=16951567314125591512","dealerID":77116,"trusted":false,"image_id":"v1597283975/chrysler_RM.png","phone":"4804008441","cityStateSlug":"phoenix.az","slug":"Phoenix.AZ/autonation+chrysler+dodge+jeep+ram+and+fiat+north+phoenix","location":"33.6353108,-112.114198","brandsList":["chrysler","dodge","jeep","ram","fiat"]},{"id":846,"crm_id":115533680,"name":"AutoNation Honda Chandler","dealerSlug":"autonation+honda+chandler","city_state_slug":"Chandler.AZ","brand":"Honda","website":"www.autonationhondachandler.com","address":"1150 S Gilbert Rd","city":"Chandler","state":"AZ","zip":85286,"latitude":33.289281,"longitude":-111.791829,"phone_number_service":"4805055186","phone_number_main":"4805055186","service_hours":"Mo-Fr 07:00 - 19:00 | Sa 07:00 - 16:00","utc_offset":"-420","gplace_id":null,"gplace_url":"https://maps.google.com/?cid=11260506239391064935","dealerID":77120,"trusted":false,"image_id":"v1597284047/honda_ms.png","phone":"4805055186","cityStateSlug":"chandler.az","slug":"Chandler.AZ/autonation+honda+chandler","location":"33.289281,-111.791829","brandsList":["honda"]},{"id":865,"crm_id":115533685,"name":"AutoNation Honda Tucson Auto Mall","dealerSlug":"autonation+honda+tucson+auto+mall","city_state_slug":"Tucson.AZ","brand":"Honda","website":"www.autonationhondatucsonautomall.com","address":"810 W Wetmore Rd","city":"Tucson","state":"AZ","zip":85705,"latitude":32.2872222,"longitude":-110.9858333,"phone_number_service":"5205492238","phone_number_main":"5205492238","service_hours":"Mo-Fr 07:00 - 18:00 | Sa 07:00 - 16:00","utc_offset":"-420","gplace_id":null,"gplace_url":"https://maps.google.com/?cid=9171976360806211872","dealerID":77125,"trusted":false,"image_id":"v1597284047/honda_ms.png","phone":"5205492238","cityStateSlug":"tucson.az","slug":"Tucson.AZ/autonation+honda+tucson+auto+mall","location":"32.2872222,-110.9858333","brandsList":["honda"]},{"id":880,"crm_id":115533694,"name":"AutoNation Nissan Chandler","dealerSlug":"autonation+nissan+chandler","city_state_slug":"Chandler.AZ","brand":"Nissan","website":"www.autonationnissanchandler.com","address":"1350 S Gilbert Rd","city":"Chandler","state":"AZ","zip":85286,"latitude":33.2866226,"longitude":-111.7909061,"phone_number_service":"4806302828","phone_number_main":"4806302828","service_hours":"Mo-Fr 07:00 - 19:00 | Sa 07:00 - 16:00","utc_offset":"-420","gplace_id":null,"gplace_url":"https://maps.google.com/?cid=15380265773731302780","dealerID":77130,"trusted":false,"image_id":"v1597283926/nissan_RM.png","phone":"4806302828","cityStateSlug":"chandler.az","slug":"Chandler.AZ/autonation+nissan+chandler","location":"33.2866226,-111.7909061","brandsList":["nissan"]},{"id":886,"crm_id":115533695,"name":"AutoNation Nissan Tempe","dealerSlug":"autonation+nissan+tempe","city_state_slug":"Tempe.AZ","brand":"Nissan","website":"www.autonationnissantempe.com","address":"7755 S Autoplex Loop","city":"Tempe","state":"AZ","zip":85284,"latitude":33.346072,"longitude":-111.967352,"phone_number_service":"4806302829","phone_number_main":"4806302829","service_hours":"Mo-Fr 07:00 - 19:00 | Sa 07:00 - 16:00","utc_offset":"-420","gplace_id":null,"gplace_url":"https://maps.google.com/?cid=14634488881578515002","dealerID":77131,"trusted":false,"image_id":"v1597283926/nissan_RM.png","phone":"4806302829","cityStateSlug":"tempe.az","slug":"Tempe.AZ/autonation+nissan+tempe","location":"33.346072,-111.967352","brandsList":["nissan"]}]