[{"id":17950,"crm_id":999,"name":"Phil Long Genesis of Colorado Springs Service","dealerSlug":"phil+long+genesis+of+colorado+springs+service","city_state_slug":"Colorado-Springs.CO","brand":"Genesis","website":"www.phillong.com","address":"1540 Auto Mall Loop","city":"Colorado Springs","state":"CO","zip":80905,"latitude":38.954279,"longitude":-104.797968,"phone_number_service":"8558850865","phone_number_main":"","service_hours":"Mo-Sa 09:00 - 19:00","utc_offset":"","gplace_id":0,"gplace_url":"","dealerID":60037,"trusted":false,"image_id":"v2-motorsafety/assets/images/default-logo","phone":"8558850865","cityStateSlug":"colorado-springs.co","slug":"Colorado-Springs.CO/phil+long+genesis+of+colorado+springs+service","location":"38.954279,-104.797968","brandsList":["genesis"]},{"id":16180,"crm_id":999,"name":"Cook Subaru","dealerSlug":"cook+subaru","city_state_slug":"Steamboat-Springs.CO","brand":"Subaru","website":"CookSubaru.dealer.subaru.com","address":"1955 Curve Court","city":"Steamboat Springs","state":"CO","zip":80487,"latitude":40.49987,"longitude":-106.85535,"phone_number_service":"5706227191","phone_number_main":"","service_hours":"","utc_offset":"","gplace_id":0,"gplace_url":"","dealerID":60160,"trusted":false,"image_id":"v1597283982/subaru_ms.png","phone":"5706227191","cityStateSlug":"steamboat-springs.co","slug":"Steamboat-Springs.CO/cook+subaru","location":"40.49987,-106.85535","brandsList":["subaru"]},{"id":16418,"crm_id":999,"name":"Flatirons Subaru","dealerSlug":"flatirons+subaru","city_state_slug":"Boulder.CO","brand":"Subaru","website":"FlatironsSubaru.dealer.subaru.com","address":"5995 Arapahoe Ave","city":"Boulder","state":"CO","zip":80303,"latitude":40.015199,"longitude":-105.213136,"phone_number_service":"6788546700","phone_number_main":"","service_hours":"","utc_offset":"","gplace_id":0,"gplace_url":"","dealerID":60202,"trusted":false,"image_id":"v1597283982/subaru_ms.png","phone":"6788546700","cityStateSlug":"boulder.co","slug":"Boulder.CO/flatirons+subaru","location":"40.015199,-105.213136","brandsList":["subaru"]},{"id":17082,"crm_id":999,"name":"Mike Maroone VW N Colorado Springs","dealerSlug":"mike+maroone+vw+n+colorado+springs","city_state_slug":"Colorado-Springs.CO","brand":"Volkswagen","website":"www.mikemaroonevw.com","address":"1580 Auto Mall Loop","city":"Colorado Springs","state":"CO","zip":80920,"latitude":38.9528,"longitude":-104.794,"phone_number_service":"7014767000","phone_number_main":"","service_hours":"Mo-Sa 09:00 - 20:00 | Su Closed","utc_offset":"","gplace_id":0,"gplace_url":"","dealerID":60203,"trusted":false,"image_id":"v1597283902/volkswagen.png","phone":"7014767000","cityStateSlug":"colorado-springs.co","slug":"Colorado-Springs.CO/mike+maroone+vw+n+colorado+springs","location":"38.9528,-104.794","brandsList":["volkswagen"]},{"id":16340,"crm_id":999,"name":"Durango Toyota","dealerSlug":"durango+toyota","city_state_slug":"Durango.CO","brand":"Toyota","website":"www.durangotoyota.com","address":"1200 Carbon Junction","city":"Durango","state":"CO","zip":81301,"latitude":37.230452,"longitude":-107.861592,"phone_number_service":"7043794000","phone_number_main":"","service_hours":"Mo-Fr 08:00 - 19:00 | Sa 09:00 - 17:00","utc_offset":"","gplace_id":0,"gplace_url":"","dealerID":60207,"trusted":false,"image_id":"v1597284039/toyota_ms.png","phone":"7043794000","cityStateSlug":"durango.co","slug":"Durango.CO/durango+toyota","location":"37.230452,-107.861592","brandsList":["toyota"]},{"id":17714,"crm_id":999,"name":"Town&Country Car/Trk Cntr","dealerSlug":"townandcountry+car+trk+cntr","city_state_slug":"Alamosa.CO","brand":"Chrysler,Dodge,Jeep,RAM","website":"www.dodgealamosa.com","address":"20 Kraft Extension","city":"Alamosa","state":"CO","zip":81101,"latitude":37.473547,"longitude":-105.894235,"phone_number_service":"7195871800","phone_number_main":"","service_hours":"Mo-Sa 08:00 - 18:00 | Su Closed","utc_offset":"","gplace_id":0,"gplace_url":"","dealerID":60241,"trusted":false,"image_id":"v1597283975/chrysler_RM.png","phone":"7195871800","cityStateSlug":"alamosa.co","slug":"Alamosa.CO/townandcountry+car+trk+cntr","location":"37.473547,-105.894235","brandsList":["chrysler","dodge","jeep","ram"]},{"id":15959,"crm_id":999,"name":"Bighorn Toyota","dealerSlug":"bighorn+toyota","city_state_slug":"Glenwood-Springs.CO","brand":"Toyota","website":"www.bighorntoyota.com","address":"130 Center Drive","city":"Glenwood Springs","state":"CO","zip":81601,"latitude":39.562797,"longitude":-107.368132,"phone_number_service":"8023346523","phone_number_main":"9709458547","service_hours":"Mo-Fr 08:30 - 18:00 | Sa 09:00 - 17:00","utc_offset":"","gplace_id":0,"gplace_url":"","dealerID":60259,"trusted":false,"image_id":"v1597284039/toyota_ms.png","phone":"8023346523","cityStateSlug":"glenwood-springs.co","slug":"Glenwood-Springs.CO/bighorn+toyota","location":"39.562797,-107.368132","brandsList":["toyota"]},{"id":17769,"crm_id":999,"name":"Valley Subaru of Longmont","dealerSlug":"valley+subaru+of+longmont","city_state_slug":"Longmont.CO","brand":"Subaru","website":"ValleySubaruLongmont.dealer.subaru.com","address":"1800 Industrial Circle","city":"Longmont","state":"CO","zip":80501,"latitude":40.147964,"longitude":-105.12274,"phone_number_service":"8053692400","phone_number_main":"","service_hours":"","utc_offset":"","gplace_id":0,"gplace_url":"","dealerID":60266,"trusted":false,"image_id":"v1597283982/subaru_ms.png","phone":"8053692400","cityStateSlug":"longmont.co","slug":"Longmont.CO/valley+subaru+of+longmont","location":"40.147964,-105.12274","brandsList":["subaru"]},{"id":17120,"crm_id":999,"name":"Morehart Murphy Subaru","dealerSlug":"morehart+murphy+subaru","city_state_slug":"Durango.CO","brand":"Subaru","website":"MorehartSubaru.dealer.subaru.com","address":"33 Parker Ave","city":"Durango","state":"CO","zip":81303,"latitude":37.237239,"longitude":-107.872366,"phone_number_service":"8154322418","phone_number_main":"","service_hours":"","utc_offset":"","gplace_id":0,"gplace_url":"","dealerID":60285,"trusted":false,"image_id":"v1597283982/subaru_ms.png","phone":"8154322418","cityStateSlug":"durango.co","slug":"Durango.CO/morehart+murphy+subaru","location":"37.237239,-107.872366","brandsList":["subaru"]},{"id":16424,"crm_id":999,"name":"Flower Subaru","dealerSlug":"flower+subaru","city_state_slug":"Montrose.CO","brand":"Subaru","website":"FlowerSubaru.dealer.subaru.com","address":"1760 N Townsend Ave","city":"Montrose","state":"CO","zip":81401,"latitude":38.494747,"longitude":-107.89504,"phone_number_service":"9126852141","phone_number_main":"","service_hours":"","utc_offset":"","gplace_id":0,"gplace_url":"","dealerID":60327,"trusted":false,"image_id":"v1597283982/subaru_ms.png","phone":"9126852141","cityStateSlug":"montrose.co","slug":"Montrose.CO/flower+subaru","location":"38.494747,-107.89504","brandsList":["subaru"]},{"id":17115,"crm_id":999,"name":"Montrose Nissan","dealerSlug":"montrose+nissan","city_state_slug":"Montrose.CO","brand":"Nissan","website":"www.montrosenissan.com","address":"100 MERCHANT DR","city":"Montrose","state":"CO","zip":16148,"latitude":38.489731,"longitude":-107.891938,"phone_number_service":"9702494576","phone_number_main":"","service_hours":"Mo-Fr 08:30 - 17:30\n | Sa 09:00 - 17:00\n | Su Closed","utc_offset":"","gplace_id":0,"gplace_url":"","dealerID":60334,"trusted":false,"image_id":"v1597283926/nissan_RM.png","phone":"9702494576","cityStateSlug":"montrose.co","slug":"Montrose.CO/montrose+nissan","location":"38.489731,-107.891938","brandsList":["nissan"]},{"id":17114,"crm_id":999,"name":"Montrose Ford","dealerSlug":"montrose+ford","city_state_slug":"Montrose.CO","brand":"Ford","website":"www.montroseford.net","address":"100 Merchant Drive","city":"Montrose","state":"CO","zip":81401,"latitude":38.489731,"longitude":-107.891938,"phone_number_service":"9702494576","phone_number_main":"","service_hours":"","utc_offset":"","gplace_id":0,"gplace_url":"","dealerID":60335,"trusted":false,"image_id":"v1597283967/ford_RM.png","phone":"9702494576","cityStateSlug":"montrose.co","slug":"Montrose.CO/montrose+ford","location":"38.489731,-107.891938","brandsList":["ford"]},{"id":16325,"crm_id":999,"name":"Martin's Dove Creek Implement","dealerSlug":"martins+dove+creek+implement","city_state_slug":"Dove-Creek.CO","brand":"Ford","website":"","address":"207 West Hwy 666","city":"Dove Creek","state":"CO","zip":81324,"latitude":37.763508,"longitude":-108.905269,"phone_number_service":"9706772274","phone_number_main":"","service_hours":"","utc_offset":"","gplace_id":0,"gplace_url":"","dealerID":60337,"trusted":false,"image_id":"v1597283967/ford_RM.png","phone":"9706772274","cityStateSlug":"dove-creek.co","slug":"Dove-Creek.CO/martins+dove+creek+implement","location":"37.763508,-108.905269","brandsList":["ford"]},{"id":16339,"crm_id":999,"name":"Durango Ford","dealerSlug":"durango+ford","city_state_slug":"Durango.CO","brand":"Ford","website":"www.durangoford.net","address":"1200 Carbon Junction","city":"Durango","state":"CO","zip":81301,"latitude":37.229995,"longitude":-107.860444,"phone_number_service":"9703854822","phone_number_main":"","service_hours":"Mo-Fr 08:00 - 18:00 | Sa 09:00 - 17:00 | Su Closed","utc_offset":"","gplace_id":0,"gplace_url":"","dealerID":60346,"trusted":false,"image_id":"v1597283967/ford_RM.png","phone":"9703854822","cityStateSlug":"durango.co","slug":"Durango.CO/durango+ford","location":"37.229995,-107.860444","brandsList":["ford"]},{"id":16805,"crm_id":999,"name":"Keesee Motor Co","dealerSlug":"keesee+motor+co","city_state_slug":"Cortez.CO","brand":"Ford","website":"www.keeseemotorcompany.com","address":"111 S Broadway","city":"Cortez","state":"CO","zip":81321,"latitude":37.34662,"longitude":-108.594893,"phone_number_service":"9705658431","phone_number_main":"","service_hours":"Mo-Fr 07:30 - 17:30 | Sa 08:00 - 17:00 | Su Closed","utc_offset":"","gplace_id":0,"gplace_url":"","dealerID":60495,"trusted":false,"image_id":"v1597283967/ford_RM.png","phone":"9705658431","cityStateSlug":"cortez.co","slug":"Cortez.CO/keesee+motor+co","location":"37.34662,-108.594893","brandsList":["ford"]},{"id":17569,"crm_id":999,"name":"Spradley Hyundai","dealerSlug":"spradley+hyundai","city_state_slug":"Pueblo.CO","brand":"Hyundai","website":"www.hyundaispradley.com","address":"2160 Highway 50 West","city":"Pueblo","state":"CO","zip":81006,"latitude":38.2455763,"longitude":-104.5718889,"phone_number_service":"7195448162","phone_number_main":"","service_hours":"Mo-Fr 07:00 - 18:00 | Sa 07:30 - 14:00","utc_offset":"","gplace_id":0,"gplace_url":"","dealerID":60883,"trusted":false,"image_id":"v1597283959/hyundai_RM.png","phone":"7195448162","cityStateSlug":"pueblo.co","slug":"Pueblo.CO/spradley+hyundai","location":"38.2455763,-104.5718889","brandsList":["hyundai"]},{"id":17372,"crm_id":999,"name":"Red Rock Hyundai","dealerSlug":"red+rock+hyundai","city_state_slug":"Grand-Junction.CO","brand":"Hyundai","website":"www.redrockhyundai.com","address":"2162 Highway 6 And 50","city":"Grand Junction","state":"CO","zip":81505,"latitude":39.115086,"longitude":-108.6523559,"phone_number_service":"9702424200","phone_number_main":"","service_hours":"","utc_offset":"","gplace_id":0,"gplace_url":"","dealerID":60886,"trusted":false,"image_id":"v1597283959/hyundai_RM.png","phone":"9702424200","cityStateSlug":"grand-junction.co","slug":"Grand-Junction.CO/red+rock+hyundai","location":"39.115086,-108.6523559","brandsList":["hyundai"]},{"id":17119,"crm_id":999,"name":"Morehart Murphy Regional Auto Center","dealerSlug":"morehart+murphy+regional+auto+center","city_state_slug":"Durango.CO","brand":"Chrysler,Dodge,Jeep,RAM","website":"www.morehartmurphycdj.com","address":"30 Parker Ave","city":"Durango","state":"CO","zip":81303,"latitude":37.237425,"longitude":-107.872422,"phone_number_service":"9702475043","phone_number_main":"","service_hours":"Mo-Fr 08:00 - 17:30 | Sa 09:00 - 17:00 | Su Closed","utc_offset":"","gplace_id":0,"gplace_url":"","dealerID":61066,"trusted":false,"image_id":"v1597283975/chrysler_RM.png","phone":"9702475043","cityStateSlug":"durango.co","slug":"Durango.CO/morehart+murphy+regional+auto+center","location":"37.237425,-107.872422","brandsList":["chrysler","dodge","jeep","ram"]},{"id":16150,"crm_id":999,"name":"City Auto Plaza","dealerSlug":"city+auto+plaza","city_state_slug":"Canon-City.CO","brand":"Chrysler,Dodge,Jeep","website":"www.cityautoplazachryslerdodgejeep.com","address":"3151 E Hwy 50","city":"Canon City","state":"CO","zip":81212,"latitude":38.44802,"longitude":-105.190036,"phone_number_service":"7192752329","phone_number_main":"","service_hours":"Mo-Sa 08:00 - 17:45 | Su Closed","utc_offset":"","gplace_id":0,"gplace_url":"","dealerID":61125,"trusted":false,"image_id":"v1597283975/chrysler_RM.png","phone":"7192752329","cityStateSlug":"canon-city.co","slug":"Canon-City.CO/city+auto+plaza","location":"38.44802,-105.190036","brandsList":["chrysler","dodge","jeep"]},{"id":16036,"crm_id":999,"name":"Boulder Chrysler Dodge RAM","dealerSlug":"boulder+chrysler+dodge+ram","city_state_slug":"Boulder.CO","brand":"Chrysler,Dodge,Jeep,RAM","website":"www.boulderdodge.com","address":"3200 28th Street","city":"Boulder","state":"CO","zip":80301,"latitude":40.033377,"longitude":-105.257518,"phone_number_service":"3034421687","phone_number_main":"","service_hours":"Mo-Fr 09:00 - 19:00 | Sa 09:00 - 18:00 | Su Closed","utc_offset":"","gplace_id":0,"gplace_url":"","dealerID":61132,"trusted":false,"image_id":"v1597283975/chrysler_RM.png","phone":"3034421687","cityStateSlug":"boulder.co","slug":"Boulder.CO/boulder+chrysler+dodge+ram","location":"40.033377,-105.257518","brandsList":["chrysler","dodge","jeep","ram"]},{"id":17742,"crm_id":999,"name":"Tru West Chrysler Dodge Jeep RAM","dealerSlug":"tru+west+chrysler+dodge+jeep+ram","city_state_slug":"Cortez.CO","brand":"Chrysler,Dodge,Jeep,RAM","website":"www.truwestauto.com","address":"333 South Broadway","city":"Cortez","state":"CO","zip":81321,"latitude":37.344241,"longitude":-108.596669,"phone_number_service":"9705653748","phone_number_main":"","service_hours":"Mo-Fr 08:00 - 18:00 | Sa 09:00 - 17:00 | Su Closed","utc_offset":"","gplace_id":0,"gplace_url":"","dealerID":61154,"trusted":false,"image_id":"v1597283975/chrysler_RM.png","phone":"9705653748","cityStateSlug":"cortez.co","slug":"Cortez.CO/tru+west+chrysler+dodge+jeep+ram","location":"37.344241,-108.596669","brandsList":["chrysler","dodge","jeep","ram"]},{"id":16974,"crm_id":999,"name":"Markley Honda","dealerSlug":"markley+honda","city_state_slug":"Fort-Collins.CO","brand":"Honda","website":"www.markleyhonda.com/","address":"3401 S College Ave","city":"Fort Collins","state":"CO","zip":80525,"latitude":40.54121,"longitude":-105.07718,"phone_number_service":"9702826838","phone_number_main":"9702262213","service_hours":"Mo-Fr 09:00 - 18:30 | Sa 09:00 - 17:30 | Su Closed","utc_offset":"","gplace_id":0,"gplace_url":"","dealerID":61164,"trusted":false,"image_id":"v1597284047/honda_ms.png","phone":"9702826838","cityStateSlug":"fort-collins.co","slug":"Fort-Collins.CO/markley+honda","location":"40.54121,-105.07718","brandsList":["honda"]},{"id":17041,"crm_id":999,"name":"Mercedes-Benz of Loveland","dealerSlug":"mercedes+benz+of+loveland","city_state_slug":"Loveland.CO","brand":"Mercedes-Benz","website":"www.mbloveland.com","address":"4040 Byrd Drive","city":"Loveland","state":"CO","zip":80538,"latitude":40.434653,"longitude":-104.995885,"phone_number_service":"9702782300","phone_number_main":"8883865504","service_hours":"","utc_offset":"","gplace_id":0,"gplace_url":"","dealerID":61251,"trusted":false,"image_id":"v1597283934/mercedes_RM.png","phone":"9702782300","cityStateSlug":"loveland.co","slug":"Loveland.CO/mercedes+benz+of+loveland","location":"40.434653,-104.995885","brandsList":["mercedes-benz"]},{"id":16181,"crm_id":999,"name":"Cooke Motor Company","dealerSlug":"cooke+motor+company","city_state_slug":"Trinidad.CO","brand":"Chrysler,Dodge,Jeep,RAM","website":"www.cookemotordodge.com","address":"422 East Main Street","city":"Trinidad","state":"CO","zip":81082,"latitude":37.169723,"longitude":-104.501829,"phone_number_service":"7198464100","phone_number_main":"","service_hours":"Mo-Fr 08:00 - 19:00 | Sa 08:00 - 17:00 | Su Closed","utc_offset":"","gplace_id":0,"gplace_url":"","dealerID":61280,"trusted":false,"image_id":"v1597283975/chrysler_RM.png","phone":"7198464100","cityStateSlug":"trinidad.co","slug":"Trinidad.CO/cooke+motor+company","location":"37.169723,-104.501829","brandsList":["chrysler","dodge","jeep","ram"]},{"id":16182,"crm_id":999,"name":"Cooke Motor Company","dealerSlug":"cooke+motor+company","city_state_slug":"Trinidad.CO","brand":"Ford","website":"www.cookemotorcoford.com","address":"426 East Main St","city":"Trinidad","state":"CO","zip":81082,"latitude":37.170027,"longitude":-104.5015,"phone_number_service":"7198462264","phone_number_main":"","service_hours":"Mo-Fr 08:00 - 18:00 | Sa 09:00 - 16:00 | Su Closed","utc_offset":"","gplace_id":0,"gplace_url":"","dealerID":61283,"trusted":false,"image_id":"v1597283967/ford_RM.png","phone":"7198462264","cityStateSlug":"trinidad.co","slug":"Trinidad.CO/cooke+motor+company","location":"37.170027,-104.5015","brandsList":["ford"]},{"id":16832,"crm_id":999,"name":"Korf Continental","dealerSlug":"korf+continental","city_state_slug":"Yuma.CO","brand":"Chrysler,Dodge,Jeep,RAM","website":"www.korfcontinental.net","address":"500 West 8th Avenue","city":"Yuma","state":"CO","zip":80737,"latitude":40.989516,"longitude":-102.273554,"phone_number_service":"9708485361","phone_number_main":"","service_hours":"Mo-Sa 10:00 - 16:00 | Su Closed","utc_offset":"","gplace_id":0,"gplace_url":"","dealerID":61349,"trusted":false,"image_id":"v1597283975/chrysler_RM.png","phone":"9708485361","cityStateSlug":"yuma.co","slug":"Yuma.CO/korf+continental","location":"40.989516,-102.273554","brandsList":["chrysler","dodge","jeep","ram"]},{"id":17790,"crm_id":999,"name":"Vidmar Honda","dealerSlug":"vidmar+honda","city_state_slug":"Pueblo.CO","brand":"Honda","website":"www.vidmarhonda.com/","address":"600 N Albany Ave","city":"Pueblo","state":"CO","zip":81003,"latitude":38.272602,"longitude":-104.60555,"phone_number_service":"7195445844","phone_number_main":"","service_hours":"Mo-Sa 09:00 - 19:00 | Su Closed","utc_offset":"","gplace_id":0,"gplace_url":"","dealerID":61433,"trusted":false,"image_id":"v1597284047/honda_ms.png","phone":"7195445844","cityStateSlug":"pueblo.co","slug":"Pueblo.CO/vidmar+honda","location":"38.272602,-104.60555","brandsList":["honda"]},{"id":16831,"crm_id":999,"name":"Korf Continental","dealerSlug":"korf+continental","city_state_slug":"Julesburg.CO","brand":"Ford","website":"www.korfcontinentalford.com","address":"622 West First Street","city":"Julesburg","state":"CO","zip":80737,"latitude":40.983037,"longitude":-102.26925,"phone_number_service":"9704743391","phone_number_main":"","service_hours":"Mo-Fr 08:00 - 17:00 | Sa-Su Closed","utc_offset":"","gplace_id":0,"gplace_url":"","dealerID":61458,"trusted":false,"image_id":"v1597283967/ford_RM.png","phone":"9704743391","cityStateSlug":"julesburg.co","slug":"Julesburg.CO/korf+continental","location":"40.983037,-102.26925","brandsList":["ford"]},{"id":17712,"crm_id":999,"name":"Town And Country C. G.","dealerSlug":"town+and+country+c+g","city_state_slug":"Salida.CO","brand":"Chrysler,Dodge,Jeep,RAM","website":"www.salidajeep.com","address":"6250 East Highway 50","city":"Salida","state":"CO","zip":81201,"latitude":38.468785,"longitude":-105.865438,"phone_number_service":"7195396633","phone_number_main":"","service_hours":"Mo-Sa 08:30 - 18:00 | Su Closed","utc_offset":"","gplace_id":0,"gplace_url":"","dealerID":61463,"trusted":false,"image_id":"v1597283975/chrysler_RM.png","phone":"7195396633","cityStateSlug":"salida.co","slug":"Salida.CO/town+and+country+c+g","location":"38.468785,-105.865438","brandsList":["chrysler","dodge","jeep","ram"]},{"id":17277,"crm_id":999,"name":"Perkins Chrysler Dodge Jeep RAM of La Junta","dealerSlug":"perkins+chrysler+dodge+jeep+ram+of+la+junta","city_state_slug":"La-Junta.CO","brand":"Chrysler,Dodge,Jeep,RAM","website":"www.tricountygroupcdjr.com","address":"801 W 3rd St","city":"La Junta","state":"CO","zip":81050,"latitude":37.986036,"longitude":-103.553485,"phone_number_service":"7193832250","phone_number_main":"","service_hours":"Mo-Sa 08:00 - 18:00 | Su Closed","utc_offset":"","gplace_id":0,"gplace_url":"","dealerID":61585,"trusted":false,"image_id":"v1597283975/chrysler_RM.png","phone":"7193832250","cityStateSlug":"la-junta.co","slug":"La-Junta.CO/perkins+chrysler+dodge+jeep+ram+of+la+junta","location":"37.986036,-103.553485","brandsList":["chrysler","dodge","jeep","ram"]},{"id":16179,"crm_id":999,"name":"Cook Ford","dealerSlug":"cook+ford","city_state_slug":"Craig.CO","brand":"Ford","website":"www.cookfordcraig.com","address":"801 West Victory Way","city":"Craig","state":"CO","zip":81625,"latitude":40.514244,"longitude":-107.557489,"phone_number_service":"9708249441","phone_number_main":"","service_hours":"Mo-Fr 08:00 - 18:00 | Sa 08:00 - 15:00 | Su Closed","utc_offset":"","gplace_id":0,"gplace_url":"","dealerID":61586,"trusted":false,"image_id":"v1597283967/ford_RM.png","phone":"9708249441","cityStateSlug":"craig.co","slug":"Craig.CO/cook+ford","location":"40.514244,-107.557489","brandsList":["ford"]},{"id":17713,"crm_id":999,"name":"Town and Country Salida","dealerSlug":"town+and+country+salida","city_state_slug":"Salida.CO","brand":"Ford","website":"www.tcfordsalida.com","address":"931 East Highway 50","city":"Salida","state":"CO","zip":81201,"latitude":38.524026,"longitude":-105.993043,"phone_number_service":"7195396633","phone_number_main":"","service_hours":"Mo-Sa 08:00 - 18:00 | Su Closed","utc_offset":"","gplace_id":0,"gplace_url":"","dealerID":61689,"trusted":false,"image_id":"v1597283967/ford_RM.png","phone":"7195396633","cityStateSlug":"salida.co","slug":"Salida.CO/town+and+country+salida","location":"38.524026,-105.993043","brandsList":["ford"]},{"id":15866,"crm_id":999,"name":"Audi Glenwood Springs","dealerSlug":"audi+glenwood+springs","city_state_slug":"Glenwood-Springs.CO","brand":"Audi","website":"www.audiglenwoodsprings.com","address":"Riverine Road 100","city":"Glenwood Springs","state":"CO","zip":81601,"latitude":39.5607,"longitude":-107.366,"phone_number_service":"2567243499","phone_number_main":"","service_hours":"Mo-Sa 09:00 - 17:00","utc_offset":"","gplace_id":0,"gplace_url":"","dealerID":61751,"trusted":false,"image_id":"v1597283985/audi_RM.png","phone":"2567243499","cityStateSlug":"glenwood-springs.co","slug":"Glenwood-Springs.CO/audi+glenwood+springs","location":"39.5607,-107.366","brandsList":["audi"]},{"id":12939,"crm_id":51925462,"name":"Schomp Honda","dealerSlug":"schomp+honda","city_state_slug":"Highlands-Ranch.CO","brand":"Honda","website":"www.schomphonda.com","address":"1003 Plum Valley Ln","city":"Highlands Ranch","state":"CO","zip":80129,"latitude":39.5603549,"longitude":-105.0007152,"phone_number_service":"8885945694","phone_number_main":"3037981500","service_hours":"Tu-Sa 08:00 - 18:00","utc_offset":"-360","gplace_id":null,"gplace_url":"https://maps.google.com/?cid=1918378050746520538","dealerID":50025,"trusted":true,"image_id":"v1597284047/honda_ms.png","phone":"8885945694","cityStateSlug":"highlands-ranch.co","slug":"Highlands-Ranch.CO/schomp+honda","location":"39.5603549,-105.0007152","brandsList":["honda"]},{"id":12938,"crm_id":51925999,"name":"Schomp BMW","dealerSlug":"schomp+bmw","city_state_slug":"Highlands-Ranch.CO","brand":"BMW","website":"www.schompbmw.com","address":"1190 Plum Valley Ln","city":"Highlands Ranch","state":"CO","zip":80129,"latitude":39.560193,"longitude":-105.002088,"phone_number_service":"7207764327","phone_number_main":"3037301300","service_hours":"Mo Closed | Tu-Sa 08:00 - 18:00","utc_offset":"-360","gplace_id":null,"gplace_url":"https://maps.google.com/?cid=12512664780208706890","dealerID":50068,"trusted":true,"image_id":"v1597283982/bmw_RM.png","phone":"7207764327","cityStateSlug":"highlands-ranch.co","slug":"Highlands-Ranch.CO/schomp+bmw","location":"39.560193,-105.002088","brandsList":["bmw"]},{"id":3109,"crm_id":51926446,"name":"Co's BMW Center","dealerSlug":"cos+bmw+center","city_state_slug":"Loveland.CO","brand":"BMW","website":"www.cosbmw.com","address":"4150 Byrd Dr","city":"Loveland","state":"CO","zip":80538,"latitude":40.435036,"longitude":-104.994644,"phone_number_service":"9702352837","phone_number_main":"9702925200","service_hours":"Mo-Fr 07:30 - 17:30 | Sa 08:30 - 16:00","utc_offset":"-360","gplace_id":null,"gplace_url":"https://maps.google.com/?cid=2480712981203532210","dealerID":51510,"trusted":true,"image_id":"v1597283982/bmw_RM.png","phone":"9702352837","cityStateSlug":"loveland.co","slug":"Loveland.CO/cos+bmw+center","location":"40.435036,-104.994644","brandsList":["bmw"]},{"id":11477,"crm_id":51926500,"name":"Phil Long Ford of Chapel Hills","dealerSlug":"phil+long+ford+of+chapel+hills","city_state_slug":"Colorado-Springs.CO","brand":"Ford","website":"www.phillongford.com","address":"1565 Auto Mall Loop","city":"Colorado Springs","state":"CO","zip":80920,"latitude":38.9522796,"longitude":-104.7958106,"phone_number_service":"7193875715","phone_number_main":"7192395664","service_hours":"Mo-Fr 07:00 - 18:00 | Sa 07:00 - 16:00","utc_offset":"-360","gplace_id":null,"gplace_url":"https://maps.google.com/?cid=14956867372848891262","dealerID":62148,"trusted":false,"image_id":"v1597283967/ford_RM.png","phone":"7193875715","cityStateSlug":"colorado-springs.co","slug":"Colorado-Springs.CO/phil+long+ford+of+chapel+hills","location":"38.9522796,-104.7958106","brandsList":["ford"]},{"id":10152,"crm_id":51926542,"name":"MINI of Loveland","dealerSlug":"mini+of+loveland","city_state_slug":"Loveland.CO","brand":"MINI","website":"www.miniofloveland.com","address":"4055 Byrd Dr","city":"Loveland","state":"CO","zip":80538,"latitude":40.43438,"longitude":-104.996489,"phone_number_service":"9706448542","phone_number_main":"9702925020","service_hours":"Mo-Fr 07:30 - 17:30","utc_offset":"-360","gplace_id":null,"gplace_url":"https://maps.google.com/?cid=10062767076988329318","dealerID":51884,"trusted":true,"image_id":"v1597283930/mini_RM.png","phone":"9706448542","cityStateSlug":"loveland.co","slug":"Loveland.CO/mini+of+loveland","location":"40.43438,-104.996489","brandsList":["mini"]},{"id":15629,"crm_id":51926824,"name":"Woodmen Nissan","dealerSlug":"woodmen+nissan","city_state_slug":"Colorado-Springs.CO","brand":"Nissan","website":"www.woodmennissan.com/","address":"6840 Vincent Dr","city":"Colorado Springs","state":"CO","zip":80918,"latitude":38.930906,"longitude":-104.8115592,"phone_number_service":"8773791705","phone_number_main":"7192449553","service_hours":"Mo-Fr 07:00 - 18:00 | Sa 08:00 - 18:00","utc_offset":"-360","gplace_id":null,"gplace_url":"https://maps.google.com/?cid=9580195446576339330","dealerID":62168,"trusted":false,"image_id":"v1597283926/nissan_RM.png","phone":"8773791705","cityStateSlug":"colorado-springs.co","slug":"Colorado-Springs.CO/woodmen+nissan","location":"38.930906,-104.8115592","brandsList":["nissan"]},{"id":5451,"crm_id":53607433,"name":"Gebhardt Volkswagen","dealerSlug":"gebhardt+volkswagen","city_state_slug":"Boulder.CO","brand":"Volkswagen","website":"www.gebhardtvw.com","address":"2470 49th St","city":"Boulder","state":"CO","zip":80301,"latitude":40.0226325,"longitude":-105.2372634,"phone_number_service":"8443811568","phone_number_main":"3034441644","service_hours":"Mo-Fr 07:30 - 18:00","utc_offset":"-360","gplace_id":null,"gplace_url":"https://maps.google.com/?cid=5782465886384882382","dealerID":50178,"trusted":true,"image_id":"v1597283902/volkswagen.png","phone":"8443811568","cityStateSlug":"boulder.co","slug":"Boulder.CO/gebhardt+volkswagen","location":"40.0226325,-105.2372634","brandsList":["volkswagen"]},{"id":7529,"crm_id":53718487,"name":"John Elway Cadillac of Park Meadows","dealerSlug":"john+elway+cadillac+of+park+meadows","city_state_slug":"Lone-Tree.CO","brand":"Cadillac","website":"www.johnelwaycadillac.com","address":"8201 E Parkway Dr","city":"Lone Tree","state":"CO","zip":80124,"latitude":39.5654837,"longitude":-104.8928754,"phone_number_service":"3038724627","phone_number_main":"3037991110","service_hours":"Mo-Fr 07:00-18:00 | Sa 08:00-16:00","utc_offset":"-360","gplace_id":null,"gplace_url":"https://maps.google.com/?cid=16720709718834715390","dealerID":62277,"trusted":false,"image_id":"v1597283980/cadillac.png","phone":"3038724627","cityStateSlug":"lone-tree.co","slug":"Lone-Tree.CO/john+elway+cadillac+of+park+meadows","location":"39.5654837,-104.8928754","brandsList":["cadillac"]},{"id":8132,"crm_id":56400181,"name":"Kuni Lexus of Greenwood Village","dealerSlug":"kuni+lexus+of+greenwood+village","city_state_slug":"Greenwood-Village.CO","brand":"Lexus","website":"www.kunilexusofgreenwoodvillage.com","address":"5150 S Quebec St","city":"Greenwood Village","state":"CO","zip":80111,"latitude":39.6226557,"longitude":-104.9025678,"phone_number_service":"8889188637","phone_number_main":"8889188637","service_hours":"Mo-Fr 07:00 - 18:00 | Sa 08:00 - 17:00","utc_offset":"-360","gplace_id":null,"gplace_url":"https://maps.google.com/?cid=17218751046053110798","dealerID":50240,"trusted":true,"image_id":"v1597284042/lexus_ms.png","phone":"8889188637","cityStateSlug":"greenwood-village.co","slug":"Greenwood-Village.CO/kuni+lexus+of+greenwood+village","location":"39.6226557,-104.9025678","brandsList":["lexus"]},{"id":4525,"crm_id":57334282,"name":"Emich Volkswagen","dealerSlug":"emich+volkswagen","city_state_slug":"Denver.CO","brand":"Volkswagen","website":"www.emichvw.com","address":"350 S Santa Fe Dr","city":"Denver","state":"CO","zip":80223,"latitude":39.7099572,"longitude":-104.9961478,"phone_number_service":"8774174265","phone_number_main":"8773802203","service_hours":"Mo-Fr 07:00 - 18:00 | Sa 08:00 - 16:00","utc_offset":"-360","gplace_id":null,"gplace_url":"https://maps.google.com/?cid=10074201435272491932","dealerID":50255,"trusted":true,"image_id":"v1597283902/volkswagen.png","phone":"8774174265","cityStateSlug":"denver.co","slug":"Denver.CO/emich+volkswagen","location":"39.7099572,-104.9961478","brandsList":["volkswagen"]},{"id":4524,"crm_id":59181664,"name":"Emich Chevrolet","dealerSlug":"emich+chevrolet","city_state_slug":"Lakewood.CO","brand":"Chevrolet","website":"www.emichchevrolet.com","address":"2033 S Wadsworth Blvd","city":"Lakewood","state":"CO","zip":80227,"latitude":39.6797311,"longitude":-105.0825938,"phone_number_service":"8553160984","phone_number_main":"3036475376","service_hours":"Mo-Fr 07:00 - 18:00 | Sa 08:00 - 16:00","utc_offset":"-360","gplace_id":null,"gplace_url":"https://maps.google.com/?cid=5976911650479252601","dealerID":50269,"trusted":true,"image_id":"v1597284079/chevy_ms.png","phone":"8553160984","cityStateSlug":"lakewood.co","slug":"Lakewood.CO/emich+chevrolet","location":"39.6797311,-105.0825938","brandsList":["chevrolet"]},{"id":13676,"crm_id":59601025,"name":"Stevinson Hyundai of Longmont","dealerSlug":"stevinson+hyundai+of+longmont","city_state_slug":"Longmont.CO","brand":"Hyundai","website":"www.stevinsonhyundai.com","address":"600 S Main St","city":"Longmont","state":"CO","zip":80501,"latitude":40.1518167,"longitude":-105.1020934,"phone_number_service":"8332066889","phone_number_main":"7208935697","service_hours":"Mo-Fr 07:30 - 17:30 | Sa 08:00 - 14:00","utc_offset":"-360","gplace_id":null,"gplace_url":"https://maps.google.com/?cid=7323366583388046427","dealerID":62415,"trusted":false,"image_id":"v1597283959/hyundai_RM.png","phone":"8332066889","cityStateSlug":"longmont.co","slug":"Longmont.CO/stevinson+hyundai+of+longmont","location":"40.1518167,-105.1020934","brandsList":["hyundai"]},{"id":13497,"crm_id":59601028,"name":"Spradley Ford Lincoln","dealerSlug":"spradley+ford+lincoln","city_state_slug":"Pueblo.CO","brand":"Ford,Lincoln","website":"www.spradleyford.com/","address":"2828 HWY 50 West","city":"Pueblo","state":"CO","zip":81008,"latitude":38.3104951,"longitude":-104.6437519,"phone_number_service":"8886775319","phone_number_main":"7195448162","service_hours":"Mo-Fr 07:00 - 18:00 | Fr 07:30 - 16:00","utc_offset":"-360","gplace_id":null,"gplace_url":"https://maps.google.com/?cid=11252761797161793253","dealerID":62416,"trusted":false,"image_id":"v1597283967/ford_RM.png","phone":"8886775319","cityStateSlug":"pueblo.co","slug":"Pueblo.CO/spradley+ford+lincoln","location":"38.3104951,-104.6437519","brandsList":["ford","lincoln"]},{"id":11425,"crm_id":59601049,"name":"Perkins Motors","dealerSlug":"perkins+motors","city_state_slug":"Colorado-Springs.CO","brand":"Chrysler,Dodge,Jeep,RAM,Fiat","website":"www.perkinsmotors.com","address":"1205 Motor City Dr","city":"Colorado Springs","state":"CO","zip":80905,"latitude":38.817639,"longitude":-104.833321,"phone_number_service":"8556468801","phone_number_main":"7192492040","service_hours":"Mo-Fr 07:00 - 17:30 | Sa 07:00 - 17:30","utc_offset":"-360","gplace_id":null,"gplace_url":"https://maps.google.com/?cid=4694864510848642846","dealerID":62419,"trusted":false,"image_id":"v1597283975/chrysler_RM.png","phone":"8556468801","cityStateSlug":"colorado-springs.co","slug":"Colorado-Springs.CO/perkins+motors","location":"38.817639,-104.833321","brandsList":["chrysler","dodge","jeep","ram","fiat"]},{"id":11343,"crm_id":59942353,"name":"Peak Kia Colorado Springs","dealerSlug":"peak+kia+colorado+springs","city_state_slug":"Colorado-Springs.CO","brand":"Kia","website":"www.peakkiacoloradosprings.com","address":"1560 Auto Mall Loop","city":"Colorado Springs","state":"CO","zip":80920,"latitude":38.953916,"longitude":-104.796605,"phone_number_service":"7197856130","phone_number_main":"7197856100","service_hours":"Mo-Fr 07:00 - 18:00 | Sa 08:00 - 16:00","utc_offset":"-360","gplace_id":null,"gplace_url":"https://maps.google.com/?cid=2967950479286914763","dealerID":62435,"trusted":false,"image_id":"v1597283948/kia_RM.png","phone":"7197856130","cityStateSlug":"colorado-springs.co","slug":"Colorado-Springs.CO/peak+kia+colorado+springs","location":"38.953916,-104.796605","brandsList":["kia"]},{"id":2918,"crm_id":60526786,"name":"Christopher's Dodge RAM","dealerSlug":"christophers+dodge+ram","city_state_slug":"Golden.CO","brand":"Dodge,RAM","website":"www.cdodge.com","address":"16655 W Colfax Ave","city":"Golden","state":"CO","zip":80401,"latitude":39.72743,"longitude":-105.1868658,"phone_number_service":"8442811943","phone_number_main":"3032387311","service_hours":"Mo-Fr 07:00 - 18:00 | Sa 08:00 - 16:00","utc_offset":"-360","gplace_id":null,"gplace_url":"https://maps.google.com/?cid=16217264499788658910","dealerID":62457,"trusted":false,"image_id":"v1597283974/dodge.png","phone":"8442811943","cityStateSlug":"golden.co","slug":"Golden.CO/christophers+dodge+ram","location":"39.72743,-105.1868658","brandsList":["dodge","ram"]},{"id":11632,"crm_id":60526837,"name":"Pollard Jeep of Boulder","dealerSlug":"pollard+jeep+of+boulder","city_state_slug":"Boulder.CO","brand":"Jeep","website":"www.boulderjeep.com","address":"5075 East Pearl Pkwy","city":"Boulder","state":"CO","zip":80301,"latitude":40.0230969,"longitude":-105.2342682,"phone_number_service":"3037855253","phone_number_main":"8444700549","service_hours":"Mo-Fr 07:00 - 18:00","utc_offset":"-360","gplace_id":null,"gplace_url":"https://maps.google.com/?cid=5980824753046640495","dealerID":62464,"trusted":false,"image_id":"v1597284085/jeep_ms.png","phone":"3037855253","cityStateSlug":"boulder.co","slug":"Boulder.CO/pollard+jeep+of+boulder","location":"40.0230969,-105.2342682","brandsList":["jeep"]},{"id":8425,"crm_id":60526846,"name":"Larry H. Miller Chrysler Dodge Jeep RAM 104th","dealerSlug":"larry+h+miller+chrysler+dodge+jeep+ram+104th","city_state_slug":"Denver.CO","brand":"Chrysler,Dodge,Jeep,RAM","website":"www.lhmdenverjeep.com","address":"1800 W 104th Ave","city":"Denver","state":"CO","zip":80234,"latitude":39.8846656,"longitude":-105.0085271,"phone_number_service":"8444142871","phone_number_main":"7209070928","service_hours":"Mo-Fr 07:00 - 18:00 | Sa 08:00 - 17:00","utc_offset":"-360","gplace_id":null,"gplace_url":"https://maps.google.com/?cid=6185439549204825377","dealerID":62466,"trusted":false,"image_id":"v1597283975/chrysler_RM.png","phone":"8444142871","cityStateSlug":"denver.co","slug":"Denver.CO/larry+h+miller+chrysler+dodge+jeep+ram+104th","location":"39.8846656,-105.0085271","brandsList":["chrysler","dodge","jeep","ram"]},{"id":5450,"crm_id":61496527,"name":"Gebhardt BMW","dealerSlug":"gebhardt+bmw","city_state_slug":"Boulder.CO","brand":"BMW","website":"www.gebhardtbmw.com","address":"4740 Valmont Rd","city":"Boulder","state":"CO","zip":80301,"latitude":40.028417,"longitude":-105.2430727,"phone_number_service":"3039908093","phone_number_main":"3034478000","service_hours":"Mo-Fr 07:30 - 18:00 | Sa 08:00 -16:00","utc_offset":"-360","gplace_id":null,"gplace_url":"https://maps.google.com/?cid=25611227164508665","dealerID":50163,"trusted":true,"image_id":"v1597283982/bmw_RM.png","phone":"3039908093","cityStateSlug":"boulder.co","slug":"Boulder.CO/gebhardt+bmw","location":"40.028417,-105.2430727","brandsList":["bmw"]},{"id":10069,"crm_id":63160837,"name":"Mile High Honda","dealerSlug":"mile+high+honda","city_state_slug":"Denver.CO","brand":"Honda","website":"www.milehighhonda.com","address":"2777 S Havana St","city":"Denver","state":"CO","zip":80014,"latitude":39.6655487,"longitude":-104.8668514,"phone_number_service":"7205159827","phone_number_main":"3033697800","service_hours":"Mo-Fr 07:00 - 19:00 | Sa 07:00 - 18:00","utc_offset":"-360","gplace_id":null,"gplace_url":"https://maps.google.com/?cid=5138755425568733735","dealerID":50431,"trusted":true,"image_id":"v1597284047/honda_ms.png","phone":"7205159827","cityStateSlug":"denver.co","slug":"Denver.CO/mile+high+honda","location":"39.6655487,-104.8668514","brandsList":["honda"]},{"id":12170,"crm_id":64010950,"name":"Red Noland Cadillac","dealerSlug":"red+noland+cadillac","city_state_slug":"Colorado-Springs.CO","brand":"Cadillac","website":"www.rednolandcadillac.com","address":"990 Motor City Dr","city":"Colorado Springs","state":"CO","zip":80905,"latitude":38.8206131,"longitude":-104.8375805,"phone_number_service":"7198962694","phone_number_main":"7198962701","service_hours":"Mo-Fr 07:30 - 17:30","utc_offset":"-360","gplace_id":null,"gplace_url":"https://maps.google.com/?cid=13785975010380232256","dealerID":62558,"trusted":false,"image_id":"v1597283980/cadillac.png","phone":"7198962694","cityStateSlug":"colorado-springs.co","slug":"Colorado-Springs.CO/red+noland+cadillac","location":"38.8206131,-104.8375805","brandsList":["cadillac"]},{"id":2144,"crm_id":65328331,"name":"Brighton Ford","dealerSlug":"brighton+ford","city_state_slug":"Brighton.CO","brand":"Ford","website":"www.brightonfordco.com","address":"190 W Bromley Ln","city":"Brighton","state":"CO","zip":80601,"latitude":39.9712964,"longitude":-104.8262974,"phone_number_service":"3039514998","phone_number_main":"3038003235","service_hours":"Mo-Fr 07:00 - 18:00 | Sa 07:00 - 16:00","utc_offset":"-360","gplace_id":null,"gplace_url":"https://maps.google.com/?cid=1655432617589383975","dealerID":62621,"trusted":false,"image_id":"v1597283967/ford_RM.png","phone":"3039514998","cityStateSlug":"brighton.co","slug":"Brighton.CO/brighton+ford","location":"39.9712964,-104.8262974","brandsList":["ford"]},{"id":5899,"crm_id":67032133,"name":"Groove Subaru","dealerSlug":"groove+subaru","city_state_slug":"Englewood.CO","brand":"Subaru","website":"www.groovesubaru.com","address":"5300 S Broadway","city":"Englewood","state":"CO","zip":80113,"latitude":39.6197254,"longitude":-104.9872152,"phone_number_service":"7202595629","phone_number_main":"3038009084","service_hours":"Mo-Fr 07:00 - 18:00 | Sa 08:00 - 17:00","utc_offset":"-360","gplace_id":null,"gplace_url":"https://maps.google.com/?cid=8068996638627271959","dealerID":62792,"trusted":false,"image_id":"v1597283982/subaru_ms.png","phone":"7202595629","cityStateSlug":"englewood.co","slug":"Englewood.CO/groove+subaru","location":"39.6197254,-104.9872152","brandsList":["subaru"]},{"id":13678,"crm_id":67032775,"name":"Stevinson Lexus of Frederick","dealerSlug":"stevinson+lexus+of+frederick","city_state_slug":"Frederick.CO","brand":"Lexus","website":"www.stevinsonlexusoffrederick.com","address":"8337 Raspberry Way","city":"Frederick","state":"CO","zip":80504,"latitude":40.1231958,"longitude":-104.9802748,"phone_number_service":"3035325441","phone_number_main":"7202042386","service_hours":"Mo-Sa 07:00 - 18:00","utc_offset":"-360","gplace_id":null,"gplace_url":"https://maps.google.com/?cid=4176737294415425557","dealerID":62973,"trusted":false,"image_id":"v1597284042/lexus_ms.png","phone":"3035325441","cityStateSlug":"frederick.co","slug":"Frederick.CO/stevinson+lexus+of+frederick","location":"40.1231958,-104.9802748","brandsList":["lexus"]},{"id":3807,"crm_id":67032880,"name":"Davidson-Gebhardt Chevrolet","dealerSlug":"davidson+gebhardt+chevrolet","city_state_slug":"Loveland.CO","brand":"Chevrolet","website":"www.lovelandchevy.com","address":"3880 Test Dr","city":"Loveland","state":"CO","zip":80538,"latitude":40.4326308,"longitude":-104.993666,"phone_number_service":"9707443260","phone_number_main":"9706221015","service_hours":"Mo-Fr 07:30 - 18:00","utc_offset":"-360","gplace_id":null,"gplace_url":"https://maps.google.com/?cid=10265114886116088071","dealerID":63003,"trusted":false,"image_id":"v1597284079/chevy_ms.png","phone":"9707443260","cityStateSlug":"loveland.co","slug":"Loveland.CO/davidson+gebhardt+chevrolet","location":"40.4326308,-104.993666","brandsList":["chevrolet"]},{"id":9001,"crm_id":67032964,"name":"Loveland Ford","dealerSlug":"loveland+ford","city_state_slug":"Loveland.CO","brand":"Ford","website":"www.loveford.com","address":"999 E Eisenhower Blvd","city":"Loveland","state":"CO","zip":80537,"latitude":40.4078861,"longitude":-105.0639361,"phone_number_service":"9707442555","phone_number_main":"9706672220","service_hours":"Mo-Fr 07:30 - 18:00 | Sa 08:00 - 17:00","utc_offset":"-360","gplace_id":null,"gplace_url":"https://maps.google.com/?cid=11663629104182358792","dealerID":63029,"trusted":false,"image_id":"v1597283967/ford_RM.png","phone":"9707442555","cityStateSlug":"loveland.co","slug":"Loveland.CO/loveland+ford","location":"40.4078861,-105.0639361","brandsList":["ford"]},{"id":12338,"crm_id":67033396,"name":"Rickenbaugh Volvo Cars","dealerSlug":"rickenbaugh+volvo+cars","city_state_slug":"Denver.CO","brand":"Volvo","website":"www.rickenbaughvolvocars.com","address":"777 Broadway","city":"Denver","state":"CO","zip":80203,"latitude":39.7287053,"longitude":-104.9878192,"phone_number_service":"8882837527","phone_number_main":"3035737773","service_hours":"Mo-Fr 07:30 - 17:30 |Sa 08:00 - 14:00","utc_offset":"-360","gplace_id":null,"gplace_url":"https://maps.google.com/?cid=3265584282892684604","dealerID":63144,"trusted":false,"image_id":"v1597283901/volvo.jpg","phone":"8882837527","cityStateSlug":"denver.co","slug":"Denver.CO/rickenbaugh+volvo+cars","location":"39.7287053,-104.9878192","brandsList":["volvo"]},{"id":15494,"crm_id":67033405,"name":"Wilcoxson Buick GMC","dealerSlug":"wilcoxson+buick+gmc","city_state_slug":"Pueblo.CO","brand":"Buick,GMC","website":"www.wilcoxsonautos.com","address":"902 N Santa Fe Ave","city":"Pueblo","state":"CO","zip":81003,"latitude":38.2757931,"longitude":-104.6065013,"phone_number_service":"7195444423","phone_number_main":"7196477924","service_hours":"Mo-Fr 07:30 - 17:30 | Sa 08:00-15:00","utc_offset":"-360","gplace_id":null,"gplace_url":"https://maps.google.com/?cid=13571158062036278409","dealerID":63147,"trusted":false,"image_id":"v1597283981/buick_RM.png","phone":"7195444423","cityStateSlug":"pueblo.co","slug":"Pueblo.CO/wilcoxson+buick+gmc","location":"38.2757931,-104.6065013","brandsList":["buick","gmc"]},{"id":13855,"crm_id":67033579,"name":"Summit Ford","dealerSlug":"summit+ford","city_state_slug":"Silverthorne.CO","brand":"Ford","website":"www.summitford.net","address":"200 Buffalo Mountain Drive","city":"Silverthorne","state":"CO","zip":80498,"latitude":39.6271239,"longitude":-106.0735586,"phone_number_service":"8886041317","phone_number_main":"9702629230","service_hours":"Mo-Fr 07:00 - 18:00 | Sa 07:30 - 18:00","utc_offset":"-360","gplace_id":null,"gplace_url":"https://maps.google.com/?cid=8174281586212164488","dealerID":63193,"trusted":false,"image_id":"v1597283967/ford_RM.png","phone":"8886041317","cityStateSlug":"silverthorne.co","slug":"Silverthorne.CO/summit+ford","location":"39.6271239,-106.0735586","brandsList":["ford"]},{"id":10035,"crm_id":67033585,"name":"Mike Naughton Ford","dealerSlug":"mike+naughton+ford","city_state_slug":"Aurora.CO","brand":"Ford","website":"www.mikenaughtonford.com","address":"150 S Havana St","city":"Aurora","state":"CO","zip":80012,"latitude":39.713744,"longitude":-104.864702,"phone_number_service":"3033265652","phone_number_main":"3033431900","service_hours":"Mo-Fr 07:30 - 18:00 | Sa 07:30 - 15:00","utc_offset":"-360","gplace_id":null,"gplace_url":"https://maps.google.com/?cid=1760826136277455315","dealerID":63195,"trusted":false,"image_id":"v1597283967/ford_RM.png","phone":"3033265652","cityStateSlug":"aurora.co","slug":"Aurora.CO/mike+naughton+ford","location":"39.713744,-104.864702","brandsList":["ford"]},{"id":12943,"crm_id":67033852,"name":"Schomp Subaru","dealerSlug":"schomp+subaru","city_state_slug":"Aurora.CO","brand":"Subaru","website":"www.schompsubaru.com","address":"580 S Havana St","city":"Aurora","state":"CO","zip":80012,"latitude":39.7063757,"longitude":-104.8648902,"phone_number_service":"7206342651","phone_number_main":"7203432210","service_hours":"Tu-Sa 08:00 - 18:00","utc_offset":"-360","gplace_id":null,"gplace_url":"https://maps.google.com/?cid=18115310949621059677","dealerID":51124,"trusted":true,"image_id":"v1597283982/subaru_ms.png","phone":"7206342651","cityStateSlug":"aurora.co","slug":"Aurora.CO/schomp+subaru","location":"39.7063757,-104.8648902","brandsList":["subaru"]},{"id":14596,"crm_id":67033969,"name":"Transwest Buick GMC","dealerSlug":"transwest+buick+gmc","city_state_slug":"Henderson.CO","brand":"Buick,GMC","website":"www.transwestbuickgmc.com","address":"7911 E 96th Ave","city":"Henderson","state":"CO","zip":80640,"latitude":39.8717243,"longitude":-104.8978033,"phone_number_service":"7207462689","phone_number_main":"7203227200","service_hours":"Mo-Fr 07:00 - 18:00 | Sa 08:00 - 13:00","utc_offset":"-360","gplace_id":null,"gplace_url":"https://maps.google.com/?cid=12743949242585609163","dealerID":63305,"trusted":false,"image_id":"v1597283981/buick_RM.png","phone":"7207462689","cityStateSlug":"henderson.co","slug":"Henderson.CO/transwest+buick+gmc","location":"39.8717243,-104.8978033","brandsList":["buick","gmc"]},{"id":13680,"crm_id":67034182,"name":"Stevinson Toyota East","dealerSlug":"stevinson+toyota+east","city_state_slug":"Aurora.CO","brand":"Toyota","website":"www.stevinsontoyotaeast.com","address":"444 S Havana St","city":"Aurora","state":"CO","zip":80012,"latitude":39.7084744,"longitude":-104.8644884,"phone_number_service":"7208623027","phone_number_main":"3033402170","service_hours":"Mo-Fr 07:00 - 18:00 | Sa 08:00 - 17:00","utc_offset":"-360","gplace_id":null,"gplace_url":"https://maps.google.com/?cid=3817244243757971657","dealerID":63361,"trusted":false,"image_id":"v1597284039/toyota_ms.png","phone":"7208623027","cityStateSlug":"aurora.co","slug":"Aurora.CO/stevinson+toyota+east","location":"39.7084744,-104.8644884","brandsList":["toyota"]},{"id":11344,"crm_id":67034632,"name":"Peak Kia Littleton","dealerSlug":"peak+kia+littleton","city_state_slug":"Littleton.CO","brand":"Kia","website":"www.peakkia.com","address":"5077 S Wadsworth Blvd","city":"Littleton","state":"CO","zip":80123,"latitude":39.6262635,"longitude":-105.0918873,"phone_number_service":"3039047801","phone_number_main":"3039047800","service_hours":"Mo-Fr 07:00 - 17:00 | Sa 08:00 - 16:00","utc_offset":"-360","gplace_id":null,"gplace_url":"https://maps.google.com/?cid=1974198627985603819","dealerID":63492,"trusted":false,"image_id":"v1597283948/kia_RM.png","phone":"3039047801","cityStateSlug":"littleton.co","slug":"Littleton.CO/peak+kia+littleton","location":"39.6262635,-105.0918873","brandsList":["kia"]},{"id":4372,"crm_id":67034752,"name":"Ed Bozarth Chevrolet","dealerSlug":"ed+bozarth+chevrolet","city_state_slug":"Lone-Tree.CO","brand":"Chevrolet","website":"www.edbozarthparkmeadow.com","address":"8351 Parkway Dr","city":"Lone Tree","state":"CO","zip":80124,"latitude":39.5651672,"longitude":-104.8898859,"phone_number_service":"3037540123","phone_number_main":"7207736699","service_hours":"Mo-Fr 07:00 - 18:00 | Sa 08:00 - 16:00","utc_offset":"-360","gplace_id":null,"gplace_url":"https://maps.google.com/?cid=8853712502553143657","dealerID":63524,"trusted":false,"image_id":"v1597284079/chevy_ms.png","phone":"3037540123","cityStateSlug":"lone-tree.co","slug":"Lone-Tree.CO/ed+bozarth+chevrolet","location":"39.5651672,-104.8898859","brandsList":["chevrolet"]},{"id":5779,"crm_id":67035379,"name":"Greeley Nissan","dealerSlug":"greeley+nissan","city_state_slug":"Greeley.CO","brand":"Nissan","website":"www.greeleynissan.com","address":"2625 35th Ave","city":"Greeley","state":"CO","zip":80634,"latitude":40.3944197,"longitude":-104.7361653,"phone_number_service":"9703535333","phone_number_main":"9703733850","service_hours":"Mo-Fr 07:30 - 18:00 | Sa 08:00 - 17:00","utc_offset":"-360","gplace_id":null,"gplace_url":"https://maps.google.com/?cid=5989324394599607209","dealerID":63691,"trusted":false,"image_id":"v1597283926/nissan_RM.png","phone":"9703535333","cityStateSlug":"greeley.co","slug":"Greeley.CO/greeley+nissan","location":"40.3944197,-104.7361653","brandsList":["nissan"]},{"id":6908,"crm_id":67036108,"name":"Infiniti Of Denver","dealerSlug":"infiniti+of+denver","city_state_slug":"Aurora.CO","brand":"INFINITI","website":"www.infinitiofdenver.com","address":"2990 S Havana St.","city":"Aurora","state":"CO","zip":80014,"latitude":39.6613704,"longitude":-104.8673185,"phone_number_service":"3036716000","phone_number_main":"3036716000","service_hours":"Mo-Fr 07:00 - 18:00 | Sa  08:00 - 17:00","utc_offset":"-360","gplace_id":null,"gplace_url":"https://maps.google.com/?cid=5335338221891555711","dealerID":63887,"trusted":false,"image_id":"v1597283957/infiniti_RM.png","phone":"3036716000","cityStateSlug":"aurora.co","slug":"Aurora.CO/infiniti+of+denver","location":"39.6613704,-104.8673185","brandsList":["infiniti"]},{"id":15410,"crm_id":67036174,"name":"Western Slope Ford","dealerSlug":"western+slope+ford","city_state_slug":"Grand-Junction.CO","brand":"Ford","website":"www.westernslopeford.com","address":"2264 US-50","city":"Grand Junction","state":"CO","zip":81505,"latitude":39.1046103,"longitude":-108.6325175,"phone_number_service":"9702430843","phone_number_main":"9702430843","service_hours":"Mo-Fr 07:30 - 17:30 | Sa 08:00 - 17:00","utc_offset":"-360","gplace_id":null,"gplace_url":"https://maps.google.com/?cid=16378083616481429635","dealerID":63903,"trusted":false,"image_id":"v1597283967/ford_RM.png","phone":"9702430843","cityStateSlug":"grand-junction.co","slug":"Grand-Junction.CO/western+slope+ford","location":"39.1046103,-108.6325175","brandsList":["ford"]},{"id":8390,"crm_id":67036807,"name":"Landmark Lincoln","dealerSlug":"landmark+lincoln","city_state_slug":"Englewood.CO","brand":"Lincoln","website":"www.landmarklincoln.com","address":"5000 S Broadway","city":"Englewood","state":"CO","zip":80113,"latitude":39.626008,"longitude":-104.987196,"phone_number_service":"8883489141","phone_number_main":"3037611560","service_hours":"Mo-Fr 07:00 - 18:00 | Sa 08:00 - 16:00","utc_offset":"-360","gplace_id":null,"gplace_url":"https://maps.google.com/?cid=1302437951069397913","dealerID":64083,"trusted":false,"image_id":"v1597283942/lincoln_RM.png","phone":"8883489141","cityStateSlug":"englewood.co","slug":"Englewood.CO/landmark+lincoln","location":"39.626008,-104.987196","brandsList":["lincoln"]},{"id":11943,"crm_id":67036864,"name":"Pueblo Dodge Chrysler Jeep RAM","dealerSlug":"pueblo+dodge+chrysler+jeep+ram","city_state_slug":"Pueblo.CO","brand":"Chrysler,Dodge,Jeep,RAM","website":"www.pueblododge.com","address":"2147 US 50 West","city":"Pueblo","state":"CO","zip":81008,"latitude":38.3114807,"longitude":-104.6386597,"phone_number_service":"7195456666","phone_number_main":"7195456666","service_hours":"Mo-Fr 07:00 - 18:00  | Sa 08:00 - 16:00","utc_offset":"-360","gplace_id":null,"gplace_url":"https://maps.google.com/?cid=11801099136442144611","dealerID":64100,"trusted":false,"image_id":"v1597283975/chrysler_RM.png","phone":"7195456666","cityStateSlug":"pueblo.co","slug":"Pueblo.CO/pueblo+dodge+chrysler+jeep+ram","location":"38.3114807,-104.6386597","brandsList":["chrysler","dodge","jeep","ram"]},{"id":5292,"crm_id":67036975,"name":"Fuoco Honda","dealerSlug":"fuoco+honda","city_state_slug":"Grand-Junction.CO","brand":"Honda","website":"www.fuoco-honda.com","address":"748 N 1st St","city":"Grand Junction","state":"CO","zip":81507,"latitude":39.074185,"longitude":-108.570194,"phone_number_service":"9702421571","phone_number_main":"9702421572","service_hours":"Mo-Fr 07:30 - 17:30","utc_offset":"-360","gplace_id":null,"gplace_url":"https://maps.google.com/?cid=16243907326996047499","dealerID":64132,"trusted":false,"image_id":"v1597284047/honda_ms.png","phone":"9702421571","cityStateSlug":"grand-junction.co","slug":"Grand-Junction.CO/fuoco+honda","location":"39.074185,-108.570194","brandsList":["honda"]},{"id":11364,"crm_id":67037038,"name":"Pedersen Volvo Cars","dealerSlug":"pedersen+volvo+cars","city_state_slug":"Fort-Collins.CO","brand":"Volvo","website":"www.pedersenvolvocars.com","address":"4455 S Mason St","city":"Fort Collins","state":"CO","zip":80525,"latitude":40.5256965,"longitude":-105.0799102,"phone_number_service":"8778009751","phone_number_main":"9702238500","service_hours":"Mo-Fr 07:30 - 17:30  | Sa 07:30 - 17:30","utc_offset":"-360","gplace_id":null,"gplace_url":"https://maps.google.com/?cid=3936654186374064158","dealerID":64149,"trusted":false,"image_id":"v1597283901/volvo.jpg","phone":"8778009751","cityStateSlug":"fort-collins.co","slug":"Fort-Collins.CO/pedersen+volvo+cars","location":"40.5256965,-105.0799102","brandsList":["volvo"]},{"id":391,"crm_id":67037716,"name":"Arapahoe Hyundai","dealerSlug":"arapahoe+hyundai","city_state_slug":"Centennial.CO","brand":"Hyundai","website":"www.arapahoehyundai.com","address":"9899 E Arapahoe Rd","city":"Centennial","state":"CO","zip":80112,"latitude":39.596025,"longitude":-104.874349,"phone_number_service":"8778503311","phone_number_main":"8778566848","service_hours":"Mo-Fr 07:00 - 17:00 | Sa 07:00 - 15:00","utc_offset":"-360","gplace_id":null,"gplace_url":"https://maps.google.com/?cid=17399331567933012109","dealerID":64337,"trusted":false,"image_id":"v1597283959/hyundai_RM.png","phone":"8778503311","cityStateSlug":"centennial.co","slug":"Centennial.CO/arapahoe+hyundai","location":"39.596025,-104.874349","brandsList":["hyundai"]},{"id":10928,"crm_id":67037941,"name":"O'Meara Ford Center","dealerSlug":"omeara+ford+center","city_state_slug":"Northglenn.CO","brand":"Ford","website":"www.omearaford.com","address":"400 W 104th Ave","city":"Northglenn","state":"CO","zip":80234,"latitude":39.8840633,"longitude":-104.9918906,"phone_number_service":"7206479864","phone_number_main":"7206479863","service_hours":"Mo-Fr 07:00 - 19:00 | Sa 07:30 - 16:30","utc_offset":"-360","gplace_id":null,"gplace_url":"https://maps.google.com/?cid=7984742393644122662","dealerID":64404,"trusted":false,"image_id":"v1597283967/ford_RM.png","phone":"7206479864","cityStateSlug":"northglenn.co","slug":"Northglenn.CO/omeara+ford+center","location":"39.8840633,-104.9918906","brandsList":["ford"]},{"id":5561,"crm_id":67038022,"name":"Ghent Chevrolet","dealerSlug":"ghent+chevrolet","city_state_slug":"Greeley.CO","brand":"Chevrolet","website":"www.ghentmotors.com","address":"2715 35th Ave","city":"Greeley","state":"CO","zip":80634,"latitude":40.393481,"longitude":-104.7359608,"phone_number_service":"9703734164","phone_number_main":"9704657937","service_hours":"Mo-Fr 07:00 - 18:00 | Sa 08:00 - 17:00","utc_offset":"-360","gplace_id":null,"gplace_url":"https://maps.google.com/?cid=2556340612358564800","dealerID":64428,"trusted":false,"image_id":"v1597284079/chevy_ms.png","phone":"9703734164","cityStateSlug":"greeley.co","slug":"Greeley.CO/ghent+chevrolet","location":"40.393481,-104.7359608","brandsList":["chevrolet"]},{"id":10051,"crm_id":67038106,"name":"Mike Shaw Subaru","dealerSlug":"mike+shaw+subaru","city_state_slug":"Denver.CO","brand":"Subaru","website":"www.mikeshawsubaru.com","address":"1650 W 104th Ave","city":"Denver","state":"CO","zip":80234,"latitude":39.884553,"longitude":-105.0065685,"phone_number_service":"3037292683","phone_number_main":"7207249280","service_hours":"Mo-Fr 07:00 - 18:00 | Sa 07:00 - 18:00","utc_offset":"-360","gplace_id":null,"gplace_url":"https://maps.google.com/?cid=8867207211848718795","dealerID":64447,"trusted":false,"image_id":"v1597283982/subaru_ms.png","phone":"3037292683","cityStateSlug":"denver.co","slug":"Denver.CO/mike+shaw+subaru","location":"39.884553,-105.0065685","brandsList":["subaru"]},{"id":1349,"crm_id":67038190,"name":"Berthod Motors","dealerSlug":"berthod+motors","city_state_slug":"Glenwood-Springs.CO","brand":"Buick,GMC","website":"www.berthodgmc.com","address":"2914 S Grand Ave","city":"Glenwood Springs","state":"CO","zip":81601,"latitude":39.5220601,"longitude":-107.3236047,"phone_number_service":"9709457466","phone_number_main":"9709457466","service_hours":"Mo-Fr 08:00 - 17:00","utc_offset":"-360","gplace_id":null,"gplace_url":"https://maps.google.com/?cid=8251208812609648888","dealerID":64468,"trusted":false,"image_id":"v1597283981/buick_RM.png","phone":"9709457466","cityStateSlug":"glenwood-springs.co","slug":"Glenwood-Springs.CO/berthod+motors","location":"39.5220601,-107.3236047","brandsList":["buick","gmc"]},{"id":8275,"crm_id":67038667,"name":"Land Rover Flatirons","dealerSlug":"land+rover+flatirons","city_state_slug":"Broomfield.CO","brand":"Land Rover","website":"www.landroverflatirons.com","address":"11420 Via Varra","city":"Broomfield","state":"CO","zip":80020,"latitude":39.9395374,"longitude":-105.1269021,"phone_number_service":"7204596613","phone_number_main":"3035775500","service_hours":"Mo-Fr 07:00 - 18:00 | Sa 08:00 - 12:00","utc_offset":"-360","gplace_id":null,"gplace_url":"https://maps.google.com/?cid=7853648707758496512","dealerID":64604,"trusted":false,"image_id":"v1597283945/landrover_RM.png","phone":"7204596613","cityStateSlug":"broomfield.co","slug":"Broomfield.CO/land+rover+flatirons","location":"39.9395374,-105.1269021","brandsList":["land rover"]},{"id":8690,"crm_id":67038742,"name":"Lexus of Colorado Springs","dealerSlug":"lexus+of+colorado+springs","city_state_slug":"Colorado-Springs.CO","brand":"Lexus","website":"www.lexusofcoloradosprings.com","address":"604 Auto Heights","city":"Colorado Springs","state":"CO","zip":80905,"latitude":38.8155746,"longitude":-104.8403091,"phone_number_service":"7192597048","phone_number_main":"7192594044","service_hours":"Mo-Fr 07:00 - 18:00 | Sa 08:00 - 17:00","utc_offset":"-360","gplace_id":null,"gplace_url":"https://maps.google.com/?cid=848541804422055460","dealerID":64624,"trusted":false,"image_id":"v1597284042/lexus_ms.png","phone":"7192597048","cityStateSlug":"colorado-springs.co","slug":"Colorado-Springs.CO/lexus+of+colorado+springs","location":"38.8155746,-104.8403091","brandsList":["lexus"]},{"id":9872,"crm_id":67039135,"name":"Mercedes-Benz of Westminster","dealerSlug":"mercedes+benz+of+westminster","city_state_slug":"Westminster.CO","brand":"Mercedes-Benz","website":"www.mbwestminster.com/","address":"10391 Westminster Blvd","city":"Westminster","state":"CO","zip":80020,"latitude":39.8861708,"longitude":-105.0690472,"phone_number_service":"7206276412","phone_number_main":"3034107800","service_hours":"Mo-Fr 07:30 - 17:30 | Sa 08:00 - 14:00","utc_offset":"-360","gplace_id":null,"gplace_url":"https://maps.google.com/?cid=8020504472454185818","dealerID":64731,"trusted":false,"image_id":"v1597283934/mercedes_RM.png","phone":"7206276412","cityStateSlug":"westminster.co","slug":"Westminster.CO/mercedes+benz+of+westminster","location":"39.8861708,-105.0690472","brandsList":["mercedes-benz"]},{"id":5020,"crm_id":67040623,"name":"Fort Collins Kia","dealerSlug":"fort+collins+kia","city_state_slug":"Fort-Collins.CO","brand":"Kia","website":"www.fortcollinskia.com","address":"2849 S College Ave","city":"Fort Collins","state":"CO","zip":80525,"latitude":40.5473874,"longitude":-105.0780804,"phone_number_service":"9708080063","phone_number_main":"9707103230","service_hours":"Mo-Fr 07:00 - 18:00 | Sa 08:00 - 17:00","utc_offset":"-360","gplace_id":null,"gplace_url":"https://maps.google.com/?cid=4958149460886930579","dealerID":65131,"trusted":false,"image_id":"v1597283948/kia_RM.png","phone":"9708080063","cityStateSlug":"fort-collins.co","slug":"Fort-Collins.CO/fort+collins+kia","location":"40.5473874,-105.0780804","brandsList":["kia"]},{"id":13220,"crm_id":67040767,"name":"Sill-TerHar Motors","dealerSlug":"sill+terhar+motors","city_state_slug":"Broomfield.CO","brand":"Ford","website":"www.sill-terharmotors.com","address":"150 Alter St","city":"Broomfield","state":"CO","zip":80020,"latitude":39.918275,"longitude":-105.09486390000001,"phone_number_service":"8887167956","phone_number_main":"3034691801","service_hours":"Mo-Fr  08:00 - 17:00","utc_offset":"-360","gplace_id":null,"gplace_url":"https://maps.google.com/?cid=9197930431367188254","dealerID":65165,"trusted":false,"image_id":"v1597283967/ford_RM.png","phone":"8887167956","cityStateSlug":"broomfield.co","slug":"Broomfield.CO/sill+terhar+motors","location":"39.918275,-105.09486390000001","brandsList":["ford"]},{"id":4375,"crm_id":67040863,"name":"Ed Bozarth Chevrolet Buick","dealerSlug":"ed+bozarth+chevrolet+buick","city_state_slug":"Grand-Junction.CO","brand":"Buick,Chevrolet","website":"www.edbozarthgrandjunction.com","address":"2595 Highway 6 and 50","city":"Grand Junction","state":"CO","zip":81501,"latitude":39.0763231,"longitude":-108.5746072,"phone_number_service":"8553074065","phone_number_main":"8552893003","service_hours":"Mo-Fr 07:45 - 17:30 | Sa 08:00 - 16:00","utc_offset":"-360","gplace_id":null,"gplace_url":"https://maps.google.com/?cid=12548332877667139480","dealerID":65192,"trusted":false,"image_id":"v1597283981/buick_RM.png","phone":"8553074065","cityStateSlug":"grand-junction.co","slug":"Grand-Junction.CO/ed+bozarth+chevrolet+buick","location":"39.0763231,-108.5746072","brandsList":["buick","chevrolet"]},{"id":9505,"crm_id":67040869,"name":"McDonald Mazda South","dealerSlug":"mcdonald+mazda+south","city_state_slug":"Littleton.CO","brand":"Mazda","website":"www.mcdonaldmazda.com","address":"6100 S Broadway","city":"Littleton","state":"CO","zip":80121,"latitude":39.6058665,"longitude":-104.9872768,"phone_number_service":"7205136835","phone_number_main":"7205136821","service_hours":"Mo-Fr 07:00 - 18:00 | Sa 08:00 - 17:00","utc_offset":"-360","gplace_id":null,"gplace_url":"https://maps.google.com/?cid=15258508358482448296","dealerID":51764,"trusted":true,"image_id":"v1597283937/mazda.png","phone":"7205136835","cityStateSlug":"littleton.co","slug":"Littleton.CO/mcdonald+mazda+south","location":"39.6058665,-104.9872768","brandsList":["mazda"]},{"id":5632,"crm_id":67042297,"name":"Glenwood Springs Ford","dealerSlug":"glenwood+springs+ford","city_state_slug":"Glenwood-Springs.CO","brand":"Ford","website":"www.glenwoodford.com","address":"55 Storm King Rd","city":"Glenwood Springs","state":"CO","zip":81601,"latitude":39.5625921,"longitude":-107.3668128,"phone_number_service":"9704510432","phone_number_main":"9709452317","service_hours":"Mo-Fr 07:00 - 18:00 | Sa 09:00 - 16:00","utc_offset":"-360","gplace_id":null,"gplace_url":"https://maps.google.com/?cid=6129577259692336433","dealerID":65566,"trusted":false,"image_id":"v1597283967/ford_RM.png","phone":"9704510432","cityStateSlug":"glenwood-springs.co","slug":"Glenwood-Springs.CO/glenwood+springs+ford","location":"39.5625921,-107.3668128","brandsList":["ford"]},{"id":1023,"crm_id":67042573,"name":"Barbee's Freeway Ford","dealerSlug":"barbees+freeway+ford","city_state_slug":"Denver.CO","brand":"Ford","website":"www.freewayforddenver.com","address":"4471 East Evans","city":"Denver","state":"CO","zip":80222,"latitude":39.6789576,"longitude":-104.9357021,"phone_number_service":"3037572790","phone_number_main":"3035846600","service_hours":"Mo-Fr 07:00 - 19:00","utc_offset":"-360","gplace_id":null,"gplace_url":"https://maps.google.com/?cid=6387620115755975161","dealerID":65642,"trusted":false,"image_id":"v1597283967/ford_RM.png","phone":"3037572790","cityStateSlug":"denver.co","slug":"Denver.CO/barbees+freeway+ford","location":"39.6789576,-104.9357021","brandsList":["ford"]},{"id":3764,"crm_id":67042834,"name":"Dave Solon Nissan","dealerSlug":"dave+solon+nissan","city_state_slug":"Pueblo.CO","brand":"Nissan","website":"www.davesolonnissan.com","address":"2525 W US HWY 50","city":"Pueblo","state":"CO","zip":81008,"latitude":38.3118145,"longitude":-104.640799,"phone_number_service":"8778514661","phone_number_main":"7195454145","service_hours":"Mo-Fr 07:30 - 18:00 | Sa 08:30 - 16:00","utc_offset":"-360","gplace_id":null,"gplace_url":"https://maps.google.com/?cid=591867045504478568","dealerID":65715,"trusted":false,"image_id":"v1597283926/nissan_RM.png","phone":"8778514661","cityStateSlug":"pueblo.co","slug":"Pueblo.CO/dave+solon+nissan","location":"38.3118145,-104.640799","brandsList":["nissan"]},{"id":3913,"crm_id":67042951,"name":"Dellenbach Subaru","dealerSlug":"dellenbach+subaru","city_state_slug":"Fort-Collins.CO","brand":"Subaru","website":"www.dellenbachsubaru.com","address":"3103 S College Ave","city":"Fort Collins","state":"CO","zip":80525,"latitude":40.5455716,"longitude":-105.0775937,"phone_number_service":"8665759737","phone_number_main":"9702263100","service_hours":"Mo-Fr 07:30 - 18:00","utc_offset":"-360","gplace_id":null,"gplace_url":"https://maps.google.com/?cid=13490666666105053256","dealerID":65748,"trusted":false,"image_id":"v1597283982/subaru_ms.png","phone":"8665759737","cityStateSlug":"fort-collins.co","slug":"Fort-Collins.CO/dellenbach+subaru","location":"40.5455716,-105.0775937","brandsList":["subaru"]},{"id":1350,"crm_id":67043746,"name":"Berthod Motors","dealerSlug":"berthod+motors","city_state_slug":"Glenwood-Spgs.CO","brand":"Chrysler,Dodge,Jeep,RAM","website":"www.berthodmotors.net","address":"400 27th Street","city":"Glenwood Spgs","state":"CO","zip":81601,"latitude":39.5248898,"longitude":-107.3236047,"phone_number_service":"9709899119","phone_number_main":"9709457466","service_hours":"Mo-Fr 08:00 - 17:30 | Sa 08:00 - 14:45","utc_offset":"-360","gplace_id":null,"gplace_url":"https://maps.google.com/?cid=8251208812609648888","dealerID":65976,"trusted":false,"image_id":"v1597283975/chrysler_RM.png","phone":"9709899119","cityStateSlug":"glenwood-spgs.co","slug":"Glenwood-Spgs.CO/berthod+motors","location":"39.5248898,-107.3236047","brandsList":["chrysler","dodge","jeep","ram"]},{"id":12337,"crm_id":67043842,"name":"Rickenbaugh Cadillac","dealerSlug":"rickenbaugh+cadillac","city_state_slug":"Denver.CO","brand":"Cadillac","website":"www.rickenbaughcadillac.com","address":"777 Broadway","city":"Denver","state":"CO","zip":80203,"latitude":39.7287131,"longitude":-104.9878998,"phone_number_service":"7202791937","phone_number_main":"3035737773","service_hours":"Mo-Fr 07:30 - 17:30 |Sa 08:00 - 14:00","utc_offset":"-360","gplace_id":null,"gplace_url":"https://maps.google.com/?cid=11917797551714237625","dealerID":65997,"trusted":false,"image_id":"v1597283980/cadillac.png","phone":"7202791937","cityStateSlug":"denver.co","slug":"Denver.CO/rickenbaugh+cadillac","location":"39.7287131,-104.9878998","brandsList":["cadillac"]},{"id":4379,"crm_id":67044949,"name":"Ed Carroll Porsche","dealerSlug":"ed+carroll+porsche","city_state_slug":"Fort-Collins.CO","brand":"Porsche","website":"www.ed-carroll.porschedealer.com/","address":"3003 S College Ave","city":"Fort Collins","state":"CO","zip":80525,"latitude":40.5462978,"longitude":-105.077864,"phone_number_service":"8777472821","phone_number_main":"9702263000","service_hours":"Mo-Fr 07:30 - 17:30 | Sa 08:00 - 13:00","utc_offset":"-360","gplace_id":null,"gplace_url":"https://maps.google.com/?cid=18404019119373516739","dealerID":66296,"trusted":false,"image_id":"v1597283919/porsche.jpg","phone":"8777472821","cityStateSlug":"fort-collins.co","slug":"Fort-Collins.CO/ed+carroll+porsche","location":"40.5462978,-105.077864","brandsList":["porsche"]},{"id":10068,"crm_id":67046068,"name":"Mile High Acura","dealerSlug":"mile+high+acura","city_state_slug":"Denver.CO","brand":"Acura","website":"www.milehighacura.com","address":"2799 S Havana St","city":"Denver","state":"CO","zip":80014,"latitude":39.6645459,"longitude":-104.8671916,"phone_number_service":"3039524638","phone_number_main":"3033697800","service_hours":"Mo-Sa 07:00 - 18:00","utc_offset":"-360","gplace_id":null,"gplace_url":"https://maps.google.com/?cid=15464592533461212834","dealerID":50432,"trusted":true,"image_id":"v1597283988/acura.png","phone":"3039524638","cityStateSlug":"denver.co","slug":"Denver.CO/mile+high+acura","location":"39.6645459,-104.8671916","brandsList":["acura"]},{"id":9504,"crm_id":67046128,"name":"McDonald Hyundai","dealerSlug":"mcdonald+hyundai","city_state_slug":"Littleton.CO","brand":"Hyundai","website":"www.mcdonaldhyundai.com","address":"6500 S Broadway","city":"Littleton","state":"CO","zip":80121,"latitude":39.6008897,"longitude":-104.987418,"phone_number_service":"7205135275","phone_number_main":"7205136046","service_hours":"Mo-Fr 07:00 - 18:00 | Sa 08:00 - 17:00","utc_offset":"-360","gplace_id":null,"gplace_url":"https://maps.google.com/?cid=8354224806499824313","dealerID":66605,"trusted":false,"image_id":"v1597283959/hyundai_RM.png","phone":"7205135275","cityStateSlug":"littleton.co","slug":"Littleton.CO/mcdonald+hyundai","location":"39.6008897,-104.987418","brandsList":["hyundai"]},{"id":11840,"crm_id":67046629,"name":"Prestige Audi","dealerSlug":"prestige+audi","city_state_slug":"Lakewood.CO","brand":"Audi","website":"www.prestigeaudi.com","address":"9201 W Colfax Ave","city":"Lakewood","state":"CO","zip":80215,"latitude":39.7407781,"longitude":-105.1007261,"phone_number_service":"8883480648","phone_number_main":"3038729990","service_hours":"Mo-Fr 07:00 - 18:00 | Sa 08:00 - 17:00","utc_offset":"-360","gplace_id":null,"gplace_url":"https://maps.google.com/?cid=15507368187404820286","dealerID":66732,"trusted":false,"image_id":"v1597283985/audi_RM.png","phone":"8883480648","cityStateSlug":"lakewood.co","slug":"Lakewood.CO/prestige+audi","location":"39.7407781,-105.1007261","brandsList":["audi"]},{"id":12942,"crm_id":67046650,"name":"Schomp MINI","dealerSlug":"schomp+mini","city_state_slug":"Highlands-Ranch.CO","brand":"MINI","website":"www.schompmini.com","address":"1001 Plum Valley Ln","city":"Highlands Ranch","state":"CO","zip":80129,"latitude":39.560257,"longitude":-104.99939,"phone_number_service":"7204651236","phone_number_main":"3038725752","service_hours":"Tu-Sat 08:00 - 18:00","utc_offset":"-360","gplace_id":null,"gplace_url":"https://maps.google.com/?cid=17509049608270970742","dealerID":50070,"trusted":true,"image_id":"v1597283930/mini_RM.png","phone":"7204651236","cityStateSlug":"highlands-ranch.co","slug":"Highlands-Ranch.CO/schomp+mini","location":"39.560257,-104.99939","brandsList":["mini"]},{"id":6820,"crm_id":67049305,"name":"Hyundai of Greeley","dealerSlug":"hyundai+of+greeley","city_state_slug":"Greeley.CO","brand":"Hyundai","website":"www.hyundaiofgreeley.com","address":"4533 W 29th St","city":"Greeley","state":"CO","zip":80634,"latitude":40.39071,"longitude":-104.7541785,"phone_number_service":"9709395222","phone_number_main":"9704001093","service_hours":"Mo-Fr 07:30 - 18:00 | Sa 08:00 - 16:00","utc_offset":"-360","gplace_id":null,"gplace_url":"https://maps.google.com/?cid=15073390518380574100","dealerID":67457,"trusted":false,"image_id":"v1597283959/hyundai_RM.png","phone":"9709395222","cityStateSlug":"greeley.co","slug":"Greeley.CO/hyundai+of+greeley","location":"40.39071,-104.7541785","brandsList":["hyundai"]},{"id":5293,"crm_id":67049440,"name":"Fuoco Motor Company","dealerSlug":"fuoco+motor+company","city_state_slug":"Grand-Junction.CO","brand":"GMC","website":"www.fuocogmc.com","address":"741 N 1st St","city":"Grand Junction","state":"CO","zip":81501,"latitude":39.0746819,"longitude":-108.5703419,"phone_number_service":"9709864295","phone_number_main":"9707014773","service_hours":"Mo-Fr 07:30 - 17:30","utc_offset":"-360","gplace_id":null,"gplace_url":"https://maps.google.com/?cid=2569625882259092695","dealerID":67494,"trusted":false,"image_id":"v1597283963/gmc_RM.png","phone":"9709864295","cityStateSlug":"grand-junction.co","slug":"Grand-Junction.CO/fuoco+motor+company","location":"39.0746819,-108.5703419","brandsList":["gmc"]},{"id":9457,"crm_id":67049695,"name":"McCaddon Buick GMC","dealerSlug":"mccaddon+buick+gmc","city_state_slug":"Boulder.CO","brand":"Buick,GMC","website":"www.mccaddon.com","address":"2460 48th Ct","city":"Boulder","state":"CO","zip":80301,"latitude":40.0229356,"longitude":-105.2396545,"phone_number_service":"7202791993","phone_number_main":"7202791981","service_hours":"Mo-Fr 07:30 - 18:00","utc_offset":"-360","gplace_id":null,"gplace_url":"https://maps.google.com/?cid=45038219369989252","dealerID":67564,"trusted":false,"image_id":"v1597283981/buick_RM.png","phone":"7202791993","cityStateSlug":"boulder.co","slug":"Boulder.CO/mccaddon+buick+gmc","location":"40.0229356,-105.2396545","brandsList":["buick","gmc"]},{"id":10061,"crm_id":67052167,"name":"Mike Ward INFINITI","dealerSlug":"mike+ward+infiniti","city_state_slug":"Highlands-Ranch.CO","brand":"INFINITI","website":"www.mikewardinfiniti.com","address":"1800 Lucent court","city":"Highlands Ranch","state":"CO","zip":80129,"latitude":39.5617049,"longitude":-105.0090801,"phone_number_service":"3033504300","phone_number_main":"3033504300","service_hours":"Mo-Fr 07:00 - 18:00 | Sa 08:00 - 17:00","utc_offset":"-360","gplace_id":null,"gplace_url":"https://maps.google.com/?cid=6818496231882827661","dealerID":68247,"trusted":false,"image_id":"v1597283957/infiniti_RM.png","phone":"3033504300","cityStateSlug":"highlands-ranch.co","slug":"Highlands-Ranch.CO/mike+ward+infiniti","location":"39.5617049,-105.0090801","brandsList":["infiniti"]},{"id":10710,"crm_id":67052464,"name":"Nissan of Durango","dealerSlug":"nissan+of+durango","city_state_slug":"Durango.CO","brand":"Nissan","website":"www.nissanofdurango.com","address":"20704 US-160","city":"Durango","state":"CO","zip":81303,"latitude":37.2695458,"longitude":-107.9073006,"phone_number_service":"9702593940","phone_number_main":"9702593940","service_hours":"Mo-Fr 07:30 - 17:30 | Sa 09:00 - 17:00","utc_offset":"-360","gplace_id":null,"gplace_url":"https://maps.google.com/?cid=246359657908743130","dealerID":68321,"trusted":false,"image_id":"v1597283926/nissan_RM.png","phone":"9702593940","cityStateSlug":"durango.co","slug":"Durango.CO/nissan+of+durango","location":"37.2695458,-107.9073006","brandsList":["nissan"]},{"id":15578,"crm_id":67052728,"name":"Winslow BMW of Colorado Springs","dealerSlug":"winslow+bmw+of+colorado+springs","city_state_slug":"Colorado-Springs.CO","brand":"BMW","website":"www.winslowbmw.com","address":"5845 N Nevada Ave","city":"Colorado Springs","state":"CO","zip":80918,"latitude":38.912974,"longitude":-104.814533,"phone_number_service":"8008731373","phone_number_main":"7194731373","service_hours":"Mo-Fr 07:00 - 17:00","utc_offset":"-360","gplace_id":null,"gplace_url":"https://maps.google.com/?cid=18008939838850935279","dealerID":51709,"trusted":true,"image_id":"v1597283982/bmw_RM.png","phone":"8008731373","cityStateSlug":"colorado-springs.co","slug":"Colorado-Springs.CO/winslow+bmw+of+colorado+springs","location":"38.912974,-104.814533","brandsList":["bmw"]},{"id":8456,"crm_id":67054492,"name":"Larry H. Miller Liberty Toyota Colorado Springs","dealerSlug":"larry+h+miller+liberty+toyota+colorado+springs","city_state_slug":"Colorado-Springs.CO","brand":"Toyota","website":"www.libertytoyotacoloradosprings.com","address":"5115 New Car Dr","city":"Colorado Springs","state":"CO","zip":80923,"latitude":38.9381189,"longitude":-104.7311388,"phone_number_service":"8665425658","phone_number_main":"7194195832","service_hours":"Mo-Fr 07:00 - 18:00 | Sa 07:00 - 17:00","utc_offset":"-360","gplace_id":null,"gplace_url":"https://maps.google.com/?cid=4609297891921101612","dealerID":68885,"trusted":false,"image_id":"v1597284039/toyota_ms.png","phone":"8665425658","cityStateSlug":"colorado-springs.co","slug":"Colorado-Springs.CO/larry+h+miller+liberty+toyota+colorado+springs","location":"38.9381189,-104.7311388","brandsList":["toyota"]},{"id":7587,"crm_id":67054705,"name":"Johnson Auto Plaza","dealerSlug":"johnson+auto+plaza","city_state_slug":"Brighton.CO","brand":"Buick,Chevrolet,GMC","website":"www.johnsonchevybuickgmc.com/","address":"12420 East 136th Avenue","city":"Brighton","state":"CO","zip":80601,"latitude":39.9425907,"longitude":-104.8444842,"phone_number_service":"3038353617","phone_number_main":"3036541940","service_hours":"Mo-Fr 07:30-18:00 | Sa 07:30-15:00","utc_offset":"-360","gplace_id":null,"gplace_url":"https://maps.google.com/?cid=14911532852271845729","dealerID":68945,"trusted":false,"image_id":"v1597283981/buick_RM.png","phone":"3038353617","cityStateSlug":"brighton.co","slug":"Brighton.CO/johnson+auto+plaza","location":"39.9425907,-104.8444842","brandsList":["buick","chevrolet","gmc"]},{"id":7588,"crm_id":67054711,"name":"Johnson Auto Plaza","dealerSlug":"johnson+auto+plaza","city_state_slug":"Brighton.CO","brand":"Chrysler,Dodge,Jeep,RAM","website":"www.coloradododge.com/","address":"12410 East 136th Avenue","city":"Brighton","state":"CO","zip":80601,"latitude":39.9424474,"longitude":-104.8422396,"phone_number_service":"8445593809","phone_number_main":"3036541940","service_hours":"Mo-Fr 07:30-18:00 | Sa 08:00-15:00","utc_offset":"-360","gplace_id":null,"gplace_url":"https://maps.google.com/?cid=14911532852271845729","dealerID":68947,"trusted":false,"image_id":"v1597283975/chrysler_RM.png","phone":"8445593809","cityStateSlug":"brighton.co","slug":"Brighton.CO/johnson+auto+plaza","location":"39.9424474,-104.8422396","brandsList":["chrysler","dodge","jeep","ram"]},{"id":6613,"crm_id":67054963,"name":"Honda of Greeley","dealerSlug":"honda+of+greeley","city_state_slug":"Greeley.CO","brand":"Honda","website":"www.hondaofgreeley.com","address":"4535 W 29th St","city":"Greeley","state":"CO","zip":80634,"latitude":40.3906748,"longitude":-104.7551369,"phone_number_service":"8883361348","phone_number_main":"9705062791","service_hours":"Mo-Fr 07:30 - 18:00 | Sa 08:00 - 16:00","utc_offset":"-360","gplace_id":null,"gplace_url":"https://maps.google.com/?cid=13205642970764688206","dealerID":69016,"trusted":false,"image_id":"v1597284047/honda_ms.png","phone":"8883361348","cityStateSlug":"greeley.co","slug":"Greeley.CO/honda+of+greeley","location":"40.3906748,-104.7551369","brandsList":["honda"]},{"id":5900,"crm_id":67055545,"name":"Groove Toyota","dealerSlug":"groove+toyota","city_state_slug":"Englewood.CO","brand":"Toyota","website":"www.groovetoyota.com","address":"5460 S Broadway","city":"Englewood","state":"CO","zip":80113,"latitude":39.6181377,"longitude":-104.9869869,"phone_number_service":"3038009078","phone_number_main":"3038009063","service_hours":"Mo-Fr 07:00 - 18:00 | Sa 08:00 - 17:00","utc_offset":"-360","gplace_id":null,"gplace_url":"https://maps.google.com/?cid=730915628651274139","dealerID":69175,"trusted":false,"image_id":"v1597284039/toyota_ms.png","phone":"3038009078","cityStateSlug":"englewood.co","slug":"Englewood.CO/groove+toyota","location":"39.6181377,-104.9869869","brandsList":["toyota"]},{"id":5898,"crm_id":67055632,"name":"Groove Mazda","dealerSlug":"groove+mazda","city_state_slug":"Englewood.CO","brand":"Mazda","website":"www.groovemazda.com","address":"10301 E Arapahoe Rd","city":"Englewood","state":"CO","zip":80112,"latitude":39.5958613,"longitude":-104.8692438,"phone_number_service":"7206339592","phone_number_main":"7206339592","service_hours":"Mo-Fr 07:00 - 18:00 | Sa 08:00 - 17:00","utc_offset":"-360","gplace_id":null,"gplace_url":"https://maps.google.com/?cid=11857109782211341197","dealerID":69200,"trusted":false,"image_id":"v1597283937/mazda.png","phone":"7206339592","cityStateSlug":"englewood.co","slug":"Englewood.CO/groove+mazda","location":"39.5958613,-104.8692438","brandsList":["mazda"]},{"id":9281,"crm_id":67056157,"name":"Markley Motors","dealerSlug":"markley+motors","city_state_slug":"Fort-Collins.CO","brand":"Buick,GMC","website":"www.markleygm.com","address":"3325 S College Ave","city":"Fort Collins","state":"CO","zip":80525,"latitude":40.5414973,"longitude":-105.0778931,"phone_number_service":"8775125829","phone_number_main":"9706580028","service_hours":"Mo-Fr 09:00 - 18:00","utc_offset":"-360","gplace_id":null,"gplace_url":"https://maps.google.com/?cid=9179694614852658018","dealerID":69337,"trusted":false,"image_id":"v1597283981/buick_RM.png","phone":"8775125829","cityStateSlug":"fort-collins.co","slug":"Fort-Collins.CO/markley+motors","location":"40.5414973,-105.0778931","brandsList":["buick","gmc"]},{"id":11962,"crm_id":67056226,"name":"Purifoy Chevrolet","dealerSlug":"purifoy+chevrolet","city_state_slug":"Fort-Lupton.CO","brand":"Chevrolet","website":"www.purifoychevrolet.com","address":"601 Denver Ave","city":"Fort Lupton","state":"CO","zip":80621,"latitude":40.0852679,"longitude":-104.8108302,"phone_number_service":"7202305844","phone_number_main":"3036598311","service_hours":"Mo-Fr 08:00 - 18:00 | Sa 08:00 - 12:00","utc_offset":"-360","gplace_id":null,"gplace_url":"https://maps.google.com/?cid=14008821691213070535","dealerID":69352,"trusted":false,"image_id":"v1597284079/chevy_ms.png","phone":"7202305844","cityStateSlug":"fort-lupton.co","slug":"Fort-Lupton.CO/purifoy+chevrolet","location":"40.0852679,-104.8108302","brandsList":["chevrolet"]},{"id":5738,"crm_id":67057711,"name":"Grand West Kia","dealerSlug":"grand+west+kia","city_state_slug":"Grand-Junction.CO","brand":"Kia","website":"www.grandwestkia.com","address":"2980 U.S. Highway 50","city":"Grand Junction","state":"CO","zip":81503,"latitude":39.0255829,"longitude":-108.5004216,"phone_number_service":"8884089272","phone_number_main":"9702480800","service_hours":"Mo-Fr 08:00 - 17:00 | Sa 08:00 - 15:00","utc_offset":"-360","gplace_id":null,"gplace_url":"https://maps.google.com/?cid=17012058199297457631","dealerID":69753,"trusted":false,"image_id":"v1597283948/kia_RM.png","phone":"8884089272","cityStateSlug":"grand-junction.co","slug":"Grand-Junction.CO/grand+west+kia","location":"39.0255829,-108.5004216","brandsList":["kia"]},{"id":8467,"crm_id":67058320,"name":"Larry H. Miller Toyota Boulder","dealerSlug":"larry+h+miller+toyota+boulder","city_state_slug":"Boulder.CO","brand":"Toyota","website":"www.bouldertoyota.com","address":"2465 48th Ct","city":"Boulder","state":"CO","zip":80301,"latitude":40.0233333,"longitude":-105.2416667,"phone_number_service":"8666176139","phone_number_main":"7209070926","service_hours":"Mo-Fr 07:00 - 18:00","utc_offset":"-360","gplace_id":null,"gplace_url":"https://maps.google.com/?cid=11699074616034134226","dealerID":69932,"trusted":false,"image_id":"v1597284039/toyota_ms.png","phone":"8666176139","cityStateSlug":"boulder.co","slug":"Boulder.CO/larry+h+miller+toyota+boulder","location":"40.0233333,-105.2416667","brandsList":["toyota"]},{"id":13776,"crm_id":67059229,"name":"Subaru of Loveland","dealerSlug":"subaru+of+loveland","city_state_slug":"Loveland.CO","brand":"Subaru","website":"www.subaruofloveland.com","address":"3930 Byrd Dr","city":"Loveland","state":"CO","zip":80538,"latitude":40.4330556,"longitude":-104.995,"phone_number_service":"8883808441","phone_number_main":"9706221019","service_hours":"Mo-Fr 07:30 - 18:00 | Sa 08:00 - 14:00","utc_offset":"-360","gplace_id":null,"gplace_url":"https://maps.google.com/?cid=17745445926596071745","dealerID":70187,"trusted":false,"image_id":"v1597283982/subaru_ms.png","phone":"8883808441","cityStateSlug":"loveland.co","slug":"Loveland.CO/subaru+of+loveland","location":"40.4330556,-104.995","brandsList":["subaru"]},{"id":7571,"crm_id":67059256,"name":"John Roberts Motor Works Company","dealerSlug":"john+roberts+motor+works+company","city_state_slug":"Gunnison.CO","brand":"Buick,Chevrolet,GMC","website":"www.johnrobertsmotorworks.com","address":"212 West Frontage Rd","city":"Gunnison","state":"CO","zip":81230,"latitude":38.5447974,"longitude":-106.9270511,"phone_number_service":"8882856632","phone_number_main":"8882929915","service_hours":"Mo-Fr 07:30 - 17:00","utc_offset":"-360","gplace_id":null,"gplace_url":"https://maps.google.com/?cid=9469353820094647599","dealerID":70195,"trusted":false,"image_id":"v1597283981/buick_RM.png","phone":"8882856632","cityStateSlug":"gunnison.co","slug":"Gunnison.CO/john+roberts+motor+works+company","location":"38.5447974,-106.9270511","brandsList":["buick","chevrolet","gmc"]},{"id":10420,"crm_id":67059472,"name":"Mountain States Toyota","dealerSlug":"mountain+states+toyota","city_state_slug":"Denver.CO","brand":"Toyota","website":"www.mountainstatestoyota.com","address":"201 W 70th Ave","city":"Denver","state":"CO","zip":80221,"latitude":39.8245222,"longitude":-104.9905111,"phone_number_service":"8557621098","phone_number_main":"8442831824","service_hours":"Mo-Fr 07:00 - 18:00 | Sa 08:00 - 17:00","utc_offset":"-360","gplace_id":null,"gplace_url":"https://maps.google.com/?cid=11869842260807690466","dealerID":70251,"trusted":false,"image_id":"v1597284039/toyota_ms.png","phone":"8557621098","cityStateSlug":"denver.co","slug":"Denver.CO/mountain+states+toyota","location":"39.8245222,-104.9905111","brandsList":["toyota"]},{"id":5896,"crm_id":67059748,"name":"Groove Ford","dealerSlug":"groove+ford","city_state_slug":"Centennial.CO","brand":"Ford","website":"www.grooveford.com","address":"10039 E Arapahoe Rd","city":"Centennial","state":"CO","zip":80112,"latitude":39.5963305,"longitude":-104.8714665,"phone_number_service":"7204662895","phone_number_main":"7204662895","service_hours":"Mo-Fr 07:00 - 18:00 | Sa 08:00 - 17:00","utc_offset":"-360","gplace_id":null,"gplace_url":"https://maps.google.com/?cid=2977396977614566339","dealerID":70326,"trusted":false,"image_id":"v1597283967/ford_RM.png","phone":"7204662895","cityStateSlug":"centennial.co","slug":"Centennial.CO/groove+ford","location":"39.5963305,-104.8714665","brandsList":["ford"]},{"id":8620,"crm_id":67076671,"name":"Len Lyall Chevrolet","dealerSlug":"len+lyall+chevrolet","city_state_slug":"Aurora.CO","brand":"Chevrolet","website":"www.lenlyall.com","address":"14500 E Colfax Ave","city":"Aurora","state":"CO","zip":80011,"latitude":39.738988,"longitude":-104.818416,"phone_number_service":"8883612559","phone_number_main":"3035029924","service_hours":"Mo-Fr 07:00 - 18:00 | Sa 08:30 - 15:30","utc_offset":"-360","gplace_id":null,"gplace_url":"https://maps.google.com/?cid=17968678815867090991","dealerID":74093,"trusted":false,"image_id":"v1597284079/chevy_ms.png","phone":"8883612559","cityStateSlug":"aurora.co","slug":"Aurora.CO/len+lyall+chevrolet","location":"39.738988,-104.818416","brandsList":["chevrolet"]},{"id":4373,"crm_id":67076674,"name":"Ed Bozarth Chevrolet","dealerSlug":"ed+bozarth+chevrolet","city_state_slug":"Aurora.CO","brand":"Chevrolet","website":"www.edbozarthchevy.com","address":"2001 S Havana St","city":"Aurora","state":"CO","zip":80014,"latitude":39.679819,"longitude":-104.866867,"phone_number_service":"8883650705","phone_number_main":"7207735338","service_hours":"Mo-Fr 07:00 - 18:00 | Sa 08:00 - 16:00","utc_offset":"-360","gplace_id":null,"gplace_url":"https://maps.google.com/?cid=10661777689112533137","dealerID":74094,"trusted":false,"image_id":"v1597284079/chevy_ms.png","phone":"8883650705","cityStateSlug":"aurora.co","slug":"Aurora.CO/ed+bozarth+chevrolet","location":"39.679819,-104.866867","brandsList":["chevrolet"]},{"id":13219,"crm_id":67076680,"name":"Sill-TerHar Mazda","dealerSlug":"sill+terhar+mazda","city_state_slug":"Broomfield.CO","brand":"Mazda","website":"www.sthmazda.com","address":"1480 W 1st Ave","city":"Broomfield","state":"CO","zip":80020,"latitude":39.9180284,"longitude":-105.0875576,"phone_number_service":"3034393017","phone_number_main":"3034691801","service_hours":"Mo-Fr 07:30 - 18:00 | Sa 08:00 - 12:00","utc_offset":"-360","gplace_id":null,"gplace_url":"https://maps.google.com/?cid=16554920163663048201","dealerID":74095,"trusted":false,"image_id":"v1597283937/mazda.png","phone":"3034393017","cityStateSlug":"broomfield.co","slug":"Broomfield.CO/sill+terhar+mazda","location":"39.9180284,-105.0875576","brandsList":["mazda"]},{"id":392,"crm_id":67076683,"name":"Arapahoe Kia","dealerSlug":"arapahoe+kia","city_state_slug":"Centennial.CO","brand":"Kia","website":"www.coloradokia.com","address":"9701 E Arapahoe Rd","city":"Centennial","state":"CO","zip":80112,"latitude":39.5959008,"longitude":-104.8752944,"phone_number_service":"8888520580","phone_number_main":"3038742500","service_hours":"Mo-Fr 07:30 - 18:00 | Sa 08:30 - 13:00","utc_offset":"-360","gplace_id":null,"gplace_url":"https://maps.google.com/?cid=18038766480482221877","dealerID":74096,"trusted":false,"image_id":"v1597283948/kia_RM.png","phone":"8888520580","cityStateSlug":"centennial.co","slug":"Centennial.CO/arapahoe+kia","location":"39.5959008,-104.8752944","brandsList":["kia"]},{"id":808,"crm_id":67076686,"name":"AutoNation Chrysler Jeep Broadway","dealerSlug":"autonation+chrysler+jeep+broadway","city_state_slug":"Littleton.CO","brand":"Chrysler,Jeep","website":"www.autonationchryslerjeepbroadway.com","address":"5445 S Broadway","city":"Littleton","state":"CO","zip":80121,"latitude":39.6184773,"longitude":-104.9887726,"phone_number_service":"8444192466","phone_number_main":"3035786103","service_hours":"Mo-Fr 07:00 - 19:00 | Sa 08:00 - 17:00","utc_offset":"-360","gplace_id":null,"gplace_url":"https://maps.google.com/?cid=3417786578352529915","dealerID":74097,"trusted":false,"image_id":"v1597283975/chrysler_RM.png","phone":"8444192466","cityStateSlug":"littleton.co","slug":"Littleton.CO/autonation+chrysler+jeep+broadway","location":"39.6184773,-104.9887726","brandsList":["chrysler","jeep"]},{"id":13677,"crm_id":67076689,"name":"Stevinson Imports","dealerSlug":"stevinson+imports","city_state_slug":"Littleton.CO","brand":"Jaguar","website":"www.stevinsonimports.com","address":"190 E Littleton Blvd","city":"Littleton","state":"CO","zip":80121,"latitude":39.6128782,"longitude":-104.985554,"phone_number_service":"7206478085","phone_number_main":"7209070481","service_hours":"Mo-Fr 07:00 - 18:00 | Sa 08:00 - 15:00","utc_offset":"-360","gplace_id":null,"gplace_url":"https://maps.google.com/?cid=7039986856430342610","dealerID":74098,"trusted":false,"image_id":"v1597283954/jaguar_RM.png","phone":"7206478085","cityStateSlug":"littleton.co","slug":"Littleton.CO/stevinson+imports","location":"39.6128782,-104.985554","brandsList":["jaguar"]},{"id":539,"crm_id":67076692,"name":"Audi Denver","dealerSlug":"audi+denver","city_state_slug":"Littleton.CO","brand":"Audi","website":"www.audidenver.com","address":"6060 S Broadway","city":"Littleton","state":"CO","zip":80121,"latitude":39.606801,"longitude":-104.9878655,"phone_number_service":"8884403453","phone_number_main":"3033764730","service_hours":"Mo-Fr 07:00 - 19:00 | Sa 08:00 - 17:00","utc_offset":"-360","gplace_id":null,"gplace_url":"https://maps.google.com/?cid=8532679491068396638","dealerID":74099,"trusted":false,"image_id":"v1597283985/audi_RM.png","phone":"8884403453","cityStateSlug":"littleton.co","slug":"Littleton.CO/audi+denver","location":"39.606801,-104.9878655","brandsList":["audi"]},{"id":9763,"crm_id":67076695,"name":"Mercedes-Benz of Littleton","dealerSlug":"mercedes+benz+of+littleton","city_state_slug":"Littleton.CO","brand":"Mercedes-Benz","website":"www.mercedesoflittleton.com","address":"8070 S Broadway","city":"Littleton","state":"CO","zip":80122,"latitude":39.569505,"longitude":-104.987969,"phone_number_service":"3037387700","phone_number_main":"3037387700","service_hours":"Mo-Fr 07:00 - 20:00 | Sa 08:00 - 13:00","utc_offset":"-360","gplace_id":null,"gplace_url":"https://maps.google.com/?cid=8477142290937617872","dealerID":74100,"trusted":false,"image_id":"v1597283934/mercedes_RM.png","phone":"3037387700","cityStateSlug":"littleton.co","slug":"Littleton.CO/mercedes+benz+of+littleton","location":"39.569505,-104.987969","brandsList":["mercedes-benz"]},{"id":10062,"crm_id":67076701,"name":"Mike Ward Maserati of Denver","dealerSlug":"mike+ward+maserati+of+denver","city_state_slug":"Highlands-Ranch.CO","brand":"Maserati","website":"www.mikewardmaserati.com","address":"1850 Lucent court","city":"Highlands Ranch","state":"CO","zip":80129,"latitude":39.5621093,"longitude":-105.0092565,"phone_number_service":"3034707000","phone_number_main":"3034707000","service_hours":"Mo-Fr 07:30 - 18:00 | Sa 08:00 - 13:00","utc_offset":"-360","gplace_id":null,"gplace_url":"https://maps.google.com/?cid=257477937010029228","dealerID":74101,"trusted":false,"image_id":"v1597283940/maserati_RM.png","phone":"3034707000","cityStateSlug":"highlands-ranch.co","slug":"Highlands-Ranch.CO/mike+ward+maserati+of+denver","location":"39.5621093,-105.0092565","brandsList":["maserati"]},{"id":4534,"crm_id":67076704,"name":"Empire Lakewood Nissan","dealerSlug":"empire+lakewood+nissan","city_state_slug":"Lakewood.CO","brand":"Nissan","website":"www.mydenvernissan.com","address":"14707 W Colfax Ave","city":"Lakewood","state":"CO","zip":80401,"latitude":39.7331247,"longitude":-105.1644505,"phone_number_service":"3032323350","phone_number_main":"3032328881","service_hours":"Mo-Fr 07:00 - 18:00 | Sa 08:00 - 16:00","utc_offset":"-360","gplace_id":null,"gplace_url":"https://maps.google.com/?cid=416476294950582179","dealerID":51169,"trusted":true,"image_id":"v1597283926/nissan_RM.png","phone":"3032323350","cityStateSlug":"lakewood.co","slug":"Lakewood.CO/empire+lakewood+nissan","location":"39.7331247,-105.1644505","brandsList":["nissan"]},{"id":10929,"crm_id":67076707,"name":"O'Meara Volkswagen of Thornton","dealerSlug":"omeara+volkswagen+of+thornton","city_state_slug":"Thornton.CO","brand":"Volkswagen","website":"www.omearavw.com","address":"1900 W 104th Ave","city":"Thornton","state":"CO","zip":80234,"latitude":39.8844489,"longitude":-105.009628,"phone_number_service":"7206506351","phone_number_main":"3038031883","service_hours":"Mo-Fr 07:30 - 18:00 | Sa 08:00 - 16:00","utc_offset":"-360","gplace_id":null,"gplace_url":"https://maps.google.com/?cid=17373318588444131951","dealerID":74103,"trusted":false,"image_id":"v1597283902/volkswagen.png","phone":"7206506351","cityStateSlug":"thornton.co","slug":"Thornton.CO/omeara+volkswagen+of+thornton","location":"39.8844489,-105.009628","brandsList":["volkswagen"]},{"id":9714,"crm_id":67076710,"name":"Mercedes-Benz of Denver","dealerSlug":"mercedes+benz+of+denver","city_state_slug":"Denver.CO","brand":"Mercedes-Benz","website":"www.mercedesbenzofdenver.com","address":"940 S Colorado Blvd","city":"Denver","state":"CO","zip":80246,"latitude":39.6996668,"longitude":-104.9401848,"phone_number_service":"8555574501","phone_number_main":"3039534581","service_hours":"Mo-Fr 08:00 - 17:30 | Sa 09:00 - 13:00","utc_offset":"-360","gplace_id":null,"gplace_url":"https://maps.google.com/?cid=17208366782366686358","dealerID":74104,"trusted":false,"image_id":"v1597283934/mercedes_RM.png","phone":"8555574501","cityStateSlug":"denver.co","slug":"Denver.CO/mercedes+benz+of+denver","location":"39.6996668,-104.9401848","brandsList":["mercedes-benz"]},{"id":2024,"crm_id":67076713,"name":"Boulder Nissan","dealerSlug":"boulder+nissan","city_state_slug":"Boulder.CO","brand":"Nissan","website":"www.bouldernissan.com","address":"2285 28th Street","city":"Boulder","state":"CO","zip":80301,"latitude":40.0250981,"longitude":-105.259207,"phone_number_service":"3034438110","phone_number_main":"3034438110","service_hours":"Mo-Fr 07:00 - 18:00","utc_offset":"-360","gplace_id":null,"gplace_url":"https://maps.google.com/?cid=12859001942478500685","dealerID":74105,"trusted":false,"image_id":"v1597283926/nissan_RM.png","phone":"3034438110","cityStateSlug":"boulder.co","slug":"Boulder.CO/boulder+nissan","location":"40.0250981,-105.259207","brandsList":["nissan"]},{"id":4844,"crm_id":67076719,"name":"Fisher Honda","dealerSlug":"fisher+honda","city_state_slug":"Boulder.CO","brand":"Honda","website":"www.fisherhonda.com","address":"6025 Arapahoe Rd","city":"Boulder","state":"CO","zip":80303,"latitude":40.015711,"longitude":-105.211739,"phone_number_service":"3039986215","phone_number_main":"3032456417","service_hours":"Mo-Fr 07:30 - 18:00 | Sa 08:00 - 16:00","utc_offset":"-360","gplace_id":null,"gplace_url":"https://maps.google.com/?cid=18311565169241607662","dealerID":74106,"trusted":false,"image_id":"v1597284047/honda_ms.png","phone":"3039986215","cityStateSlug":"boulder.co","slug":"Boulder.CO/fisher+honda","location":"40.015711,-105.211739","brandsList":["honda"]},{"id":11582,"crm_id":67076722,"name":"Planet Hyundai","dealerSlug":"planet+hyundai","city_state_slug":"Golden.CO","brand":"Hyundai","website":"www.planethyundai.com","address":"15601 W Colfax Ave","city":"Golden","state":"CO","zip":80401,"latitude":39.7304943,"longitude":-105.1755308,"phone_number_service":"7204008614","phone_number_main":"3034070740","service_hours":"Mo-Fr 07:00 - 18:00 | Sa 08:00 - 18:00","utc_offset":"-360","gplace_id":null,"gplace_url":"https://maps.google.com/?cid=17787384288417421068","dealerID":74107,"trusted":false,"image_id":"v1597283959/hyundai_RM.png","phone":"7204008614","cityStateSlug":"golden.co","slug":"Golden.CO/planet+hyundai","location":"39.7304943,-105.1755308","brandsList":["hyundai"]},{"id":13679,"crm_id":67076728,"name":"Stevinson Lexus of Lakewood","dealerSlug":"stevinson+lexus+of+lakewood","city_state_slug":"Lakewood.CO","brand":"Lexus","website":"www.stevinsonlexusoflakewood.com","address":"801 Denver West Colorado Mills Blvd","city":"Lakewood","state":"CO","zip":80401,"latitude":39.72912,"longitude":-105.166783,"phone_number_service":"7203060577","phone_number_main":"7202592548","service_hours":"Mo-Sa 07:00 - 18:00","utc_offset":"-360","gplace_id":null,"gplace_url":"https://maps.google.com/?cid=4367826701244787087","dealerID":74108,"trusted":false,"image_id":"v1597284042/lexus_ms.png","phone":"7203060577","cityStateSlug":"lakewood.co","slug":"Lakewood.CO/stevinson+lexus+of+lakewood","location":"39.72912,-105.166783","brandsList":["lexus"]},{"id":13583,"crm_id":67076731,"name":"Steamboat Motors","dealerSlug":"steamboat+motors","city_state_slug":"Steamboat-Springs.CO","brand":"Chrysler,Dodge,Ford,Jeep,RAM","website":"www.steamboatmotors.com","address":"2310 Lincoln Ave","city":"Steamboat Springs","state":"CO","zip":80487,"latitude":40.5035599,"longitude":-106.8606693,"phone_number_service":"8774035124","phone_number_main":"9708798880","service_hours":"Mo-Fr 07:30 - 17:30 | Sa 08:00 - 17:00","utc_offset":"-360","gplace_id":null,"gplace_url":"https://maps.google.com/?cid=1432998955128406789","dealerID":74109,"trusted":false,"image_id":"v1597283975/chrysler_RM.png","phone":"8774035124","cityStateSlug":"steamboat-springs.co","slug":"Steamboat-Springs.CO/steamboat+motors","location":"40.5035599,-106.8606693","brandsList":["chrysler","dodge","ford","jeep","ram"]},{"id":8961,"crm_id":67076734,"name":"Longmont Ford","dealerSlug":"longmont+ford","city_state_slug":"Longmont.CO","brand":"Ford","website":"www.longmontford.net","address":"235 Alpine St","city":"Longmont","state":"CO","zip":80501,"latitude":40.1631256,"longitude":-105.0845119,"phone_number_service":"8558855782","phone_number_main":"3037763600","service_hours":"Mo-Fr 07:30 - 17:00 | Sa 07:00 - 17:00","utc_offset":"-360","gplace_id":null,"gplace_url":"https://maps.google.com/?cid=14945402572427563326","dealerID":74110,"trusted":false,"image_id":"v1597283967/ford_RM.png","phone":"8558855782","cityStateSlug":"longmont.co","slug":"Longmont.CO/longmont+ford","location":"40.1631256,-105.0845119","brandsList":["ford"]},{"id":4378,"crm_id":67076737,"name":"Ed Carroll Motor Company","dealerSlug":"ed+carroll+motor+company","city_state_slug":"Fort-Collins.CO","brand":"Volkswagen","website":"www.edcarrollvw.com","address":"3003 South College Ave.","city":"Fort Collins","state":"CO","zip":80525,"latitude":40.546333,"longitude":-105.07821,"phone_number_service":"8884731307","phone_number_main":"9702263000","service_hours":"Mo-Fr 07:30 - 17:30 | Sa 08:00 - 13:00","utc_offset":"-360","gplace_id":null,"gplace_url":"https://maps.google.com/?cid=14372142406514676629","dealerID":74111,"trusted":false,"image_id":"v1597283902/volkswagen.png","phone":"8884731307","cityStateSlug":"fort-collins.co","slug":"Fort-Collins.CO/ed+carroll+motor+company","location":"40.546333,-105.07821","brandsList":["volkswagen"]},{"id":554,"crm_id":67076740,"name":"Audi Fort Collins","dealerSlug":"audi+fort+collins","city_state_slug":"Fort-Collins.CO","brand":"Audi","website":"www.audifortcollins.com","address":"3003 S College Ave","city":"Fort Collins","state":"CO","zip":80525,"latitude":40.5463456,"longitude":-105.0781992,"phone_number_service":"8669812724","phone_number_main":"9702263000","service_hours":"Mo-Fr 07:30 - 17:30 | Sa 08:00 - 13:00","utc_offset":"-360","gplace_id":null,"gplace_url":"https://maps.google.com/?cid=9070714691174606705","dealerID":74112,"trusted":false,"image_id":"v1597283985/audi_RM.png","phone":"8669812724","cityStateSlug":"fort-collins.co","slug":"Fort-Collins.CO/audi+fort+collins","location":"40.5463456,-105.0781992","brandsList":["audi"]},{"id":11363,"crm_id":67076743,"name":"Pedersen Toyota","dealerSlug":"pedersen+toyota","city_state_slug":"Fort-Collins.CO","brand":"Toyota","website":"www.pedersentoyota.com","address":"4455 S College Ave","city":"Fort Collins","state":"CO","zip":80525,"latitude":40.5255631,"longitude":-105.0779252,"phone_number_service":"9706289426","phone_number_main":"9702233100","service_hours":"Mo-Fr 07:30 - 17:30 | Sa 07:30 - 17:30","utc_offset":"-360","gplace_id":null,"gplace_url":"https://maps.google.com/?cid=10537288277442020635","dealerID":74113,"trusted":false,"image_id":"v1597284039/toyota_ms.png","phone":"9706289426","cityStateSlug":"fort-collins.co","slug":"Fort-Collins.CO/pedersen+toyota","location":"40.5255631,-105.0779252","brandsList":["toyota"]},{"id":13493,"crm_id":67076746,"name":"Spradley Barr Ford Ft. Collins","dealerSlug":"spradley+barr+ford+ft+collins","city_state_slug":"Fort-Collins.CO","brand":"Ford","website":"www.spradleybarronline.com","address":"4809 S College Ave","city":"Fort Collins","state":"CO","zip":80525,"latitude":40.520254,"longitude":-105.0785748,"phone_number_service":"9705106204","phone_number_main":"9702263673","service_hours":"Mo-Fr 07:00 - 18:00 | Sa 08:00 - 16:00","utc_offset":"-360","gplace_id":null,"gplace_url":"https://maps.google.com/?cid=7517630384814386513","dealerID":74114,"trusted":false,"image_id":"v1597283967/ford_RM.png","phone":"9705106204","cityStateSlug":"fort-collins.co","slug":"Fort-Collins.CO/spradley+barr+ford+ft+collins","location":"40.520254,-105.0785748","brandsList":["ford"]},{"id":10049,"crm_id":67076749,"name":"Mike Shaw Chrysler Dodge Jeep RAM","dealerSlug":"mike+shaw+chrysler+dodge+jeep+ram","city_state_slug":"Greeley.CO","brand":"Chrysler,Dodge,Jeep,RAM","website":"www.mikeshawjeep.com","address":"2501 35th Ave","city":"Greeley","state":"CO","zip":80634,"latitude":40.3954887,"longitude":-104.7362574,"phone_number_service":"9702364701","phone_number_main":"9702364701","service_hours":"Mo-Fr 09:00 - 20:00 | Sa 09:00 - 19:00","utc_offset":"-360","gplace_id":null,"gplace_url":"https://maps.google.com/?cid=1300964354640074165","dealerID":74115,"trusted":false,"image_id":"v1597283975/chrysler_RM.png","phone":"9702364701","cityStateSlug":"greeley.co","slug":"Greeley.CO/mike+shaw+chrysler+dodge+jeep+ram","location":"40.3954887,-104.7362574","brandsList":["chrysler","dodge","jeep","ram"]},{"id":15330,"crm_id":67076752,"name":"Weld County Garage Buick GMC","dealerSlug":"weld+county+garage+buick+gmc","city_state_slug":"Greeley.CO","brand":"Buick,GMC","website":"www.weldcountygarage.com","address":"2699 47th Ave","city":"Greeley","state":"CO","zip":80634,"latitude":40.393734,"longitude":-104.758019,"phone_number_service":"9705914756","phone_number_main":"9709899358","service_hours":"Mo-Fr 07:00 - 18:00 | Sa 07:00 - 16:00","utc_offset":"-360","gplace_id":null,"gplace_url":"https://maps.google.com/?cid=16094117803803586201","dealerID":74116,"trusted":false,"image_id":"v1597283981/buick_RM.png","phone":"9705914756","cityStateSlug":"greeley.co","slug":"Greeley.CO/weld+county+garage+buick+gmc","location":"40.393734,-104.758019","brandsList":["buick","gmc"]},{"id":13494,"crm_id":67076758,"name":"Spradley Barr Ford of Greeley","dealerSlug":"spradley+barr+ford+of+greeley","city_state_slug":"Greeley.CO","brand":"Ford","website":"www.spradleybarrgreeley.com","address":"4901 29th Street","city":"Greeley","state":"CO","zip":80634,"latitude":40.3909929,"longitude":-104.7603889,"phone_number_service":"8664711279","phone_number_main":"9702367129","service_hours":"Mo-Fr 07:00 - 18:00 | Sa 07:00 - 16:00","utc_offset":"-360","gplace_id":null,"gplace_url":"https://maps.google.com/?cid=7182104890388275448","dealerID":74117,"trusted":false,"image_id":"v1597283967/ford_RM.png","phone":"8664711279","cityStateSlug":"greeley.co","slug":"Greeley.CO/spradley+barr+ford+of+greeley","location":"40.3909929,-104.7603889","brandsList":["ford"]},{"id":1988,"crm_id":67076761,"name":"Bonanza Ford","dealerSlug":"bonanza+ford","city_state_slug":"Wray.CO","brand":"Ford","website":"www.bonanzafordofwray.com","address":"341 Adams St","city":"Wray","state":"CO","zip":80758,"latitude":40.0778357,"longitude":-102.2237796,"phone_number_service":"8883775983","phone_number_main":"9703324838","service_hours":"Mo-Fr 07:30 - 17:30","utc_offset":"-360","gplace_id":null,"gplace_url":"https://maps.google.com/?cid=18294465000911674846","dealerID":74118,"trusted":false,"image_id":"v1597283967/ford_RM.png","phone":"8883775983","cityStateSlug":"wray.co","slug":"Wray.CO/bonanza+ford","location":"40.0778357,-102.2237796","brandsList":["ford"]},{"id":8468,"crm_id":67076770,"name":"Larry H. Miller Toyota Colorado Springs","dealerSlug":"larry+h+miller+toyota+colorado+springs","city_state_slug":"Colorado-Springs.CO","brand":"Toyota","website":"www.toyotaofcoloradosprings.com","address":"15 E Motor Way","city":"Colorado Springs","state":"CO","zip":80905,"latitude":38.8133493,"longitude":-104.8263109,"phone_number_service":"8665540772","phone_number_main":"7194195833","service_hours":"Mo-Fr 07:00 - 18:00 | Sa 08:00 - 17:00","utc_offset":"-360","gplace_id":null,"gplace_url":"https://maps.google.com/?cid=7049176755014381438","dealerID":74119,"trusted":false,"image_id":"v1597284039/toyota_ms.png","phone":"8665540772","cityStateSlug":"colorado-springs.co","slug":"Colorado-Springs.CO/larry+h+miller+toyota+colorado+springs","location":"38.8133493,-104.8263109","brandsList":["toyota"]},{"id":12171,"crm_id":67076773,"name":"Red Noland INFINITI","dealerSlug":"red+noland+infiniti","city_state_slug":"Colorado-Springs.CO","brand":"INFINITI","website":"www.rednolandinfiniti.com","address":"425 Motor World Pkwy","city":"Colorado Springs","state":"CO","zip":80905,"latitude":38.8158368,"longitude":-104.8363146,"phone_number_service":"7192158706","phone_number_main":"7194448881","service_hours":"Mo-Fr 07:30 - 17:30","utc_offset":"-360","gplace_id":null,"gplace_url":"https://maps.google.com/?cid=2580600556526680283","dealerID":74120,"trusted":false,"image_id":"v1597283957/infiniti_RM.png","phone":"7192158706","cityStateSlug":"colorado-springs.co","slug":"Colorado-Springs.CO/red+noland+infiniti","location":"38.8158368,-104.8363146","brandsList":["infiniti"]},{"id":11661,"crm_id":67076776,"name":"Porsche Colorado Springs","dealerSlug":"porsche+colorado+springs","city_state_slug":"Colorado-Springs.CO","brand":"Porsche","website":"www.porscheofcoloradosprings.com","address":"917 Motor City Dr","city":"Colorado Springs","state":"CO","zip":80905,"latitude":38.8219815,"longitude":-104.8376846,"phone_number_service":"8332129661","phone_number_main":"7192191911","service_hours":"Mo-Fr 07:00 - 18:00 | Sa 08:00 - 13:00","utc_offset":"-360","gplace_id":null,"gplace_url":"https://maps.google.com/?cid=17300700608988671645","dealerID":74121,"trusted":false,"image_id":"v1597283919/porsche.jpg","phone":"8332129661","cityStateSlug":"colorado-springs.co","slug":"Colorado-Springs.CO/porsche+colorado+springs","location":"38.8219815,-104.8376846","brandsList":["porsche"]},{"id":13364,"crm_id":67076779,"name":"South Colorado Springs Nissan","dealerSlug":"south+colorado+springs+nissan","city_state_slug":"Colorado-Springs.CO","brand":"Nissan","website":"www.scsnissan.com/","address":"1333 S Academy Blvd","city":"Colorado Springs","state":"CO","zip":80916,"latitude":38.8124384,"longitude":-104.7561903,"phone_number_service":"7192841225","phone_number_main":"7194939586","service_hours":"Mo-Sa 7:00-18:00","utc_offset":"-360","gplace_id":null,"gplace_url":"https://maps.google.com/?cid=9289368590985075376","dealerID":74122,"trusted":false,"image_id":"v1597283926/nissan_RM.png","phone":"7192841225","cityStateSlug":"colorado-springs.co","slug":"Colorado-Springs.CO/south+colorado+springs+nissan","location":"38.8124384,-104.7561903","brandsList":["nissan"]},{"id":14177,"crm_id":67076785,"name":"The Faricy Boys","dealerSlug":"the+faricy+boys","city_state_slug":"Colorado-Springs.CO","brand":"Chrysler,Jeep","website":"www.faricy.com","address":"4950 New Car Dr","city":"Colorado Springs","state":"CO","zip":80923,"latitude":38.9389859,"longitude":-104.7359921,"phone_number_service":"7196362584","phone_number_main":"7198675683","service_hours":"Mo-Sa 06:30 - 18:30","utc_offset":"-360","gplace_id":null,"gplace_url":"https://maps.google.com/?cid=10728850738128549863","dealerID":74123,"trusted":false,"image_id":"v1597283975/chrysler_RM.png","phone":"7196362584","cityStateSlug":"colorado-springs.co","slug":"Colorado-Springs.CO/the+faricy+boys","location":"38.9389859,-104.7359921","brandsList":["chrysler","jeep"]},{"id":4948,"crm_id":67076797,"name":"Flower Motor Co","dealerSlug":"flower+motor+co","city_state_slug":"Montrose.CO","brand":"Chrysler,Dodge,Jeep,RAM,Fiat","website":"www.flowermotor.net","address":"2580 N Townsend Ave.","city":"Montrose","state":"CO","zip":81401,"latitude":38.50478,"longitude":-107.9042076,"phone_number_service":"8775269961","phone_number_main":"9702499664","service_hours":"Mo-Fr 07:30 - 17:30 | Sa 08:00 - 17:00","utc_offset":"-360","gplace_id":null,"gplace_url":"https://maps.google.com/?cid=6273832088974657812","dealerID":74124,"trusted":false,"image_id":"v1597283975/chrysler_RM.png","phone":"8775269961","cityStateSlug":"montrose.co","slug":"Montrose.CO/flower+motor+co","location":"38.50478,-107.9042076","brandsList":["chrysler","dodge","jeep","ram","fiat"]},{"id":6239,"crm_id":67076800,"name":"Hellman Chevrolet Buick","dealerSlug":"hellman+chevrolet+buick","city_state_slug":"Delta.CO","brand":"Buick,Chevrolet","website":"www.hellmanchevrolet.com","address":"900 Main St","city":"Delta","state":"CO","zip":81416,"latitude":38.7349896,"longitude":-108.0703586,"phone_number_service":"8668612399","phone_number_main":"8667018477","service_hours":"Mo-Fr 07:30 - 17:30","utc_offset":"-360","gplace_id":null,"gplace_url":"https://maps.google.com/?cid=2874331576495367390","dealerID":74125,"trusted":false,"image_id":"v1597283981/buick_RM.png","phone":"8668612399","cityStateSlug":"delta.co","slug":"Delta.CO/hellman+chevrolet+buick","location":"38.7349896,-108.0703586","brandsList":["buick","chevrolet"]},{"id":5729,"crm_id":67076809,"name":"Grand Junction Subaru","dealerSlug":"grand+junction+subaru","city_state_slug":"Grand-Junction.CO","brand":"Subaru","website":"www.rockymtnsubaru.com","address":"651 Market St","city":"Grand Junction","state":"CO","zip":81505,"latitude":39.099792,"longitude":-108.606247,"phone_number_service":"8666772317","phone_number_main":"9702412414","service_hours":"Mo-Fr 07:30 - 17:00 | Sa 08:00 - 17:00","utc_offset":"-360","gplace_id":null,"gplace_url":"https://maps.google.com/?cid=833550798132951682","dealerID":74126,"trusted":false,"image_id":"v1597283982/subaru_ms.png","phone":"8666772317","cityStateSlug":"grand-junction.co","slug":"Grand-Junction.CO/grand+junction+subaru","location":"39.099792,-108.606247","brandsList":["subaru"]},{"id":3228,"crm_id":67076812,"name":"Columbine Ford","dealerSlug":"columbine+ford","city_state_slug":"Rifle.CO","brand":"Ford","website":"www.columbineford.com","address":"2728 Railroad Ave","city":"Rifle","state":"CO","zip":81650,"latitude":39.5550569,"longitude":-107.7754139,"phone_number_service":"9706251680","phone_number_main":"9706251680","service_hours":"Mo-Fr 07:30 - 17:30 | Sa 08:00 - 17:00","utc_offset":"-360","gplace_id":null,"gplace_url":"https://maps.google.com/?cid=9695456385913080907","dealerID":74127,"trusted":false,"image_id":"v1597283967/ford_RM.png","phone":"9706251680","cityStateSlug":"rifle.co","slug":"Rifle.CO/columbine+ford","location":"39.5550569,-107.7754139","brandsList":["ford"]},{"id":4463,"crm_id":68573104,"name":"Ehrlich Toyota","dealerSlug":"ehrlich+toyota","city_state_slug":"Greeley.CO","brand":"Toyota","website":"ehrlichtoyota.com","address":"4732 W 26th St","city":"Greeley","state":"CO","zip":80634,"latitude":40.3947715,"longitude":-104.7574343,"phone_number_service":"9703393900","phone_number_main":"9703393900","service_hours":"Mo-Sa 08:00 - 17:30","utc_offset":"-360","gplace_id":null,"gplace_url":"https://maps.google.com/?cid=2490814919936566830","dealerID":51166,"trusted":true,"image_id":"v1597284039/toyota_ms.png","phone":"9703393900","cityStateSlug":"greeley.co","slug":"Greeley.CO/ehrlich+toyota","location":"40.3947715,-104.7574343","brandsList":["toyota"]},{"id":8131,"crm_id":68641951,"name":"Kuni Honda on Arapahoe","dealerSlug":"kuni+honda+on+arapahoe","city_state_slug":"Centennial.CO","brand":"Honda","website":"www.kuni-honda.com","address":"10750 E Arapahoe Rd","city":"Centennial","state":"CO","zip":80112,"latitude":39.5939422,"longitude":-104.8630658,"phone_number_service":"8669833742","phone_number_main":"8669833742","service_hours":"Mo-Fr 07:00 - 17:00 | Sa 07:00 - 15:00","utc_offset":"-360","gplace_id":null,"gplace_url":"https://maps.google.com/?cid=15226648332568812647","dealerID":74902,"trusted":false,"image_id":"v1597284047/honda_ms.png","phone":"8669833742","cityStateSlug":"centennial.co","slug":"Centennial.CO/kuni+honda+on+arapahoe","location":"39.5939422,-104.8630658","brandsList":["honda"]},{"id":8268,"crm_id":68641993,"name":"Land Rover Denver","dealerSlug":"land+rover+denver","city_state_slug":"Littleton.CO","brand":"Land Rover","website":"www.landroverdenver.com","address":"6160 S Broadway","city":"Littleton","state":"CO","zip":80121,"latitude":39.6044475,"longitude":-104.9873407,"phone_number_service":"3033471500","phone_number_main":"8888925720","service_hours":"Mo-Fr 07:30 - 17:30 | Sa 09:00 - 15:00","utc_offset":"-360","gplace_id":null,"gplace_url":"https://maps.google.com/?cid=15259076386197349675","dealerID":74903,"trusted":false,"image_id":"v1597283945/landrover_RM.png","phone":"3033471500","cityStateSlug":"littleton.co","slug":"Littleton.CO/land+rover+denver","location":"39.6044475,-104.9873407","brandsList":["land rover"]},{"id":505,"crm_id":68642014,"name":"Audi Boulder","dealerSlug":"audi+boulder","city_state_slug":"Boulder.CO","brand":"Audi","website":"www.audiboulderservice.com","address":"1799 Exposition Dr","city":"Boulder","state":"CO","zip":80301,"latitude":40.0177111,"longitude":-105.2459577,"phone_number_service":"8335448038","phone_number_main":"3034427007","service_hours":"Mo-Fr 07:30 - 17:30","utc_offset":"-360","gplace_id":null,"gplace_url":"https://maps.google.com/?cid=14041750054652026443","dealerID":51274,"trusted":true,"image_id":"v1597283985/audi_RM.png","phone":"8335448038","cityStateSlug":"boulder.co","slug":"Boulder.CO/audi+boulder","location":"40.0177111,-105.2459577","brandsList":["audi"]},{"id":11483,"crm_id":69081973,"name":"Phil Long Hyundai of Motor City","dealerSlug":"phil+long+hyundai+of+motor+city","city_state_slug":"Colorado-Springs.CO","brand":"Hyundai","website":"www.hyundaicoloradosprings.com","address":"170 W Motor Way","city":"Colorado Springs","state":"CO","zip":80905,"latitude":38.8141839,"longitude":-104.8301226,"phone_number_service":"8669148893","phone_number_main":"7194530549","service_hours":"Mo-Fr 07:00 - 18:00 | Sa 08:00 - 15:00","utc_offset":"-360","gplace_id":null,"gplace_url":"https://maps.google.com/?cid=9182581409698906438","dealerID":74925,"trusted":false,"image_id":"v1597283959/hyundai_RM.png","phone":"8669148893","cityStateSlug":"colorado-springs.co","slug":"Colorado-Springs.CO/phil+long+hyundai+of+motor+city","location":"38.8141839,-104.8301226","brandsList":["hyundai"]},{"id":13681,"crm_id":69425779,"name":"Stevinson Toyota West","dealerSlug":"stevinson+toyota+west","city_state_slug":"Lakewood.CO","brand":"Toyota","website":"www.stevinsontoyotawest.com","address":"780 Denver West Colorado Mills Blvd","city":"Lakewood","state":"CO","zip":80401,"latitude":39.7285035,"longitude":-105.163888,"phone_number_service":"7202598390","phone_number_main":"7202592544","service_hours":"Mo-Sa 07:00 - 18:00","utc_offset":"-360","gplace_id":null,"gplace_url":"https://maps.google.com/?cid=12809348327997777436","dealerID":74952,"trusted":false,"image_id":"v1597284039/toyota_ms.png","phone":"7202598390","cityStateSlug":"lakewood.co","slug":"Lakewood.CO/stevinson+toyota+west","location":"39.7285035,-105.163888","brandsList":["toyota"]},{"id":11482,"crm_id":70391278,"name":"Phil Long Hyundai Chapel Hills","dealerSlug":"phil+long+hyundai+chapel+hills","city_state_slug":"Colorado-Springs.CO","brand":"Hyundai","website":"www.coloradospringshyundai.com","address":"1540 Auto Mall Loop","city":"Colorado Springs","state":"CO","zip":80920,"latitude":38.95433,"longitude":-104.797801,"phone_number_service":"7197222362","phone_number_main":"7197222362","service_hours":"Mo-Fr 07:00 - 18:00 | Sa 07:00 - 15:00","utc_offset":"-360","gplace_id":null,"gplace_url":"https://maps.google.com/?cid=18071816536712841275","dealerID":74973,"trusted":false,"image_id":"v1597283959/hyundai_RM.png","phone":"7197222362","cityStateSlug":"colorado-springs.co","slug":"Colorado-Springs.CO/phil+long+hyundai+chapel+hills","location":"38.95433,-104.797801","brandsList":["hyundai"]},{"id":3705,"crm_id":70391335,"name":"Daniels Long Chevrolet","dealerSlug":"daniels+long+chevrolet","city_state_slug":"Colorado-Springs.CO","brand":"Chevrolet","website":"www.danielslong.com","address":"670 Automotive Dr","city":"Colorado Springs","state":"CO","zip":80905,"latitude":38.8179018,"longitude":-104.8405368,"phone_number_service":"8553492832","phone_number_main":"7192084595","service_hours":"Mo-Sa 07:00 - 18:00","utc_offset":"-360","gplace_id":null,"gplace_url":"https://maps.google.com/?cid=11294543441473490355","dealerID":74974,"trusted":false,"image_id":"v1597284079/chevy_ms.png","phone":"8553492832","cityStateSlug":"colorado-springs.co","slug":"Colorado-Springs.CO/daniels+long+chevrolet","location":"38.8179018,-104.8405368","brandsList":["chevrolet"]},{"id":11479,"crm_id":70391428,"name":"Phil Long Ford of Motor City","dealerSlug":"phil+long+ford+of+motor+city","city_state_slug":"Colorado-Springs.CO","brand":"Ford","website":"www.fordmotorcity.com","address":"1212 Motor City Dr","city":"Colorado Springs","state":"CO","zip":80905,"latitude":38.8172066,"longitude":-104.8347241,"phone_number_service":"8887017494","phone_number_main":"8442372169","service_hours":"Mo-Fr 07:00 - 18:00 | Sa 07:00 - 16:00","utc_offset":"-360","gplace_id":null,"gplace_url":"https://maps.google.com/?cid=2893764102533857111","dealerID":74975,"trusted":false,"image_id":"v1597283967/ford_RM.png","phone":"8887017494","cityStateSlug":"colorado-springs.co","slug":"Colorado-Springs.CO/phil+long+ford+of+motor+city","location":"38.8172066,-104.8347241","brandsList":["ford"]},{"id":11478,"crm_id":70392655,"name":"Phil Long Ford of Denver","dealerSlug":"phil+long+ford+of+denver","city_state_slug":"Denver.CO","brand":"Ford","website":"www.phillongdenver.com","address":"7887 W Tufts Ave","city":"Denver","state":"CO","zip":80123,"latitude":39.6343437,"longitude":-105.084786,"phone_number_service":"8883120916","phone_number_main":"8442504168","service_hours":"Mo-Fr 07:00 - 18:00 | Sa 07:00 - 16:00","utc_offset":"-360","gplace_id":null,"gplace_url":"https://maps.google.com/?cid=1657123062583993051","dealerID":74976,"trusted":false,"image_id":"v1597283967/ford_RM.png","phone":"8883120916","cityStateSlug":"denver.co","slug":"Denver.CO/phil+long+ford+of+denver","location":"39.6343437,-105.084786","brandsList":["ford"]},{"id":9708,"crm_id":70392823,"name":"Mercedes-Benz of Colorado Springs","dealerSlug":"mercedes+benz+of+colorado+springs","city_state_slug":"Colorado-Springs.CO","brand":"Mercedes-Benz","website":"www.benzcoloradosprings.com","address":"730 Automotive Dr","city":"Colorado Springs","state":"CO","zip":80905,"latitude":38.8166672,"longitude":-104.8408104,"phone_number_service":"8669810593","phone_number_main":"7196392268","service_hours":"Mo-Sa 07:00 - 18:00","utc_offset":"-360","gplace_id":null,"gplace_url":"https://maps.google.com/?cid=1411061970592256333","dealerID":74978,"trusted":false,"image_id":"v1597283934/mercedes_RM.png","phone":"8669810593","cityStateSlug":"colorado-springs.co","slug":"Colorado-Springs.CO/mercedes+benz+of+colorado+springs","location":"38.8166672,-104.8408104","brandsList":["mercedes-benz"]},{"id":11484,"crm_id":70392874,"name":"Phil Long Kia","dealerSlug":"phil+long+kia","city_state_slug":"Colorado-Springs.CO","brand":"Kia","website":"www.phillongkia.com","address":"1020 Motor City Dr","city":"Colorado Springs","state":"CO","zip":80905,"latitude":38.8195141,"longitude":-104.8373447,"phone_number_service":"8778792692","phone_number_main":"8883516181","service_hours":"Mo-Fr 07:00 - 18:00 | Sa 08:00 - 17:00","utc_offset":"-360","gplace_id":null,"gplace_url":"https://maps.google.com/?cid=2325585271028454069","dealerID":74979,"trusted":false,"image_id":"v1597283948/kia_RM.png","phone":"8778792692","cityStateSlug":"colorado-springs.co","slug":"Colorado-Springs.CO/phil+long+kia","location":"38.8195141,-104.8373447","brandsList":["kia"]},{"id":11486,"crm_id":70392922,"name":"Phil Long Toyota of Trinidad","dealerSlug":"phil+long+toyota+of+trinidad","city_state_slug":"Trinidad.CO","brand":"Toyota","website":"www.phillongtoyota.com","address":"105 E Cedar St","city":"Trinidad","state":"CO","zip":81082,"latitude":37.1717567,"longitude":-104.5054397,"phone_number_service":"8554801011","phone_number_main":"7193557100","service_hours":"Mo-Fr 08:00 - 18:00 | Sa 08:00 - 18:00","utc_offset":"-360","gplace_id":null,"gplace_url":"https://maps.google.com/?cid=2046659200994960477","dealerID":74980,"trusted":false,"image_id":"v1597284039/toyota_ms.png","phone":"8554801011","cityStateSlug":"trinidad.co","slug":"Trinidad.CO/phil+long+toyota+of+trinidad","location":"37.1717567,-104.5054397","brandsList":["toyota"]},{"id":530,"crm_id":70393015,"name":"Audi Colorado Springs","dealerSlug":"audi+colorado+springs","city_state_slug":"Colorado-Springs.CO","brand":"Audi","website":"www.audicoloradosprings.com","address":"550 Automotive Dr","city":"Colorado Springs","state":"CO","zip":80905,"latitude":38.8169582,"longitude":-104.8373624,"phone_number_service":"8553492826","phone_number_main":"7197223005","service_hours":"Mo-Fr 07:00 - 18:00 | Sa 08:00 - 16:00","utc_offset":"-360","gplace_id":null,"gplace_url":"https://maps.google.com/?cid=7806060896095321814","dealerID":74981,"trusted":false,"image_id":"v1597283985/audi_RM.png","phone":"8553492826","cityStateSlug":"colorado-springs.co","slug":"Colorado-Springs.CO/audi+colorado+springs","location":"38.8169582,-104.8373624","brandsList":["audi"]},{"id":3210,"crm_id":70467715,"name":"Colorado Springs Dodge","dealerSlug":"colorado+springs+dodge","city_state_slug":"Colorado-Springs.CO","brand":"Chrysler,Dodge,Jeep,RAM,Fiat","website":"www.coloradospringsdodge.net","address":"7455 Austin Bluffs Pkwy.","city":"Colorado Springs","state":"CO","zip":80923,"latitude":38.9391048,"longitude":-104.7382322,"phone_number_service":"7193297546","phone_number_main":"7194286400","service_hours":"Mo-Fr 09:00 - 18:30 | Sa 09:00 - 17:00","utc_offset":"-360","gplace_id":null,"gplace_url":"https://maps.google.com/?cid=1925525025333447714","dealerID":74983,"trusted":false,"image_id":"v1597283975/chrysler_RM.png","phone":"7193297546","cityStateSlug":"colorado-springs.co","slug":"Colorado-Springs.CO/colorado+springs+dodge","location":"38.9391048,-104.7382322","brandsList":["chrysler","dodge","jeep","ram","fiat"]},{"id":8474,"crm_id":71673856,"name":"Larry H. Miller Volkswagen Lakewood","dealerSlug":"larry+h+miller+volkswagen+lakewood","city_state_slug":"Lakewood.CO","brand":"Volkswagen","website":"www.lhmvw.com","address":"8303 W Colfax Ave","city":"Lakewood","state":"CO","zip":80214,"latitude":39.7407738,"longitude":-105.0898784,"phone_number_service":"8668708225","phone_number_main":"7209070927","service_hours":"Mo-Fr 07:00 - 18:00 | Sa 08:00 - 17:00","utc_offset":"-360","gplace_id":null,"gplace_url":"https://maps.google.com/?cid=10966874552033315955","dealerID":75045,"trusted":false,"image_id":"v1597283902/volkswagen.png","phone":"8668708225","cityStateSlug":"lakewood.co","slug":"Lakewood.CO/larry+h+miller+volkswagen+lakewood","location":"39.7407738,-105.0898784","brandsList":["volkswagen"]},{"id":8444,"crm_id":71673868,"name":"Larry H. Miller Ford Lakewood","dealerSlug":"larry+h+miller+ford+lakewood","city_state_slug":"Lakewood.CO","brand":"Ford","website":"www.lhmlakewoodford.com","address":"11595 W 6th Ave","city":"Lakewood","state":"CO","zip":80215,"latitude":39.72684,"longitude":-105.127275,"phone_number_service":"8883559474","phone_number_main":"7206431545","service_hours":"Mo-Fr 08:00 - 18:00 | Sa 08:00 - 17:00","utc_offset":"-360","gplace_id":null,"gplace_url":"https://maps.google.com/?cid=14035926315384143592","dealerID":75046,"trusted":false,"image_id":"v1597283967/ford_RM.png","phone":"8883559474","cityStateSlug":"lakewood.co","slug":"Lakewood.CO/larry+h+miller+ford+lakewood","location":"39.72684,-105.127275","brandsList":["ford"]},{"id":8426,"crm_id":71673880,"name":"Larry H. Miller Chrysler Dodge RAM FIAT Denver","dealerSlug":"larry+h+miller+chrysler+dodge+ram+fiat+denver","city_state_slug":"Aurora.CO","brand":"Chrysler,Dodge,Fiat,RAM","website":"www.lhmchryslerdodgeramfiatdenver.com","address":"2727 S Havana St","city":"Aurora","state":"CO","zip":80014,"latitude":39.6668278,"longitude":-104.8669369,"phone_number_service":"8776195178","phone_number_main":"7209071243","service_hours":"Mo-Fr 07:00 - 18:00 | Sa 08:00 - 17:00","utc_offset":"-360","gplace_id":null,"gplace_url":"https://maps.google.com/?cid=12475457768777883269","dealerID":75047,"trusted":false,"image_id":"v1597283975/chrysler_RM.png","phone":"8776195178","cityStateSlug":"aurora.co","slug":"Aurora.CO/larry+h+miller+chrysler+dodge+ram+fiat+denver","location":"39.6668278,-104.8669369","brandsList":["chrysler","dodge","fiat","ram"]},{"id":4535,"crm_id":71673907,"name":"Empire Littleton Nissan","dealerSlug":"empire+littleton+nissan","city_state_slug":"Littleton.CO","brand":"Nissan","website":"empirelittletonnissan.com","address":"5067 S Wadsworth Blvd","city":"Littleton","state":"CO","zip":80123,"latitude":39.6272387,"longitude":-105.0922794,"phone_number_service":"3032834900","phone_number_main":"3039047700","service_hours":"Mo-Fr 07:00 - 18:00 | Sa 08:00-16:00","utc_offset":"-360","gplace_id":null,"gplace_url":"https://maps.google.com/?cid=15940586974883188904","dealerID":75048,"trusted":false,"image_id":"v1597283926/nissan_RM.png","phone":"3032834900","cityStateSlug":"littleton.co","slug":"Littleton.CO/empire+littleton+nissan","location":"39.6272387,-105.0922794","brandsList":["nissan"]},{"id":5730,"crm_id":73322629,"name":"Grand Junction Volkswagen","dealerSlug":"grand+junction+volkswagen","city_state_slug":"Grand-Junction.CO","brand":"Volkswagen","website":"www.grandjunctionvolkswagen.com","address":"653 Market St","city":"Grand Junction","state":"CO","zip":81505,"latitude":39.100101,"longitude":-108.6070263,"phone_number_service":"8884615529","phone_number_main":"9702556677","service_hours":"Mo-Fr 07:30 - 17:30 | Sa 08:00 - 17:30","utc_offset":"-360","gplace_id":null,"gplace_url":"https://maps.google.com/?cid=97851985058951040","dealerID":75083,"trusted":false,"image_id":"v1597283902/volkswagen.png","phone":"8884615529","cityStateSlug":"grand-junction.co","slug":"Grand-Junction.CO/grand+junction+volkswagen","location":"39.100101,-108.6070263","brandsList":["volkswagen"]},{"id":4464,"crm_id":74792707,"name":"Ehrlich Toyota East","dealerSlug":"ehrlich+toyota+east","city_state_slug":"Fort-Morgan.CO","brand":"Toyota","website":"ehrlichtoyotaeast.com","address":"1209 Main St","city":"Fort Morgan","state":"CO","zip":80701,"latitude":40.2619613,"longitude":-103.8029707,"phone_number_service":"9708671400","phone_number_main":"9708671400","service_hours":"Mo-Sa  08:00 - 17:30","utc_offset":"-360","gplace_id":null,"gplace_url":"https://maps.google.com/?cid=13960079837954538052","dealerID":51159,"trusted":true,"image_id":"v1597284039/toyota_ms.png","phone":"9708671400","cityStateSlug":"fort-morgan.co","slug":"Fort-Morgan.CO/ehrlich+toyota+east","location":"40.2619613,-103.8029707","brandsList":["toyota"]},{"id":5175,"crm_id":76071748,"name":"Freedom Honda","dealerSlug":"freedom+honda","city_state_slug":"Colorado-Springs.CO","brand":"Honda","website":"www.freedomhonda.net","address":"4955 New Car Dr","city":"Colorado Springs","state":"CO","zip":80923,"latitude":38.9372627,"longitude":-104.7351903,"phone_number_service":"7192582500","phone_number_main":"7192582500","service_hours":"Mo-Sa 7:00 - 18:00","utc_offset":"-360","gplace_id":null,"gplace_url":"https://maps.google.com/?cid=4277468788225361965","dealerID":51550,"trusted":true,"image_id":"v1597284047/honda_ms.png","phone":"7192582500","cityStateSlug":"colorado-springs.co","slug":"Colorado-Springs.CO/freedom+honda","location":"38.9372627,-104.7351903","brandsList":["honda"]},{"id":10024,"crm_id":76071892,"name":"Mike Maroone Honda","dealerSlug":"mike+maroone+honda","city_state_slug":"Colorado-Springs.CO","brand":"Honda","website":"www.mikemaroonehonda.com","address":"1103 Academy Park Loop","city":"Colorado Springs","state":"CO","zip":80910,"latitude":38.8172793,"longitude":-104.7544073,"phone_number_service":"8884304939","phone_number_main":"7198882995","service_hours":"Mo-Fr 07:30 - 17:30 | Sa 07:00 - 17:00","utc_offset":"-360","gplace_id":null,"gplace_url":"https://maps.google.com/?cid=16189007893084104968","dealerID":75142,"trusted":false,"image_id":"v1597284047/honda_ms.png","phone":"8884304939","cityStateSlug":"colorado-springs.co","slug":"Colorado-Springs.CO/mike+maroone+honda","location":"38.8172793,-104.7544073","brandsList":["honda"]},{"id":287,"crm_id":76072459,"name":"Alpine Buick GMC South","dealerSlug":"alpine+buick+gmc+south","city_state_slug":"Colorado-Springs.CO","brand":"Buick,GMC","website":"www.alpinebuickgmcsouth.com","address":"1313 Motor City Dr","city":"Colorado Springs","state":"CO","zip":80905,"latitude":38.8160631,"longitude":-104.8308572,"phone_number_service":"7196025791","phone_number_main":"7193012573","service_hours":"Mo-Fr 08:00 - 17:00 | Sa 08:00 - 16:00","utc_offset":"-360","gplace_id":null,"gplace_url":"https://maps.google.com/?cid=10616125789906134296","dealerID":75143,"trusted":false,"image_id":"v1597283981/buick_RM.png","phone":"7196025791","cityStateSlug":"colorado-springs.co","slug":"Colorado-Springs.CO/alpine+buick+gmc+south","location":"38.8160631,-104.8308572","brandsList":["buick","gmc"]},{"id":1884,"crm_id":76078669,"name":"Bob Penkhus Mazda (South)","dealerSlug":"bob+penkhus+mazda+south","city_state_slug":"Colorado-Springs.CO","brand":"Mazda","website":"www.bobpenkhusmazda.com","address":"1101 Motor City Dr Suite B","city":"Colorado Springs","state":"CO","zip":80905,"latitude":38.8193373,"longitude":-104.835864,"phone_number_service":"7194734711","phone_number_main":"7194734100","service_hours":"Mo-Fr 07:00 - 18:00 | Sa 08:00 - 16:00","utc_offset":"-360","gplace_id":null,"gplace_url":"https://maps.google.com/?cid=2423542513300649945","dealerID":75144,"trusted":false,"image_id":"v1597283937/mazda.png","phone":"7194734711","cityStateSlug":"colorado-springs.co","slug":"Colorado-Springs.CO/bob+penkhus+mazda+south","location":"38.8193373,-104.835864","brandsList":["mazda"]},{"id":11485,"crm_id":76083589,"name":"Phil Long Lincoln","dealerSlug":"phil+long+lincoln","city_state_slug":"Colorado-Springs.CO","brand":"Lincoln","website":"www.phillonglincoln.com","address":"1114 Motor City Dr","city":"Colorado Springs","state":"CO","zip":80905,"latitude":38.818048,"longitude":-104.8352699,"phone_number_service":"8888570519","phone_number_main":"8884371751","service_hours":"Mo-Fr 07:30 - 17:30  | Sa 08:00 - 16:30","utc_offset":"-360","gplace_id":null,"gplace_url":"https://maps.google.com/?cid=17638643797467699537","dealerID":75145,"trusted":false,"image_id":"v1597283942/lincoln_RM.png","phone":"8888570519","cityStateSlug":"colorado-springs.co","slug":"Colorado-Springs.CO/phil+long+lincoln","location":"38.818048,-104.8352699","brandsList":["lincoln"]},{"id":11581,"crm_id":76439566,"name":"Planet Honda","dealerSlug":"planet+honda","city_state_slug":"Golden.CO","brand":"Honda","website":"www.planethonda.com","address":"15701 W Colfax Ave","city":"Golden","state":"CO","zip":80401,"latitude":39.730062,"longitude":-105.1772052,"phone_number_service":"3032154200","phone_number_main":"3032154200","service_hours":"Mo-Fr 07:00 - 18:00 | Sa 07:00 - 18:00","utc_offset":"-360","gplace_id":null,"gplace_url":"https://maps.google.com/?cid=13140874225085378712","dealerID":75154,"trusted":false,"image_id":"v1597284047/honda_ms.png","phone":"3032154200","cityStateSlug":"golden.co","slug":"Golden.CO/planet+honda","location":"39.730062,-105.1772052","brandsList":["honda"]},{"id":2083,"crm_id":76736233,"name":"Brandon Dodge on Broadway","dealerSlug":"brandon+dodge+on+broadway","city_state_slug":"Littleton.CO","brand":"Dodge,RAM","website":"www.brandondodge.com","address":"5600 S Broadway","city":"Littleton","state":"CO","zip":80121,"latitude":39.6138241,"longitude":-104.9871581,"phone_number_service":"8442668675","phone_number_main":"3037944954","service_hours":"Mo-Fr 07:00 - 18:00 | Sa 08:00 - 16:00","utc_offset":"-360","gplace_id":null,"gplace_url":"https://maps.google.com/?cid=13740713851294879622","dealerID":75167,"trusted":false,"image_id":"v1597283974/dodge.png","phone":"8442668675","cityStateSlug":"littleton.co","slug":"Littleton.CO/brandon+dodge+on+broadway","location":"39.6138241,-104.9871581","brandsList":["dodge","ram"]},{"id":11481,"crm_id":76750198,"name":"Phil Long Honda","dealerSlug":"phil+long+honda","city_state_slug":"Glenwood-Springs.CO","brand":"Honda","website":"www.phillonghonda.com","address":"51429 Hwy 6","city":"Glenwood Springs","state":"CO","zip":81601,"latitude":39.5619466,"longitude":-107.3559637,"phone_number_service":"8775328019","phone_number_main":"8664823369","service_hours":"Mo-Fr 07:00 - 18:00 | Sa 07:00 - 18:00","utc_offset":"-360","gplace_id":null,"gplace_url":"https://maps.google.com/?cid=3285553318560859233","dealerID":75168,"trusted":false,"image_id":"v1597284047/honda_ms.png","phone":"8775328019","cityStateSlug":"glenwood-springs.co","slug":"Glenwood-Springs.CO/phil+long+honda","location":"39.5619466,-107.3559637","brandsList":["honda"]},{"id":2745,"crm_id":77359477,"name":"Century Chevrolet","dealerSlug":"century+chevrolet","city_state_slug":"Broomfield.CO","brand":"Chevrolet","website":"www.centurychevy.com","address":"6105 W 120th Ave","city":"Broomfield","state":"CO","zip":80020,"latitude":39.9152956,"longitude":-105.0630511,"phone_number_service":"3034387454","phone_number_main":"3034693355","service_hours":"Mo-Fr 07:00 - 21:00 | Sa 08:00 - 17:00","utc_offset":"-360","gplace_id":null,"gplace_url":"https://maps.google.com/?cid=4770725602075586861","dealerID":50657,"trusted":true,"image_id":"v1597284079/chevy_ms.png","phone":"3034387454","cityStateSlug":"broomfield.co","slug":"Broomfield.CO/century+chevrolet","location":"39.9152956,-105.0630511","brandsList":["chevrolet"]},{"id":12940,"crm_id":77422678,"name":"Schomp Hyundai","dealerSlug":"schomp+hyundai","city_state_slug":"Aurora.CO","brand":"Hyundai","website":"www.schomphyundai.com","address":"100 Havana St","city":"Aurora","state":"CO","zip":80010,"latitude":39.7190207,"longitude":-104.8649358,"phone_number_service":"7205040748","phone_number_main":"3035772258","service_hours":"Tu-Sa 08:00 - 18:00","utc_offset":"-360","gplace_id":null,"gplace_url":"https://maps.google.com/?cid=5958544189213748936","dealerID":51125,"trusted":true,"image_id":"v1597283959/hyundai_RM.png","phone":"7205040748","cityStateSlug":"aurora.co","slug":"Aurora.CO/schomp+hyundai","location":"39.7190207,-104.8649358","brandsList":["hyundai"]},{"id":12941,"crm_id":77423062,"name":"Schomp Mazda","dealerSlug":"schomp+mazda","city_state_slug":"Aurora.CO","brand":"Mazda","website":"www.schompmazda.com","address":"90 Havana St","city":"Aurora","state":"CO","zip":80010,"latitude":39.717491,"longitude":-104.8644504,"phone_number_service":"7208637277","phone_number_main":"7202624324","service_hours":"Tu-Sa 08:00 - 18:00","utc_offset":"-360","gplace_id":null,"gplace_url":"https://maps.google.com/?cid=500132027833558117","dealerID":51123,"trusted":true,"image_id":"v1597283937/mazda.png","phone":"7208637277","cityStateSlug":"aurora.co","slug":"Aurora.CO/schomp+mazda","location":"39.717491,-104.8644504","brandsList":["mazda"]},{"id":13174,"crm_id":77423089,"name":"Shortline Buick GMC","dealerSlug":"shortline+buick+gmc","city_state_slug":"Aurora.CO","brand":"Buick,GMC","website":"www.shortlinebuickgmc.com","address":"1301 S Havana St","city":"Aurora","state":"CO","zip":80012,"latitude":39.693278,"longitude":-104.866641,"phone_number_service":"3035784190","phone_number_main":"3037513400","service_hours":"Mo-Fr 07:00 - 18:00 | Sa 08:00 - 16:00","utc_offset":"-360","gplace_id":null,"gplace_url":"https://maps.google.com/?cid=10487302106885165879","dealerID":75177,"trusted":false,"image_id":"v1597283981/buick_RM.png","phone":"3035784190","cityStateSlug":"aurora.co","slug":"Aurora.CO/shortline+buick+gmc","location":"39.693278,-104.866641","brandsList":["buick","gmc"]},{"id":14178,"crm_id":77669623,"name":"The Faricy Boys Ford","dealerSlug":"the+faricy+boys+ford","city_state_slug":"Canon-City.CO","brand":"Ford","website":"www.faricyford.com","address":"2501 Fremont Dr","city":"Canon City","state":"CO","zip":81212,"latitude":38.448747,"longitude":-105.210637,"phone_number_service":"7192699181","phone_number_main":"7193157909","service_hours":"Mo-Fr 07:30 - 17:30 | Sa 08:00 - 17:00","utc_offset":"-360","gplace_id":null,"gplace_url":"https://maps.google.com/?cid=14323902150781671604","dealerID":75183,"trusted":false,"image_id":"v1597283967/ford_RM.png","phone":"7192699181","cityStateSlug":"canon-city.co","slug":"Canon-City.CO/the+faricy+boys+ford","location":"38.448747,-105.210637","brandsList":["ford"]},{"id":8457,"crm_id":80306548,"name":"Larry H. Miller Nissan 104th","dealerSlug":"larry+h+miller+nissan+104th","city_state_slug":"Denver.CO","brand":"Nissan","website":"www.larryhmillernissan104.com","address":"2400 W 104th Ave","city":"Denver","state":"CO","zip":80234,"latitude":39.884503,"longitude":-105.0160648,"phone_number_service":"8885366808","phone_number_main":"7204964763","service_hours":"Mo-Fr 07:00 - 18:00 | Sa 08:00 - 17:00","utc_offset":"-360","gplace_id":null,"gplace_url":"https://maps.google.com/?cid=5713529569361435687","dealerID":75233,"trusted":false,"image_id":"v1597283926/nissan_RM.png","phone":"8885366808","cityStateSlug":"denver.co","slug":"Denver.CO/larry+h+miller+nissan+104th","location":"39.884503,-105.0160648","brandsList":["nissan"]},{"id":8436,"crm_id":80307535,"name":"Larry H. Miller Colorado Jeep","dealerSlug":"larry+h+miller+colorado+jeep","city_state_slug":"Aurora.CO","brand":"Jeep","website":"www.lhmcoloradojeep.com","address":"350 S Havana St","city":"Aurora","state":"CO","zip":80012,"latitude":39.7094444,"longitude":-104.8652778,"phone_number_service":"8778257109","phone_number_main":"7202622215","service_hours":"Mo-Fr 07:00 - 18:00 | Sa 08:00 - 13:00","utc_offset":"-360","gplace_id":null,"gplace_url":"https://maps.google.com/?cid=15989424365066613510","dealerID":75235,"trusted":false,"image_id":"v1597284085/jeep_ms.png","phone":"8778257109","cityStateSlug":"aurora.co","slug":"Aurora.CO/larry+h+miller+colorado+jeep","location":"39.7094444,-104.8652778","brandsList":["jeep"]},{"id":9627,"crm_id":85377280,"name":"Medved Ford","dealerSlug":"medved+ford","city_state_slug":"Castle-Rock.CO","brand":"Ford","website":"www.medvedford.com","address":"1404 S Wilcox St","city":"Castle Rock","state":"CO","zip":80104,"latitude":39.3571626,"longitude":-104.8670083,"phone_number_service":"7207337006","phone_number_main":"3036883137","service_hours":"Mo-Fr 07:00 - 18:00","utc_offset":"-360","gplace_id":null,"gplace_url":"https://maps.google.com/?cid=7337772779144674046","dealerID":75345,"trusted":false,"image_id":"v1597283967/ford_RM.png","phone":"7207337006","cityStateSlug":"castle-rock.co","slug":"Castle-Rock.CO/medved+ford","location":"39.3571626,-104.8670083","brandsList":["ford"]},{"id":3525,"crm_id":85913461,"name":"Crossroads Hyundai of Loveland","dealerSlug":"crossroads+hyundai+of+loveland","city_state_slug":"Loveland.CO","brand":"Hyundai","website":"www.mycrossroadshyundai.com","address":"3870 Byrd Dr","city":"Loveland","state":"CO","zip":80538,"latitude":40.4313599,"longitude":-104.9949651,"phone_number_service":"9705343363","phone_number_main":"9702675072","service_hours":"Mo-Fr 07:30 - 18:00 | Sa 07:30-15:30","utc_offset":"-360","gplace_id":null,"gplace_url":"https://maps.google.com/?cid=2900815684368954870","dealerID":51588,"trusted":true,"image_id":"v1597283959/hyundai_RM.png","phone":"9705343363","cityStateSlug":"loveland.co","slug":"Loveland.CO/crossroads+hyundai+of+loveland","location":"40.4313599,-104.9949651","brandsList":["hyundai"]},{"id":2023,"crm_id":85913512,"name":"Boulder Hyundai","dealerSlug":"boulder+hyundai","city_state_slug":"Boulder.CO","brand":"Hyundai","website":"www.boulderhyundai.com","address":"2555 30th St","city":"Boulder","state":"CO","zip":80301,"latitude":40.026834,"longitude":-105.254217,"phone_number_service":"7205804403","phone_number_main":"7205804448","service_hours":"Mo-Fr 07:30 - 18:00 | Sa 08:30 - 16:00","utc_offset":"-360","gplace_id":null,"gplace_url":"https://maps.google.com/?cid=15336057753399308260","dealerID":75377,"trusted":false,"image_id":"v1597283959/hyundai_RM.png","phone":"7205804403","cityStateSlug":"boulder.co","slug":"Boulder.CO/boulder+hyundai","location":"40.026834,-105.254217","brandsList":["hyundai"]},{"id":9626,"crm_id":86573041,"name":"Medved Chrysler Dodge Jeep RAM","dealerSlug":"medved+chrysler+dodge+jeep+ram","city_state_slug":"Castle-Rock.CO","brand":"Chrysler,Dodge,Jeep,RAM","website":"www.medvedchryslerdodgejeepram.com","address":"1520 S Wilcox St","city":"Castle Rock","state":"CO","zip":80104,"latitude":39.35637,"longitude":-104.8672098,"phone_number_service":"7206441841","phone_number_main":"3036883137","service_hours":"Mo-Fr 07:00 - 18:00","utc_offset":"-360","gplace_id":null,"gplace_url":"https://maps.google.com/?cid=13591229364907351890","dealerID":75425,"trusted":false,"image_id":"v1597283975/chrysler_RM.png","phone":"7206441841","cityStateSlug":"castle-rock.co","slug":"Castle-Rock.CO/medved+chrysler+dodge+jeep+ram","location":"39.35637,-104.8672098","brandsList":["chrysler","dodge","jeep","ram"]},{"id":14597,"crm_id":86573179,"name":"Transwest Chrysler Dodge Jeep RAM","dealerSlug":"transwest+chrysler+dodge+jeep+ram","city_state_slug":"Limon.CO","brand":"Chrysler,Dodge,Jeep,RAM","website":"www.transwestchryslerdodge.com","address":"2720 6th St","city":"Limon","state":"CO","zip":80828,"latitude":39.2717773,"longitude":-103.7137739,"phone_number_service":"7192973247","phone_number_main":"7197752881","service_hours":"Mo-Fr 07:30 - 17:30 | Sa 08:00 - 17:00","utc_offset":"-360","gplace_id":null,"gplace_url":"https://maps.google.com/?cid=2714431973611235386","dealerID":75426,"trusted":false,"image_id":"v1597283975/chrysler_RM.png","phone":"7192973247","cityStateSlug":"limon.co","slug":"Limon.CO/transwest+chrysler+dodge+jeep+ram","location":"39.2717773,-103.7137739","brandsList":["chrysler","dodge","jeep","ram"]},{"id":11843,"crm_id":86573536,"name":"Prestige Chrysler, Dodge, Jeep, RAM","dealerSlug":"prestige+chrysler+dodge+jeep+ram","city_state_slug":"Longmont.CO","brand":"Chrysler,Dodge,Jeep,RAM","website":"www.prestigechryslerdodge.com","address":"200 Alpine St","city":"Longmont","state":"CO","zip":80501,"latitude":40.1629268,"longitude":-105.0824956,"phone_number_service":"3032191163","phone_number_main":"3032191142","service_hours":"Mo-Fr 06:30 - 19:00 | Sa 08:00 - 17:00","utc_offset":"-360","gplace_id":null,"gplace_url":"https://maps.google.com/?cid=10322980893516130270","dealerID":75427,"trusted":false,"image_id":"v1597283975/chrysler_RM.png","phone":"3032191163","cityStateSlug":"longmont.co","slug":"Longmont.CO/prestige+chrysler+dodge+jeep+ram","location":"40.1629268,-105.0824956","brandsList":["chrysler","dodge","jeep","ram"]},{"id":5728,"crm_id":86573692,"name":"Grand Junction Chrysler Dodge Jeep RAM","dealerSlug":"grand+junction+chrysler+dodge+jeep+ram","city_state_slug":"Grand-Junction.CO","brand":"Chrysler,Dodge,Jeep,RAM","website":"www.grandjunctionchrysler.com","address":"2578 Hwy 6 & 50","city":"Grand Junction","state":"CO","zip":81501,"latitude":39.078837,"longitude":-108.576274,"phone_number_service":"9706280450","phone_number_main":"9702453100","service_hours":"Mo-Fr 07:30 - 17:30","utc_offset":"-360","gplace_id":null,"gplace_url":"https://maps.google.com/?cid=17648023175367143999","dealerID":51033,"trusted":true,"image_id":"v1597283975/chrysler_RM.png","phone":"9706280450","cityStateSlug":"grand-junction.co","slug":"Grand-Junction.CO/grand+junction+chrysler+dodge+jeep+ram","location":"39.078837,-108.576274","brandsList":["chrysler","dodge","jeep","ram"]},{"id":4462,"crm_id":87784241,"name":"Ehrlich Chrysler Dodge Jeep RAM","dealerSlug":"ehrlich+chrysler+dodge+jeep+ram","city_state_slug":"Fort-Morgan.CO","brand":"Chrysler,Dodge,Jeep,RAM","website":"ehrlichcdjr.com","address":"1221 Main St","city":"Fort Morgan","state":"CO","zip":80701,"latitude":40.261843,"longitude":-103.8029457,"phone_number_service":"9708671400","phone_number_main":"9708675337","service_hours":"Mo-Sa 08:00 - 17:30","utc_offset":"-360","gplace_id":null,"gplace_url":"https://maps.google.com/?cid=3020097713737331051","dealerID":51165,"trusted":true,"image_id":"v1597283975/chrysler_RM.png","phone":"9708671400","cityStateSlug":"fort-morgan.co","slug":"Fort-Morgan.CO/ehrlich+chrysler+dodge+jeep+ram","location":"40.261843,-103.8029457","brandsList":["chrysler","dodge","jeep","ram"]},{"id":6976,"crm_id":93349504,"name":"Interstate Ford","dealerSlug":"interstate+ford","city_state_slug":"Dacono.CO","brand":"Ford","website":"www.i25ford.com/","address":"120 Laura Court","city":"Dacono","state":"CO","zip":80514,"latitude":40.0855188,"longitude":-104.9772907,"phone_number_service":"8558878269","phone_number_main":"3038332873","service_hours":"Mo-Fr 07:30-17:30 | Sa 08:00-17:00","utc_offset":"-360","gplace_id":null,"gplace_url":"https://maps.google.com/?cid=18117506275690310357","dealerID":76171,"trusted":false,"image_id":"v1597283967/ford_RM.png","phone":"8558878269","cityStateSlug":"dacono.co","slug":"Dacono.CO/interstate+ford","location":"40.0855188,-104.9772907","brandsList":["ford"]},{"id":552,"crm_id":93431041,"name":"Audi Flatirons","dealerSlug":"audi+flatirons","city_state_slug":"Broomfield.CO","brand":"Audi","website":"www.audiflatirons.com","address":"13321 W Midway Blvd","city":"Broomfield","state":"CO","zip":80020,"latitude":39.939186,"longitude":-105.1257128,"phone_number_service":"8773368948","phone_number_main":"8773566921","service_hours":"Mo-Fr 07:30 - 17:30 | Sa 08:00-15:00","utc_offset":"-360","gplace_id":null,"gplace_url":"https://maps.google.com/?cid=10432906576060862614","dealerID":51194,"trusted":true,"image_id":"v1597283985/audi_RM.png","phone":"8773368948","cityStateSlug":"broomfield.co","slug":"Broomfield.CO/audi+flatirons","location":"39.939186,-105.1257128","brandsList":["audi"]},{"id":14700,"crm_id":93431674,"name":"Tynan's Nissan Aurora","dealerSlug":"tynans+nissan+aurora","city_state_slug":"Aurora.CO","brand":"Nissan","website":"www.tynansnissanaurora.com","address":"780 S Havana St","city":"Aurora","state":"CO","zip":80012,"latitude":39.7022494,"longitude":-104.8650877,"phone_number_service":"3033413211","phone_number_main":"3033417330","service_hours":"Mo-Fr 07:00 - 18:00 | Sa 08:00 - 15:00","utc_offset":"-360","gplace_id":null,"gplace_url":"https://maps.google.com/?cid=6178382081569707434","dealerID":76175,"trusted":false,"image_id":"v1597283926/nissan_RM.png","phone":"3033413211","cityStateSlug":"aurora.co","slug":"Aurora.CO/tynans+nissan+aurora","location":"39.7022494,-104.8650877","brandsList":["nissan"]},{"id":5021,"crm_id":93560788,"name":"Fort Collins Nissan","dealerSlug":"fort+collins+nissan","city_state_slug":"Fort-Collins.CO","brand":"Nissan","website":"www.fortcollinsnissan.com","address":"5811 S College Ave","city":"Fort Collins","state":"CO","zip":80525,"latitude":40.5055864,"longitude":-105.0782592,"phone_number_service":"9705074741","phone_number_main":"9703943442","service_hours":"Mo-Fr 07:00 - 18:00 | Sa 08:00 - 17:00","utc_offset":"-360","gplace_id":null,"gplace_url":"https://maps.google.com/?cid=2356837555058699873","dealerID":76178,"trusted":false,"image_id":"v1597283926/nissan_RM.png","phone":"9705074741","cityStateSlug":"fort-collins.co","slug":"Fort-Collins.CO/fort+collins+nissan","location":"40.5055864,-105.0782592","brandsList":["nissan"]},{"id":14815,"crm_id":93560839,"name":"Valley Nissan","dealerSlug":"valley+nissan","city_state_slug":"Longmont.CO","brand":"Nissan","website":"www.valleynissan.com","address":"1005 Ken Pratt Blvd","city":"Longmont","state":"CO","zip":80501,"latitude":40.1519013,"longitude":-105.1088579,"phone_number_service":"7206368318","phone_number_main":"3035862862","service_hours":"Mo-Fr 07:30 - 18:00 | Sa 08:00 - 17:00","utc_offset":"-360","gplace_id":null,"gplace_url":"https://maps.google.com/?cid=7854903100468842766","dealerID":76179,"trusted":false,"image_id":"v1597283926/nissan_RM.png","phone":"7206368318","cityStateSlug":"longmont.co","slug":"Longmont.CO/valley+nissan","location":"40.1519013,-105.1088579","brandsList":["nissan"]},{"id":12177,"crm_id":93560911,"name":"Red Rock Nissan","dealerSlug":"red+rock+nissan","city_state_slug":"Grand-Junction.CO","brand":"Nissan","website":"www.redrocknissan.com","address":"2582 Highway 6 and 50","city":"Grand Junction","state":"CO","zip":81501,"latitude":39.0746559,"longitude":-108.5735003,"phone_number_service":"8338438357","phone_number_main":"9706448020","service_hours":"Mo-Fr 07:30 - 17:00 | Sa 07:30 - 16:00","utc_offset":"-360","gplace_id":null,"gplace_url":"https://maps.google.com/?cid=14082684923954936171","dealerID":76180,"trusted":false,"image_id":"v1597283926/nissan_RM.png","phone":"8338438357","cityStateSlug":"grand-junction.co","slug":"Grand-Junction.CO/red+rock+nissan","location":"39.0746559,-108.5735003","brandsList":["nissan"]},{"id":14701,"crm_id":94018804,"name":"Tynan's Volkswagen","dealerSlug":"tynans+volkswagen","city_state_slug":"Aurora.CO","brand":"Volkswagen","website":"www.tynansvolkswagen.com","address":"700 South Havana","city":"Aurora","state":"CO","zip":80012,"latitude":39.7032709,"longitude":-104.8655974,"phone_number_service":"3033413212","phone_number_main":"3033438180","service_hours":"Mo-Fr 07:00 - 18:00 | Sa 08:00 - 15:00","utc_offset":"-360","gplace_id":null,"gplace_url":"https://maps.google.com/?cid=11725227747488665181","dealerID":76189,"trusted":false,"image_id":"v1597283902/volkswagen.png","phone":"3033413212","cityStateSlug":"aurora.co","slug":"Aurora.CO/tynans+volkswagen","location":"39.7032709,-104.8655974","brandsList":["volkswagen"]},{"id":5781,"crm_id":94847965,"name":"Greeley Volkswagen","dealerSlug":"greeley+volkswagen","city_state_slug":"Greeley.CO","brand":"Volkswagen","website":"www.greeleyvolkswagen.com","address":"2605 35th Ave","city":"Greeley","state":"CO","zip":80634,"latitude":40.3948623,"longitude":-104.7361076,"phone_number_service":"9702350526","phone_number_main":"9703733964","service_hours":"Mo-Fr 07:30 - 18:00 | Sa 08:00 - 17:00","utc_offset":"-360","gplace_id":null,"gplace_url":"https://maps.google.com/?cid=4136935939126944798","dealerID":76251,"trusted":false,"image_id":"v1597283902/volkswagen.png","phone":"9702350526","cityStateSlug":"greeley.co","slug":"Greeley.CO/greeley+volkswagen","location":"40.3948623,-104.7361076","brandsList":["volkswagen"]},{"id":6240,"crm_id":96471985,"name":"Hellman Ford","dealerSlug":"hellman+ford","city_state_slug":"Delta.CO","brand":"Ford","website":"www.hellmanford.com","address":"750 E. Highway 92","city":"Delta","state":"CO","zip":81416,"latitude":38.7487896,"longitude":-108.0640461,"phone_number_service":"8778495833","phone_number_main":"9708744444","service_hours":"Mo-Fr 07:30 - 17:30","utc_offset":"-360","gplace_id":null,"gplace_url":"https://maps.google.com/?cid=10983338382916099120","dealerID":76331,"trusted":false,"image_id":"v1597283967/ford_RM.png","phone":"8778495833","cityStateSlug":"delta.co","slug":"Delta.CO/hellman+ford","location":"38.7487896,-108.0640461","brandsList":["ford"]},{"id":8458,"crm_id":96588184,"name":"Larry H. Miller Nissan Arapahoe","dealerSlug":"larry+h+miller+nissan+arapahoe","city_state_slug":"Centennial.CO","brand":"Nissan","website":"www.lhmnissanarapahoe.com","address":"10030 E Arapahoe Rd","city":"Centennial","state":"CO","zip":80112,"latitude":39.5942847,"longitude":-104.8725527,"phone_number_service":"8884501229","phone_number_main":"3032689302","service_hours":"Mo-Fr 07:00 - 18:00 | Sa 08:00 - 17:00","utc_offset":"-360","gplace_id":null,"gplace_url":"https://maps.google.com/?cid=7784069189617454712","dealerID":76333,"trusted":false,"image_id":"v1597283926/nissan_RM.png","phone":"8884501229","cityStateSlug":"centennial.co","slug":"Centennial.CO/larry+h+miller+nissan+arapahoe","location":"39.5942847,-104.8725527","brandsList":["nissan"]},{"id":8460,"crm_id":96674056,"name":"Larry H. Miller Nissan Highlands Ranch","dealerSlug":"larry+h+miller+nissan+highlands+ranch","city_state_slug":"Highlands-Ranch.CO","brand":"Nissan","website":"www.larrymillernissan.com","address":"1320 Plum Valley Ln","city":"Highlands Ranch","state":"CO","zip":80129,"latitude":39.5603622,"longitude":-105.0048804,"phone_number_service":"7207892388","phone_number_main":"7209070718","service_hours":"Mo-Fr 07:00 - 18:00 | Sa 08:00 - 17:00","utc_offset":"-360","gplace_id":null,"gplace_url":"https://maps.google.com/?cid=17351684089269397622","dealerID":76335,"trusted":false,"image_id":"v1597283926/nissan_RM.png","phone":"7207892388","cityStateSlug":"highlands-ranch.co","slug":"Highlands-Ranch.CO/larry+h+miller+nissan+highlands+ranch","location":"39.5603622,-105.0048804","brandsList":["nissan"]},{"id":2326,"crm_id":96795889,"name":"Burlington Ford and Lincoln","dealerSlug":"burlington+ford+and+lincoln","city_state_slug":"Burlington.CO","brand":"Ford,Lincoln","website":"www.burlington-limonford.com","address":"1975 Rose Ave","city":"Burlington","state":"CO","zip":80807,"latitude":39.3005369,"longitude":-102.2754604,"phone_number_service":"8778383702","phone_number_main":"7193465336","service_hours":"Mo-Fr 08:00 - 17:30 | Sa 08:00 - 12:00","utc_offset":"-360","gplace_id":null,"gplace_url":"https://maps.google.com/?cid=13804998718568614119","dealerID":76343,"trusted":false,"image_id":"v1597283967/ford_RM.png","phone":"8778383702","cityStateSlug":"burlington.co","slug":"Burlington.CO/burlington+ford+and+lincoln","location":"39.3005369,-102.2754604","brandsList":["ford","lincoln"]},{"id":5019,"crm_id":96832738,"name":"Fort Collins Dodge Chrysler RAM","dealerSlug":"fort+collins+dodge+chrysler+ram","city_state_slug":"Fort-Collins.CO","brand":"Chrysler,Dodge,RAM","website":"www.fortcollinsdcr.com/","address":"3835 S College Ave","city":"Fort Collins","state":"CO","zip":80525,"latitude":40.5345053,"longitude":-105.0779435,"phone_number_service":"9706585109","phone_number_main":"9705419989","service_hours":"Mo-Fr 07:30 - 18:00| Sa 07:30 - 15:30","utc_offset":"-360","gplace_id":null,"gplace_url":"https://maps.google.com/?cid=12302342214579695372","dealerID":76344,"trusted":false,"image_id":"v1597283975/chrysler_RM.png","phone":"9706585109","cityStateSlug":"fort-collins.co","slug":"Fort-Collins.CO/fort+collins+dodge+chrysler+ram","location":"40.5345053,-105.0779435","brandsList":["chrysler","dodge","ram"]},{"id":1659,"crm_id":97705753,"name":"BMW of Denver Downtown","dealerSlug":"bmw+of+denver+downtown","city_state_slug":"Denver.CO","brand":"BMW","website":"www.bmwofdenverdowntown.com","address":"1040 S Colorado Blvd","city":"Denver","state":"CO","zip":80246,"latitude":39.6976,"longitude":-104.9398,"phone_number_service":"8555799692","phone_number_main":"3039544856","service_hours":"Mo-Fr 07:00 - 18:30 | Sa 08:00 - 17:00","utc_offset":"-360","gplace_id":null,"gplace_url":"https://maps.google.com/?cid=7481793559883841464","dealerID":51254,"trusted":true,"image_id":"v1597283982/bmw_RM.png","phone":"8555799692","cityStateSlug":"denver.co","slug":"Denver.CO/bmw+of+denver+downtown","location":"39.6976,-104.9398","brandsList":["bmw"]},{"id":1885,"crm_id":98002876,"name":"Bob Penkhus Mazda at Powers (North)","dealerSlug":"bob+penkhus+mazda+at+powers+north","city_state_slug":"Colorado-Springs.CO","brand":"Mazda","website":"www.bobpenkhusmazdaatpowers.com","address":"7455 Test Dr","city":"Colorado Springs","state":"CO","zip":80923,"latitude":38.9395487,"longitude":-104.7332717,"phone_number_service":"7197859600","phone_number_main":"7197859666","service_hours":"Mo-Fr 07:00 - 18:00 | Sa 08:00 - 16:00","utc_offset":"-360","gplace_id":null,"gplace_url":"https://maps.google.com/?cid=11579138053451860061","dealerID":76428,"trusted":false,"image_id":"v1597283937/mazda.png","phone":"7197859600","cityStateSlug":"colorado-springs.co","slug":"Colorado-Springs.CO/bob+penkhus+mazda+at+powers+north","location":"38.9395487,-104.7332717","brandsList":["mazda"]},{"id":9506,"crm_id":98003254,"name":"McDonald Mazda West","dealerSlug":"mcdonald+mazda+west","city_state_slug":"Lakewood.CO","brand":"Mazda","website":"mcdonaldmazdawest.com","address":"10345 W Colfax Ave","city":"Lakewood","state":"CO","zip":80215,"latitude":39.740692,"longitude":-105.113242,"phone_number_service":"7205473976","phone_number_main":"7207384452","service_hours":"Mo-Fr 07:00 - 19:00 | Sa 08:00 - 17:00","utc_offset":"-360","gplace_id":null,"gplace_url":"https://maps.google.com/?cid=279758769647775847","dealerID":51765,"trusted":true,"image_id":"v1597283937/mazda.png","phone":"7205473976","cityStateSlug":"lakewood.co","slug":"Lakewood.CO/mcdonald+mazda+west","location":"39.740692,-105.113242","brandsList":["mazda"]},{"id":3408,"crm_id":98003308,"name":"Courtesy Mazda","dealerSlug":"courtesy+mazda","city_state_slug":"Longmont.CO","brand":"Mazda","website":"www.courtesy-mazda.com","address":"1461 Vista View Dr","city":"Longmont","state":"CO","zip":80504,"latitude":40.1600855,"longitude":-105.0281351,"phone_number_service":"3036788950","phone_number_main":"3036788950","service_hours":"Mo-Fr 08:00 - 17:00 | Sa 08:00 - 15:00","utc_offset":"-360","gplace_id":null,"gplace_url":"https://maps.google.com/?cid=8357052203071263216","dealerID":76430,"trusted":false,"image_id":"v1597283937/mazda.png","phone":"3036788950","cityStateSlug":"longmont.co","slug":"Longmont.CO/courtesy+mazda","location":"40.1600855,-105.0281351","brandsList":["mazda"]},{"id":13495,"crm_id":98003662,"name":"Spradley Barr Mazda Fort Collins","dealerSlug":"spradley+barr+mazda+fort+collins","city_state_slug":"Fort-Collins.CO","brand":"Mazda","website":"www.spradleybarrmazda.com","address":"2601 S College Ave","city":"Fort Collins","state":"CO","zip":80525,"latitude":40.5519849,"longitude":-105.078704,"phone_number_service":"9704009946","phone_number_main":"9702236666","service_hours":"Mo-Fr 07:00 - 18:00 | Sa 08:00 - 13:00","utc_offset":"-360","gplace_id":null,"gplace_url":"https://maps.google.com/?cid=3137839325804086931","dealerID":76431,"trusted":false,"image_id":"v1597283937/mazda.png","phone":"9704009946","cityStateSlug":"fort-collins.co","slug":"Fort-Collins.CO/spradley+barr+mazda+fort+collins","location":"40.5519849,-105.078704","brandsList":["mazda"]},{"id":9507,"crm_id":100168198,"name":"McDonald Volkswagen","dealerSlug":"mcdonald+volkswagen","city_state_slug":"Littleton.CO","brand":"Volkswagen","website":"www.mcdonaldvw.com","address":"6000 S Broadway","city":"Littleton","state":"CO","zip":80121,"latitude":39.6083548,"longitude":-104.9874996,"phone_number_service":"7205133764","phone_number_main":"7207072752","service_hours":"Mo-Fr 07:00 - 18:00 | Sa 08:00 - 17:00","utc_offset":"-360","gplace_id":null,"gplace_url":"https://maps.google.com/?cid=4902591732489042250","dealerID":51766,"trusted":true,"image_id":"v1597283902/volkswagen.png","phone":"7205133764","cityStateSlug":"littleton.co","slug":"Littleton.CO/mcdonald+volkswagen","location":"39.6083548,-104.9874996","brandsList":["volkswagen"]},{"id":6241,"crm_id":101301592,"name":"Hellman Toyota","dealerSlug":"hellman+toyota","city_state_slug":"Delta.CO","brand":"Toyota","website":"www.hellmantoyota.com","address":"750 Highway 92","city":"Delta","state":"CO","zip":81416,"latitude":38.748904,"longitude":-108.061932,"phone_number_service":"9708744444","phone_number_main":"9708744444","service_hours":"Mo-Fr 07:30 - 17:30","utc_offset":"-360","gplace_id":null,"gplace_url":"https://maps.google.com/?cid=10521954884545317138","dealerID":76569,"trusted":false,"image_id":"v1597284039/toyota_ms.png","phone":"9708744444","cityStateSlug":"delta.co","slug":"Delta.CO/hellman+toyota","location":"38.748904,-108.061932","brandsList":["toyota"]},{"id":5780,"crm_id":107923678,"name":"Greeley Subaru","dealerSlug":"greeley+subaru","city_state_slug":"Greeley.CO","brand":"Subaru","website":"www.greeleysubaru.com","address":"4720 W 24th St","city":"Greeley","state":"CO","zip":80634,"latitude":40.3984303,"longitude":-104.7573426,"phone_number_service":"8448808394","phone_number_main":"9703537707","service_hours":"Mo-Fr 07:30 - 17:30 | Sa 08:00-16:00","utc_offset":"-360","gplace_id":null,"gplace_url":"https://maps.google.com/?cid=12080731141954078022","dealerID":51575,"trusted":true,"image_id":"v1597283982/subaru_ms.png","phone":"8448808394","cityStateSlug":"greeley.co","slug":"Greeley.CO/greeley+subaru","location":"40.3984303,-104.7573426","brandsList":["subaru"]},{"id":14946,"crm_id":108269182,"name":"Victory Motors of Craig","dealerSlug":"victory+motors+of+craig","city_state_slug":"Craig.CO","brand":"Chrysler,Dodge,Jeep,RAM","website":"www.victorymotorsofcraig.com","address":"2705 W 1st Street","city":"Craig","state":"CO","zip":81625,"latitude":40.5091909,"longitude":-107.5773495,"phone_number_service":"9703291243","phone_number_main":"9708244422","service_hours":"Mo-Fr  08:00 - 18:00 | Sa 09:00 - 16:00","utc_offset":"-360","gplace_id":null,"gplace_url":"https://maps.google.com/?cid=11981009832655748531","dealerID":76742,"trusted":false,"image_id":"v1597283975/chrysler_RM.png","phone":"9703291243","cityStateSlug":"craig.co","slug":"Craig.CO/victory+motors+of+craig","location":"40.5091909,-107.5773495","brandsList":["chrysler","dodge","jeep","ram"]},{"id":5731,"crm_id":108295696,"name":"Grand Kia","dealerSlug":"grand+kia","city_state_slug":"Denver.CO","brand":"Kia","website":"www.grandkia.com","address":"1950 W 104th Ave","city":"Denver","state":"CO","zip":80234,"latitude":39.8842831,"longitude":-105.0105866,"phone_number_service":"8885630559","phone_number_main":"7209431144","service_hours":"Mo-Fr 07:30 - 18:00 | Sa 07:30 - 16:00","utc_offset":"-360","gplace_id":null,"gplace_url":"https://maps.google.com/?cid=11439048311221834695","dealerID":76743,"trusted":false,"image_id":"v1597283948/kia_RM.png","phone":"8885630559","cityStateSlug":"denver.co","slug":"Denver.CO/grand+kia","location":"39.8842831,-105.0105866","brandsList":["kia"]},{"id":5897,"crm_id":108308017,"name":"Groove Jeep Chrysler Dodge RAM","dealerSlug":"groove+jeep+chrysler+dodge+ram","city_state_slug":"Silverthorne.CO","brand":"Chrysler,Dodge,Jeep,RAM","website":"www.groovejeepchryslerdodgeram.com","address":"171 W 9th St","city":"Silverthorne","state":"CO","zip":80498,"latitude":39.639488,"longitude":-106.0777589,"phone_number_service":"7193451306","phone_number_main":"9706724663","service_hours":"Mo-Fr 07:30 - 18:00 | Sa 09:00 - 15:00","utc_offset":"-360","gplace_id":null,"gplace_url":"https://maps.google.com/?cid=4059105443456322904","dealerID":76744,"trusted":false,"image_id":"v1597283975/chrysler_RM.png","phone":"7193451306","cityStateSlug":"silverthorne.co","slug":"Silverthorne.CO/groove+jeep+chrysler+dodge+ram","location":"39.639488,-106.0777589","brandsList":["chrysler","dodge","jeep","ram"]},{"id":9624,"crm_id":113820442,"name":"Medved Chevrolet","dealerSlug":"medved+chevrolet","city_state_slug":"Wheat-Ridge.CO","brand":"Chevrolet","website":"www.medvedchevrolet.com","address":"11001 W Interstate 70 Frontage Rd N","city":"Wheat Ridge","state":"CO","zip":80033,"latitude":39.7859385,"longitude":-105.1224583,"phone_number_service":"8662425644","phone_number_main":"3034210100","service_hours":"Mo-Fr 07:00 - 18:00 | Sa 08:00 - 15:00","utc_offset":"-360","gplace_id":null,"gplace_url":"https://maps.google.com/?cid=16906087840930338998","dealerID":76853,"trusted":false,"image_id":"v1597284079/chevy_ms.png","phone":"8662425644","cityStateSlug":"wheat-ridge.co","slug":"Wheat-Ridge.CO/medved+chevrolet","location":"39.7859385,-105.1224583","brandsList":["chevrolet"]},{"id":9628,"crm_id":113820499,"name":"Medved Kia","dealerSlug":"medved+kia","city_state_slug":"Wheat-Ridge.CO","brand":"Kia","website":"www.medvedkia.com","address":"11201 W Interstate 70 Frontage Rd N","city":"Wheat Ridge","state":"CO","zip":80033,"latitude":39.7855616,"longitude":-105.1234814,"phone_number_service":"3034210100","phone_number_main":"3034210100","service_hours":"Mo-Fr 07:00 - 18:00","utc_offset":"-360","gplace_id":null,"gplace_url":"https://maps.google.com/?cid=4553786372764525227","dealerID":76854,"trusted":false,"image_id":"v1597283948/kia_RM.png","phone":"3034210100","cityStateSlug":"wheat-ridge.co","slug":"Wheat-Ridge.CO/medved+kia","location":"39.7855616,-105.1234814","brandsList":["kia"]},{"id":9625,"crm_id":113820568,"name":"Medved Chevrolet Buick GMC","dealerSlug":"medved+chevrolet+buick+gmc","city_state_slug":"Castle-Rock.CO","brand":"Buick,Chevrolet,GMC","website":"www.medvedchevroletbuickgmc.com","address":"1506 S Wilcox St","city":"Castle Rock","state":"CO","zip":80104,"latitude":39.3561281,"longitude":-104.8671133,"phone_number_service":"7208893172","phone_number_main":"3036886137","service_hours":"Mo-Fr 07:00 - 18:00","utc_offset":"-360","gplace_id":null,"gplace_url":"https://maps.google.com/?cid=11028339730758674913","dealerID":76855,"trusted":false,"image_id":"v1597283981/buick_RM.png","phone":"7208893172","cityStateSlug":"castle-rock.co","slug":"Castle-Rock.CO/medved+chevrolet+buick+gmc","location":"39.3561281,-104.8671133","brandsList":["buick","chevrolet","gmc"]},{"id":13549,"crm_id":113893657,"name":"Stapp Interstate Toyota","dealerSlug":"stapp+interstate+toyota","city_state_slug":"Frederick.CO","brand":"Toyota","website":"www.interstatetoyota.com","address":"8019 Raspberry Way","city":"Frederick","state":"CO","zip":80504,"latitude":40.117946,"longitude":-104.978153,"phone_number_service":"3039524301","phone_number_main":"3037761743","service_hours":"Mo-Fr 07:00 - 18:00 | Sa 08:00 - 18:00","utc_offset":"-360","gplace_id":null,"gplace_url":"https://maps.google.com/?cid=3234704269739534003","dealerID":76867,"trusted":false,"image_id":"v1597284039/toyota_ms.png","phone":"3039524301","cityStateSlug":"frederick.co","slug":"Frederick.CO/stapp+interstate+toyota","location":"40.117946,-104.978153","brandsList":["toyota"]},{"id":9508,"crm_id":114111487,"name":"McDonald Volvo Cars","dealerSlug":"mcdonald+volvo+cars","city_state_slug":"Littleton.CO","brand":"Volvo","website":"www.mcdonaldvolvocars.com","address":"6040 S Broadway","city":"Littleton","state":"CO","zip":80121,"latitude":39.6076793,"longitude":-104.9875232,"phone_number_service":"8669981674","phone_number_main":"7205772797","service_hours":"Mo-Fr 07:00 - 18:00 | Sa 08:00 - 17:00","utc_offset":"-360","gplace_id":null,"gplace_url":"https://maps.google.com/?cid=1513965723014629264","dealerID":76885,"trusted":false,"image_id":"v1597283901/volvo.jpg","phone":"8669981674","cityStateSlug":"littleton.co","slug":"Littleton.CO/mcdonald+volvo+cars","location":"39.6076793,-104.9875232","brandsList":["volvo"]},{"id":824,"crm_id":115533647,"name":"AutoNation Ford Littleton","dealerSlug":"autonation+ford+littleton","city_state_slug":"Littleton.CO","brand":"Ford","website":"www.autonationfordlittleton.com","address":"8252 S Broadway","city":"Littleton","state":"CO","zip":80122,"latitude":39.5674681,"longitude":-104.9870972,"phone_number_service":"3037384502","phone_number_main":"3035786106","service_hours":"Mo-Fr 07:00 - 19:00 | Sa 08:00 - 17:00","utc_offset":"-360","gplace_id":null,"gplace_url":"https://maps.google.com/?cid=17747973364982542438","dealerID":77094,"trusted":false,"image_id":"v1597283967/ford_RM.png","phone":"3037384502","cityStateSlug":"littleton.co","slug":"Littleton.CO/autonation+ford+littleton","location":"39.5674681,-104.9870972","brandsList":["ford"]},{"id":780,"crm_id":115533655,"name":"AutoNation Chevrolet North","dealerSlug":"autonation+chevrolet+north","city_state_slug":"Denver.CO","brand":"Chevrolet","website":"www.autonationchevroletnorth.com","address":"7320 N Broadway Suite A","city":"Denver","state":"CO","zip":80221,"latitude":39.830188,"longitude":-104.984434,"phone_number_service":"7208367092","phone_number_main":"3039007252","service_hours":"Mo-Fr 07:00 - 19:00 | Sa 08:00 - 17:00","utc_offset":"-360","gplace_id":null,"gplace_url":"https://maps.google.com/?cid=16096180727813406963","dealerID":77101,"trusted":false,"image_id":"v1597284079/chevy_ms.png","phone":"7208367092","cityStateSlug":"denver.co","slug":"Denver.CO/autonation+chevrolet+north","location":"39.830188,-104.984434","brandsList":["chevrolet"]},{"id":763,"crm_id":115533663,"name":"AutoNation Buick GMC Park Meadows","dealerSlug":"autonation+buick+gmc+park+meadows","city_state_slug":"Lone-Tree.CO","brand":"Buick,GMC","website":"www.autonationbuickgmcparkmeadows.com","address":"8101 Parkway Dr Suite A","city":"Lone Tree","state":"CO","zip":80124,"latitude":39.5653067,"longitude":-104.8955548,"phone_number_service":"7208367074","phone_number_main":"3039000625","service_hours":"Mo-Fr 07:00 - 19:00 | Sa 08:00 - 17:00","utc_offset":"-360","gplace_id":null,"gplace_url":"https://maps.google.com/?cid=17021832199026277833","dealerID":77105,"trusted":false,"image_id":"v1597283981/buick_RM.png","phone":"7208367074","cityStateSlug":"lone-tree.co","slug":"Lone-Tree.CO/autonation+buick+gmc+park+meadows","location":"39.5653067,-104.8955548","brandsList":["buick","gmc"]},{"id":765,"crm_id":115533664,"name":"AutoNation Buick GMC West","dealerSlug":"autonation+buick+gmc+west","city_state_slug":"Golden.CO","brand":"Buick,GMC","website":"www.autonationbuickgmcwest.com","address":"16400 W Colfax Ave","city":"Golden","state":"CO","zip":80401,"latitude":39.7262754,"longitude":-105.1847523,"phone_number_service":"7208367019","phone_number_main":"7208367019","service_hours":"Mo-Fr 07:00 - 19:00 | Sa 08:00 - 17:00","utc_offset":"-360","gplace_id":null,"gplace_url":"https://maps.google.com/?cid=8948175649388064720","dealerID":77106,"trusted":false,"image_id":"v1597283981/buick_RM.png","phone":"7208367019","cityStateSlug":"golden.co","slug":"Golden.CO/autonation+buick+gmc+west","location":"39.7262754,-105.1847523","brandsList":["buick","gmc"]},{"id":804,"crm_id":115533671,"name":"AutoNation Chrysler Dodge Jeep RAM Southwest","dealerSlug":"autonation+chrysler+dodge+jeep+ram+southwest","city_state_slug":"Littleton.CO","brand":"Chrysler,Dodge,Jeep,RAM","website":"www.autonationchryslerdodgejeepramsouthwest.com","address":"7980 W Tufts Ave","city":"Littleton","state":"CO","zip":80123,"latitude":39.6323575,"longitude":-105.0863159,"phone_number_service":"8442811984","phone_number_main":"3035786099","service_hours":"Mo-Fr 08:00 - 18:00 | Sa 08:00 - 17:00","utc_offset":"-360","gplace_id":null,"gplace_url":"https://maps.google.com/?cid=7316426906116684240","dealerID":77111,"trusted":false,"image_id":"v1597283975/chrysler_RM.png","phone":"8442811984","cityStateSlug":"littleton.co","slug":"Littleton.CO/autonation+chrysler+dodge+jeep+ram+southwest","location":"39.6323575,-105.0863159","brandsList":["chrysler","dodge","jeep","ram"]},{"id":807,"crm_id":115533673,"name":"AutoNation Chrysler Jeep Arapahoe","dealerSlug":"autonation+chrysler+jeep+arapahoe","city_state_slug":"Englewood.CO","brand":"Chrysler,Jeep","website":"www.autonationchryslerjeeparapahoe.com","address":"9980 E Arapahoe Rd","city":"Englewood","state":"CO","zip":80112,"latitude":39.5941667,"longitude":-104.8733333,"phone_number_service":"8442985732","phone_number_main":"3039000794","service_hours":"Mo-Fr 07:00 - 19:00 | Sa 08:00 - 17:00","utc_offset":"-360","gplace_id":null,"gplace_url":"https://maps.google.com/?cid=8905777072654526531","dealerID":77113,"trusted":false,"image_id":"v1597283975/chrysler_RM.png","phone":"8442985732","cityStateSlug":"englewood.co","slug":"Englewood.CO/autonation+chrysler+jeep+arapahoe","location":"39.5941667,-104.8733333","brandsList":["chrysler","jeep"]},{"id":809,"crm_id":115533674,"name":"AutoNation Chrysler Jeep West","dealerSlug":"autonation+chrysler+jeep+west","city_state_slug":"Golden.CO","brand":"Chrysler,Jeep","website":"www.autonationchryslerjeepwest.com","address":"16300 W Colfax Ave","city":"Golden","state":"CO","zip":80401,"latitude":39.726535,"longitude":-105.183371,"phone_number_service":"8444240964","phone_number_main":"3035786104","service_hours":"Mo-Fr 07:00 - 18:00 | Sa 08:00 - 16:00","utc_offset":"-360","gplace_id":null,"gplace_url":"https://maps.google.com/?cid=12953443568639632943","dealerID":77114,"trusted":false,"image_id":"v1597283975/chrysler_RM.png","phone":"8444240964","cityStateSlug":"golden.co","slug":"Golden.CO/autonation+chrysler+jeep+west","location":"39.726535,-105.183371","brandsList":["chrysler","jeep"]},{"id":810,"crm_id":115533675,"name":"AutoNation Dodge RAM Arapahoe","dealerSlug":"autonation+dodge+ram+arapahoe","city_state_slug":"Centennial.CO","brand":"Dodge,RAM","website":"www.autonationdodgeramarapahoe.com","address":"10743 E Arapahoe Rd","city":"Centennial","state":"CO","zip":80112,"latitude":39.5965931,"longitude":-104.8632598,"phone_number_service":"8442665510","phone_number_main":"3039007166","service_hours":"Mo-Fr 07:00 - 19:00 | Sa 08:00 - 17:00","utc_offset":"-360","gplace_id":null,"gplace_url":"https://maps.google.com/?cid=15482637453693878288","dealerID":77115,"trusted":false,"image_id":"v1597283974/dodge.png","phone":"8442665510","cityStateSlug":"centennial.co","slug":"Centennial.CO/autonation+dodge+ram+arapahoe","location":"39.5965931,-104.8632598","brandsList":["dodge","ram"]},{"id":758,"crm_id":115533678,"name":"AutoNation Alfa Romeo North Denver","dealerSlug":"autonation+alfa+romeo+north+denver","city_state_slug":"Northglenn.CO","brand":"Alfa Romeo","website":"www.alfaromeousaofnorthglenn.com","address":"749 W 104th Ave Suite 101","city":"Northglenn","state":"CO","zip":80234,"latitude":39.8853901,"longitude":-104.9958813,"phone_number_service":"8444938109","phone_number_main":"3039000753","service_hours":"Mo-Fr 07:00 - 19:00 | Sa 08:00 - 17:00","utc_offset":"-360","gplace_id":null,"gplace_url":"https://maps.google.com/?cid=15996639296009797694","dealerID":77118,"trusted":false,"image_id":"v1597283991/Alfa-Romeo.jpg","phone":"8444938109","cityStateSlug":"northglenn.co","slug":"Northglenn.CO/autonation+alfa+romeo+north+denver","location":"39.8853901,-104.9958813","brandsList":["alfa romeo"]},{"id":844,"crm_id":115533679,"name":"AutoNation Honda 104","dealerSlug":"autonation+honda+104","city_state_slug":"Westminster.CO","brand":"Honda","website":"www.autonationhonda104.com","address":"2999 W 104th Ave","city":"Westminster","state":"CO","zip":80234,"latitude":39.8859315,"longitude":-105.0239476,"phone_number_service":"3035786112","phone_number_main":"3035786112","service_hours":"Mo-Fr 07:00 - 19:00 | Sa 08:00 - 17:00","utc_offset":"-360","gplace_id":null,"gplace_url":"https://maps.google.com/?cid=16360649977639833986","dealerID":77119,"trusted":false,"image_id":"v1597284047/honda_ms.png","phone":"3035786112","cityStateSlug":"westminster.co","slug":"Westminster.CO/autonation+honda+104","location":"39.8859315,-105.0239476","brandsList":["honda"]},{"id":893,"crm_id":115533689,"name":"AutoNation Toyota Arapahoe","dealerSlug":"autonation+toyota+arapahoe","city_state_slug":"Centennial.CO","brand":"Toyota","website":"www.autonationtoyotaarapahoe.com","address":"10531 E Arapahoe Rd","city":"Centennial","state":"CO","zip":80112,"latitude":39.59656,"longitude":-104.8655237,"phone_number_service":"3035786111","phone_number_main":"3035786111","service_hours":"Mo-Fr 07:00 - 19:00 | Sa 08:00 - 17:00","utc_offset":"-360","gplace_id":null,"gplace_url":"https://maps.google.com/?cid=14502679852671040896","dealerID":77127,"trusted":false,"image_id":"v1597284039/toyota_ms.png","phone":"3035786111","cityStateSlug":"centennial.co","slug":"Centennial.CO/autonation+toyota+arapahoe","location":"39.59656,-104.8655237","brandsList":["toyota"]},{"id":868,"crm_id":115533715,"name":"AutoNation Hyundai 104","dealerSlug":"autonation+hyundai+104","city_state_slug":"Northglenn.CO","brand":"Hyundai","website":"www.autonationhyundai104.com","address":"759 W 104th Ave","city":"Northglenn","state":"CO","zip":80234,"latitude":39.8858823,"longitude":-104.9960724,"phone_number_service":"3035786114","phone_number_main":"3035786114","service_hours":"Mo-Fr 07:00 - 19:00 | Sa 08:00 - 17:00","utc_offset":"-360","gplace_id":null,"gplace_url":"https://maps.google.com/?cid=16349943528198336031","dealerID":77143,"trusted":false,"image_id":"v1597283959/hyundai_RM.png","phone":"3035786114","cityStateSlug":"northglenn.co","slug":"Northglenn.CO/autonation+hyundai+104","location":"39.8858823,-104.9960724","brandsList":["hyundai"]},{"id":887,"crm_id":115533718,"name":"AutoNation Subaru Arapahoe","dealerSlug":"autonation+subaru+arapahoe","city_state_slug":"Centennial.CO","brand":"Subaru","website":"www.autonationsubaruarapahoe.com","address":"9955 E Arapahoe Rd","city":"Centennial","state":"CO","zip":80112,"latitude":39.5953351,"longitude":-104.8733368,"phone_number_service":"3035786119","phone_number_main":"3035786119","service_hours":"Mo-Fr 07:00 - 19:00 | Sa 08:00 - 17:00","utc_offset":"-360","gplace_id":null,"gplace_url":"https://maps.google.com/?cid=6947216512723752687","dealerID":77145,"trusted":false,"image_id":"v1597283982/subaru_ms.png","phone":"3035786119","cityStateSlug":"centennial.co","slug":"Centennial.CO/autonation+subaru+arapahoe","location":"39.5953351,-104.8733368","brandsList":["subaru"]},{"id":892,"crm_id":115533721,"name":"AutoNation Subaru West","dealerSlug":"autonation+subaru+west","city_state_slug":"Golden.CO","brand":"Subaru","website":"www.autonationsubaruwest.com","address":"16351 W Colfax Ave","city":"Golden","state":"CO","zip":80401,"latitude":39.7280556,"longitude":-105.1838889,"phone_number_service":"8442844467","phone_number_main":"3035786120","service_hours":"Mo-Fr 07:00 - 19:00 | Sa 08:00 - 17:00","utc_offset":"-360","gplace_id":null,"gplace_url":"https://maps.google.com/?cid=3125964597197460110","dealerID":77147,"trusted":false,"image_id":"v1597283982/subaru_ms.png","phone":"8442844467","cityStateSlug":"golden.co","slug":"Golden.CO/autonation+subaru+west","location":"39.7280556,-105.1838889","brandsList":["subaru"]}]