[{"id":17539,"crm_id":999,"name":"Smith Volkswagen","dealerSlug":"smith+volkswagen","city_state_slug":"Wilmington.DE","brand":"Volkswagen","website":"www.smithvw.com","address":"4304 Kirkwood Hwy","city":"Wilmington","state":"DE","zip":19808,"latitude":39.7272,"longitude":-75.6503,"phone_number_service":"5124543711","phone_number_main":"","service_hours":"Mo-Fr 09:00 - 20:00 | Sa 09:00 - 16:00 | Su Closed","utc_offset":"","gplace_id":0,"gplace_url":"","dealerID":60153,"trusted":false,"image_id":"v1597283902/volkswagen.png","phone":"5124543711","cityStateSlug":"wilmington.de","slug":"Wilmington.DE/smith+volkswagen","location":"39.7272,-75.6503","brandsList":["volkswagen"]},{"id":16276,"crm_id":999,"name":"Delaware Subaru","dealerSlug":"delaware+subaru","city_state_slug":"Wilmington.DE","brand":"Subaru","website":"DelawareSubaru.dealer.subaru.com","address":"1717 Pennsylvania Ave","city":"Wilmington","state":"DE","zip":19806,"latitude":39.755225,"longitude":-75.56529,"phone_number_service":"5405524331","phone_number_main":"","service_hours":"","utc_offset":"","gplace_id":0,"gplace_url":"","dealerID":60739,"trusted":false,"image_id":"v1597283982/subaru_ms.png","phone":"5405524331","cityStateSlug":"wilmington.de","slug":"Wilmington.DE/delaware+subaru","location":"39.755225,-75.56529","brandsList":["subaru"]},{"id":16863,"crm_id":999,"name":"Lakeshore Chrysler Dodge Jeep RAM","dealerSlug":"lakeshore+chrysler+dodge+jeep+ram","city_state_slug":"Seaford.DE","brand":"Chrysler,Dodge,Jeep,RAM","website":"www.lakeshorecdjr.com","address":"22586 Sussex Hwy","city":"Seaford","state":"DE","zip":19973,"latitude":38.670731,"longitude":-75.594012,"phone_number_service":"3029903099","phone_number_main":"","service_hours":"Mo-Su Closed","utc_offset":"","gplace_id":0,"gplace_url":"","dealerID":60918,"trusted":false,"image_id":"v1597283975/chrysler_RM.png","phone":"3029903099","cityStateSlug":"seaford.de","slug":"Seaford.DE/lakeshore+chrysler+dodge+jeep+ram","location":"38.670731,-75.594012","brandsList":["chrysler","dodge","jeep","ram"]},{"id":16037,"crm_id":999,"name":"Boulevard Auto Sales","dealerSlug":"boulevard+auto+sales","city_state_slug":"Georgetown.DE","brand":"Ford","website":"www.boulevardford.com","address":"40 Bridgeville Road","city":"Georgetown","state":"DE","zip":19947,"latitude":38.68055,"longitude":-75.401996,"phone_number_service":"8008699968","phone_number_main":"","service_hours":"Mo-Fr 08:30 - 20:00 | Sa 08:30 - 18:00 | Su Closed","utc_offset":"","gplace_id":0,"gplace_url":"","dealerID":61234,"trusted":false,"image_id":"v1597283967/ford_RM.png","phone":"8008699968","cityStateSlug":"georgetown.de","slug":"Georgetown.DE/boulevard+auto+sales","location":"38.68055,-75.401996","brandsList":["ford"]},{"id":15932,"crm_id":999,"name":"Bayshore Ford Truck Sales","dealerSlug":"bayshore+ford+truck+sales","city_state_slug":"New-Castle.DE","brand":"Ford","website":"www.bayshoreford.net","address":"4003 North DuPont Highway","city":"New Castle","state":"DE","zip":19720,"latitude":39.7109,"longitude":-75.56361,"phone_number_service":"3026563160","phone_number_main":"","service_hours":"","utc_offset":"","gplace_id":0,"gplace_url":"","dealerID":61241,"trusted":false,"image_id":"v1597283967/ford_RM.png","phone":"3026563160","cityStateSlug":"new-castle.de","slug":"New-Castle.DE/bayshore+ford+truck+sales","location":"39.7109,-75.56361","brandsList":["ford"]},{"id":684,"crm_id":51925369,"name":"Audi Wilmington","dealerSlug":"audi+wilmington","city_state_slug":"Wilmington.DE","brand":"Audi","website":"www.audiwilmingtonde.com","address":"1300 N Union St","city":"Wilmington","state":"DE","zip":19806,"latitude":39.757,"longitude":-75.5669,"phone_number_service":"8888452936","phone_number_main":"3026612100","service_hours":"Mo-Sa 07:00 - 20:00","utc_offset":"-240","gplace_id":null,"gplace_url":"https://maps.google.com/?cid=8280088871255369480","dealerID":61951,"trusted":false,"image_id":"v1597283985/audi_RM.png","phone":"8888452936","cityStateSlug":"wilmington.de","slug":"Wilmington.DE/audi+wilmington","location":"39.757,-75.5669","brandsList":["audi"]},{"id":10646,"crm_id":60750931,"name":"Newark Chrysler Jeep Dodge","dealerSlug":"newark+chrysler+jeep+dodge","city_state_slug":"Newark.DE","brand":"Chrysler,Dodge,Jeep,RAM","website":"www.newarkcjd.com","address":"244 E Cleveland Ave","city":"Newark","state":"DE","zip":19711,"latitude":39.6875778,"longitude":-75.7426002,"phone_number_service":"3022730147","phone_number_main":"3027310100","service_hours":"Mo-Fr 07:30 - 17:30","utc_offset":"-240","gplace_id":null,"gplace_url":"https://maps.google.com/?cid=14471321425641918156","dealerID":62471,"trusted":false,"image_id":"v1597283975/chrysler_RM.png","phone":"3022730147","cityStateSlug":"newark.de","slug":"Newark.DE/newark+chrysler+jeep+dodge","location":"39.6875778,-75.7426002","brandsList":["chrysler","dodge","jeep","ram"]},{"id":4051,"crm_id":61171357,"name":"Diver Chevrolet","dealerSlug":"diver+chevrolet","city_state_slug":"Wilmington.DE","brand":"Chevrolet","website":"www.diverchev.com","address":"2101 Pennsylvania Ave","city":"Wilmington","state":"DE","zip":19806,"latitude":39.7578416,"longitude":-75.5688727,"phone_number_service":"3024828359","phone_number_main":"3025048377","service_hours":"Mo-Sa 07:00 - 16:00","utc_offset":"-240","gplace_id":null,"gplace_url":"https://maps.google.com/?cid=3924884743596729491","dealerID":62477,"trusted":false,"image_id":"v1597284079/chevy_ms.png","phone":"3024828359","cityStateSlug":"wilmington.de","slug":"Wilmington.DE/diver+chevrolet","location":"39.7578416,-75.5688727","brandsList":["chevrolet"]},{"id":11773,"crm_id":64170172,"name":"Porter Ford","dealerSlug":"porter+ford","city_state_slug":"Newark.DE","brand":"Ford","website":"www.porterford.com","address":"600 Ogletown Rd","city":"Newark","state":"DE","zip":19711,"latitude":39.6859463,"longitude":-75.7343947,"phone_number_service":"8885919016","phone_number_main":"3027380800","service_hours":"Mo-Fr 07:30 - 18:00 | Sa 08:00 - 16:00","utc_offset":"-240","gplace_id":null,"gplace_url":"https://maps.google.com/?cid=6798042099574362303","dealerID":50046,"trusted":true,"image_id":"v1597283967/ford_RM.png","phone":"8885919016","cityStateSlug":"newark.de","slug":"Newark.DE/porter+ford","location":"39.6859463,-75.7343947","brandsList":["ford"]},{"id":11776,"crm_id":64171276,"name":"Porter Nissan","dealerSlug":"porter+nissan","city_state_slug":"Newark.DE","brand":"Nissan","website":"www.porternissan.com","address":"303 E Cleveland Ave","city":"Newark","state":"DE","zip":19711,"latitude":39.6867312,"longitude":-75.7397071,"phone_number_service":"3022725098","phone_number_main":"3026001752","service_hours":"Mo-Fr 07:30 - 19:00 | Sa 08:00 - 16:00","utc_offset":"-240","gplace_id":null,"gplace_url":"https://maps.google.com/?cid=17468790599889299809","dealerID":50048,"trusted":true,"image_id":"v1597283926/nissan_RM.png","phone":"3022725098","cityStateSlug":"newark.de","slug":"Newark.DE/porter+nissan","location":"39.6867312,-75.7397071","brandsList":["nissan"]},{"id":11882,"crm_id":64896439,"name":"Price Toyota","dealerSlug":"price+toyota","city_state_slug":"New-Castle.DE","brand":"Toyota","website":"www.pricetoyota.com","address":"168 N Dupont Hwy","city":"New Castle","state":"DE","zip":19720,"latitude":39.6741948,"longitude":-75.5952628,"phone_number_service":"3023228605","phone_number_main":"3023228600","service_hours":"Mo-Fr 07:00 - 20:00 | Sa 08:00 - 17:00","utc_offset":"-240","gplace_id":null,"gplace_url":"https://maps.google.com/?cid=3663594944413630076","dealerID":50375,"trusted":true,"image_id":"v1597284039/toyota_ms.png","phone":"3023228605","cityStateSlug":"new-castle.de","slug":"New-Castle.DE/price+toyota","location":"39.6741948,-75.5952628","brandsList":["toyota"]},{"id":11772,"crm_id":64920748,"name":"Porter Chevrolet","dealerSlug":"porter+chevrolet","city_state_slug":"Newark.DE","brand":"Chevrolet","website":"www.porterchevy.com","address":"414 E Cleveland Ave","city":"Newark","state":"DE","zip":19711,"latitude":39.6876735,"longitude":-75.7369475,"phone_number_service":"3027224820","phone_number_main":"3027224822","service_hours":"Mo-Fr 07:30 - 18:00 | Sa 8:00 - 16:00","utc_offset":"-240","gplace_id":null,"gplace_url":"https://maps.google.com/?cid=12359800848572902000","dealerID":50045,"trusted":true,"image_id":"v1597284079/chevy_ms.png","phone":"3027224820","cityStateSlug":"newark.de","slug":"Newark.DE/porter+chevrolet","location":"39.6876735,-75.7369475","brandsList":["chevrolet"]},{"id":11775,"crm_id":64920787,"name":"Porter INFINITI","dealerSlug":"porter+infiniti","city_state_slug":"Newark.DE","brand":"INFINITI","website":"www.porterinfiniti.com","address":"303 E Cleveland Ave","city":"Newark","state":"DE","zip":19711,"latitude":39.6865049,"longitude":-75.7402098,"phone_number_service":"3025142024","phone_number_main":"3023172410","service_hours":"Mo-Fr 07:30 - 18:00 | Sa 08:00 - 12:00","utc_offset":"-240","gplace_id":null,"gplace_url":"https://maps.google.com/?cid=6361939036550563790","dealerID":50047,"trusted":true,"image_id":"v1597283957/infiniti_RM.png","phone":"3025142024","cityStateSlug":"newark.de","slug":"Newark.DE/porter+infiniti","location":"39.6865049,-75.7402098","brandsList":["infiniti"]},{"id":11774,"crm_id":64977520,"name":"Porter Hyundai","dealerSlug":"porter+hyundai","city_state_slug":"Newark.DE","brand":"Hyundai","website":"www.porterhyundai.com","address":"393 E Cleveland Ave","city":"Newark","state":"DE","zip":19711,"latitude":39.6865078,"longitude":-75.7388871,"phone_number_service":"3024536801","phone_number_main":"3024536801","service_hours":"Mo-Fr 07:30 - 18:00 | Sa 08:00 - 16:00","utc_offset":"-240","gplace_id":null,"gplace_url":"https://maps.google.com/?cid=13226849552084699214","dealerID":50044,"trusted":true,"image_id":"v1597283959/hyundai_RM.png","phone":"3024536801","cityStateSlug":"newark.de","slug":"Newark.DE/porter+hyundai","location":"39.6865078,-75.7388871","brandsList":["hyundai"]},{"id":6411,"crm_id":66213994,"name":"Hertrich Hyundai of New Castle","dealerSlug":"hertrich+hyundai+of+new+castle","city_state_slug":"New-Castle.DE","brand":"Hyundai","website":"www.hertrichhyundaiofnewcastle.com","address":"120 S Dupont Hwy","city":"New Castle","state":"DE","zip":19720,"latitude":39.6623023,"longitude":-75.6059932,"phone_number_service":"8667965362","phone_number_main":"3025449182","service_hours":"Mo-Fr 07:30-17:00 | Sa 08:00-16:00","utc_offset":"-240","gplace_id":null,"gplace_url":"https://maps.google.com/?cid=10351039747129948917","dealerID":62649,"trusted":false,"image_id":"v1597283959/hyundai_RM.png","phone":"8667965362","cityStateSlug":"new-castle.de","slug":"New-Castle.DE/hertrich+hyundai+of+new+castle","location":"39.6623023,-75.6059932","brandsList":["hyundai"]},{"id":13152,"crm_id":67026037,"name":"Sheridan Nissan","dealerSlug":"sheridan+nissan","city_state_slug":"New-Castle.DE","brand":"Nissan","website":"www.sheridannissan.com","address":"114 S Dupont Hwy","city":"New Castle","state":"DE","zip":19720,"latitude":39.6640302,"longitude":-75.6044076,"phone_number_service":"3023266100","phone_number_main":"3023266100","service_hours":"Mo-Tu 07:30 - 18:00 | We 07:30 - 20:00 | Th-Fr 07:30 - 18:00 | Sa 08:00-16:00","utc_offset":"-240","gplace_id":null,"gplace_url":"https://maps.google.com/?cid=3896625043252303745","dealerID":62721,"trusted":false,"image_id":"v1597283926/nissan_RM.png","phone":"3023266100","cityStateSlug":"new-castle.de","slug":"New-Castle.DE/sheridan+nissan","location":"39.6640302,-75.6044076","brandsList":["nissan"]},{"id":6864,"crm_id":67032934,"name":"i.g Burton of Smyrna Chrysler Dodge Jeep RAM","dealerSlug":"ig+burton+of+smyrna+chrysler+dodge+jeep+ram","city_state_slug":"Smyrna.DE","brand":"Chrysler,Dodge,Jeep,RAM","website":"www.igburtonsmyrnacdjr.com","address":"19 S Dupont Blvd","city":"Smyrna","state":"DE","zip":19977,"latitude":39.3016853,"longitude":-75.6033672,"phone_number_service":"3022239268","phone_number_main":"3026538521","service_hours":"Mo-Fr 07:30 - 18:00 | Sa 08:00 - 14:00","utc_offset":"-240","gplace_id":null,"gplace_url":"https://maps.google.com/?cid=10320384934494457167","dealerID":63021,"trusted":false,"image_id":"v1597283975/chrysler_RM.png","phone":"3022239268","cityStateSlug":"smyrna.de","slug":"Smyrna.DE/ig+burton+of+smyrna+chrysler+dodge+jeep+ram","location":"39.3016853,-75.6033672","brandsList":["chrysler","dodge","jeep","ram"]},{"id":6397,"crm_id":67034386,"name":"Hertrich Acura","dealerSlug":"hertrich+acura","city_state_slug":"New-Castle.DE","brand":"Acura","website":"www.hertrichacura.com","address":"120 S Dupont Hwy","city":"New Castle","state":"DE","zip":19720,"latitude":39.6623023,"longitude":-75.6059932,"phone_number_service":"8668807492","phone_number_main":"3025449410","service_hours":"Mo-Fr 07:00 - 17:00 | Sa 08:00 - 16:00","utc_offset":"-240","gplace_id":null,"gplace_url":"https://maps.google.com/?cid=1345525560341854009","dealerID":63418,"trusted":false,"image_id":"v1597283988/acura.png","phone":"8668807492","cityStateSlug":"new-castle.de","slug":"New-Castle.DE/hertrich+acura","location":"39.6623023,-75.6059932","brandsList":["acura"]},{"id":6404,"crm_id":67035076,"name":"Hertrich Chevrolet of Dover","dealerSlug":"hertrich+chevrolet+of+dover","city_state_slug":"Dover.DE","brand":"Chevrolet","website":"www.chevroletofdover.com","address":"1450 S Dupont Hwy","city":"Dover","state":"DE","zip":19901,"latitude":39.1351115,"longitude":-75.5281656,"phone_number_service":"3027244164","phone_number_main":"3026740100","service_hours":"Mo-Fr 07:30-18:00 | Sa 08:00-16:00","utc_offset":"-240","gplace_id":null,"gplace_url":"https://maps.google.com/?cid=11085171676216294059","dealerID":63605,"trusted":false,"image_id":"v1597284079/chevy_ms.png","phone":"3027244164","cityStateSlug":"dover.de","slug":"Dover.DE/hertrich+chevrolet+of+dover","location":"39.1351115,-75.5281656","brandsList":["chevrolet"]},{"id":6867,"crm_id":67035478,"name":"i.g. Burton Chevrolet of Seaford","dealerSlug":"ig+burton+chevrolet+of+seaford","city_state_slug":"Seaford.DE","brand":"Ford","website":"www.igburtonchevyseaford.com","address":"24799 Sussex Hwy","city":"Seaford","state":"DE","zip":19973,"latitude":38.6372989,"longitude":-75.5922889,"phone_number_service":"8666337960","phone_number_main":"3026295514","service_hours":"Mo-Su 08:00 - 17:00","utc_offset":"-240","gplace_id":null,"gplace_url":"https://maps.google.com/?cid=6368797644401491772","dealerID":63719,"trusted":false,"image_id":"v1597283967/ford_RM.png","phone":"8666337960","cityStateSlug":"seaford.de","slug":"Seaford.DE/ig+burton+chevrolet+of+seaford","location":"38.6372989,-75.5922889","brandsList":["ford"]},{"id":6869,"crm_id":67035715,"name":"i.g. Burton Lewes Automall","dealerSlug":"ig+burton+lewes+automall","city_state_slug":"Lewes.DE","brand":"Buick,Chevrolet,GMC","website":"www.lewesautomall.com","address":"17861 Coastal Hwy","city":"Lewes","state":"DE","zip":19958,"latitude":38.7491956,"longitude":-75.1622332,"phone_number_service":"3023608305","phone_number_main":"3026456221","service_hours":"Mo-Fr 07:30-17:30","utc_offset":"-240","gplace_id":null,"gplace_url":"https://maps.google.com/?cid=4599609614712212518","dealerID":63789,"trusted":false,"image_id":"v1597283981/buick_RM.png","phone":"3023608305","cityStateSlug":"lewes.de","slug":"Lewes.DE/ig+burton+lewes+automall","location":"38.7491956,-75.1622332","brandsList":["buick","chevrolet","gmc"]},{"id":2088,"crm_id":67037197,"name":"Brandywine Chrysler Jeep Dodge RAM","dealerSlug":"brandywine+chrysler+jeep+dodge+ram","city_state_slug":"Wilmington.DE","brand":"Chrysler,Dodge,Jeep,RAM","website":"brandywinejeep.com","address":"3807 Kirkwood Hwy","city":"Wilmington","state":"DE","zip":19808,"latitude":39.7319444,"longitude":-75.6433333,"phone_number_service":"8669807383","phone_number_main":"3029982271","service_hours":"Mo-Fr 07:30 - 17:00 | Sa 07:30 - 14:00","utc_offset":"-240","gplace_id":null,"gplace_url":"https://maps.google.com/?cid=14511960473437175018","dealerID":64192,"trusted":false,"image_id":"v1597283975/chrysler_RM.png","phone":"8669807383","cityStateSlug":"wilmington.de","slug":"Wilmington.DE/brandywine+chrysler+jeep+dodge+ram","location":"39.7319444,-75.6433333","brandsList":["chrysler","dodge","jeep","ram"]},{"id":10897,"crm_id":67037851,"name":"Nucar Mazda","dealerSlug":"nucar+mazda","city_state_slug":"New-Castle.DE","brand":"Mazda","website":"www.nucarmazda.com","address":"172 N Dupont Hwy","city":"New Castle","state":"DE","zip":19720,"latitude":39.6746513,"longitude":-75.5940283,"phone_number_service":"3022239288","phone_number_main":"8776871245","service_hours":"Mo-Fr 07:00 - 17:00 | Sa 08:00 - 12:00","utc_offset":"-240","gplace_id":null,"gplace_url":"https://maps.google.com/?cid=12532499945561787136","dealerID":51185,"trusted":true,"image_id":"v1597283937/mazda.png","phone":"3022239288","cityStateSlug":"new-castle.de","slug":"New-Castle.DE/nucar+mazda","location":"39.6746513,-75.5940283","brandsList":["mazda"]},{"id":9389,"crm_id":67039153,"name":"Matt Slap Subaru","dealerSlug":"matt+slap+subaru","city_state_slug":"Newark.DE","brand":"Subaru","website":"www.mattslap.com","address":"255 E Cleveland Ave","city":"Newark","state":"DE","zip":19711,"latitude":39.6869632,"longitude":-75.7453344,"phone_number_service":"8884182820","phone_number_main":"3024539900","service_hours":"Mo-Fr 07:00 - 18:00 | Sa 07:00 - 17:00","utc_offset":"-240","gplace_id":null,"gplace_url":"https://maps.google.com/?cid=8289409827914365247","dealerID":64736,"trusted":false,"image_id":"v1597283982/subaru_ms.png","phone":"8884182820","cityStateSlug":"newark.de","slug":"Newark.DE/matt+slap+subaru","location":"39.6869632,-75.7453344","brandsList":["subaru"]},{"id":15531,"crm_id":67040596,"name":"Willis Chevrolet Buick","dealerSlug":"willis+chevrolet+buick","city_state_slug":"Smyrna.DE","brand":"Buick,Chevrolet","website":"www.willisgm.com","address":"2707 S Dupont Blvd","city":"Smyrna","state":"DE","zip":19977,"latitude":39.266641,"longitude":-75.585252,"phone_number_service":"3022235843","phone_number_main":"3026532301","service_hours":"Mo-Th 07:30 - 17:00 | Fr 08:00-17:00","utc_offset":"-240","gplace_id":null,"gplace_url":"https://maps.google.com/?cid=8128883126363897292","dealerID":65127,"trusted":false,"image_id":"v1597283981/buick_RM.png","phone":"3022235843","cityStateSlug":"smyrna.de","slug":"Smyrna.DE/willis+chevrolet+buick","location":"39.266641,-75.585252","brandsList":["buick","chevrolet"]},{"id":13150,"crm_id":67046302,"name":"Sheridan Ford","dealerSlug":"sheridan+ford","city_state_slug":"Wilmington.DE","brand":"Ford","website":"www.sheridanford.com","address":"4001 Kirkwood Hwy","city":"Wilmington","state":"DE","zip":19808,"latitude":39.7295104,"longitude":-75.6489331,"phone_number_service":"3029990261","phone_number_main":"3029990261","service_hours":"Mo-Fr 07:30 - 18:00 | Sa 08:00 - 17:00","utc_offset":"-240","gplace_id":null,"gplace_url":"https://maps.google.com/?cid=13974758665747384620","dealerID":66647,"trusted":false,"image_id":"v1597283967/ford_RM.png","phone":"3029990261","cityStateSlug":"wilmington.de","slug":"Wilmington.DE/sheridan+ford","location":"39.7295104,-75.6489331","brandsList":["ford"]},{"id":2586,"crm_id":67048381,"name":"Carman Chrysler Jeep Dodge","dealerSlug":"carman+chrysler+jeep+dodge","city_state_slug":"New-Castle.DE","brand":"Chrysler,Dodge,Jeep,RAM,Fiat","website":"www.carmanchryslerjeepdodge.com","address":"196 S Dupont Hwy","city":"New Castle","state":"DE","zip":19720,"latitude":39.6553449,"longitude":-75.6138478,"phone_number_service":"3024646144","phone_number_main":"3023231666","service_hours":"Mo-Fr 09:00 - 17:00 | Sa 09:00 - 15:00","utc_offset":"-240","gplace_id":null,"gplace_url":"https://maps.google.com/?cid=14658406980538501721","dealerID":67207,"trusted":false,"image_id":"v1597283975/chrysler_RM.png","phone":"3024646144","cityStateSlug":"new-castle.de","slug":"New-Castle.DE/carman+chrysler+jeep+dodge","location":"39.6553449,-75.6138478","brandsList":["chrysler","dodge","jeep","ram","fiat"]},{"id":10647,"crm_id":67050703,"name":"Newark ToyotaWorld","dealerSlug":"newark+toyotaworld","city_state_slug":"Newark.DE","brand":"Toyota","website":"www.newarktoyotaworld.com","address":"230 E Cleveland Ave","city":"Newark","state":"DE","zip":19711,"latitude":39.687596,"longitude":-75.74484,"phone_number_service":"3022832306","phone_number_main":"3023686262","service_hours":"Mo-Fr 07:00 - 20:00 | Sa 07:00 - 17:00","utc_offset":"-240","gplace_id":null,"gplace_url":"https://maps.google.com/?cid=10787297992376357566","dealerID":67846,"trusted":false,"image_id":"v1597284039/toyota_ms.png","phone":"3022832306","cityStateSlug":"newark.de","slug":"Newark.DE/newark+toyotaworld","location":"39.687596,-75.74484","brandsList":["toyota"]},{"id":11663,"crm_id":67051024,"name":"Porsche Delaware","dealerSlug":"porsche+delaware","city_state_slug":"Newark.DE","brand":"Porsche","website":"www.porschedelaware.com","address":"1851 Ogletown Rd","city":"Newark","state":"DE","zip":19711,"latitude":39.68302,"longitude":-75.718629,"phone_number_service":"8332139869","phone_number_main":"3022928250","service_hours":"Mo-Fr 08:00 - 17:00 | Sa 08:00 - 12:00","utc_offset":"-240","gplace_id":null,"gplace_url":"https://maps.google.com/?cid=580467989047591492","dealerID":67930,"trusted":false,"image_id":"v1597283919/porsche.jpg","phone":"8332139869","cityStateSlug":"newark.de","slug":"Newark.DE/porsche+delaware","location":"39.68302,-75.718629","brandsList":["porsche"]},{"id":6401,"crm_id":67052140,"name":"Hertrich Capitol of Dover","dealerSlug":"hertrich+capitol+of+dover","city_state_slug":"Dover.DE","brand":"Mazda","website":"www.hertrichscapitol.com","address":"1127 S Dupont Hwy","city":"Dover","state":"DE","zip":19901,"latitude":39.1420351,"longitude":-75.5173504,"phone_number_service":"8886860908","phone_number_main":"3026748900","service_hours":"Mo-Fr 07:30 - 18:00 | Sa 08:00 - 17:00","utc_offset":"-240","gplace_id":null,"gplace_url":"https://maps.google.com/?cid=2854511350841582843","dealerID":68239,"trusted":false,"image_id":"v1597283937/mazda.png","phone":"8886860908","cityStateSlug":"dover.de","slug":"Dover.DE/hertrich+capitol+of+dover","location":"39.1420351,-75.5173504","brandsList":["mazda"]},{"id":2587,"crm_id":67052569,"name":"Carman Ford Lincoln","dealerSlug":"carman+ford+lincoln","city_state_slug":"New-Castle.DE","brand":"Ford,Lincoln","website":"www.carman-ford.com","address":"193 S Dupont Hwy","city":"New Castle","state":"DE","zip":19720,"latitude":39.6574638,"longitude":-75.615077,"phone_number_service":"8884410392","phone_number_main":"3023232300","service_hours":"Mo-Tu 09:00 - 18:00 | We 09:00 - 20:00 | Th-Fe 09:00 - 18:00 | Sa 09:00 - 13:00","utc_offset":"-240","gplace_id":null,"gplace_url":"https://maps.google.com/?cid=7878800352077535347","dealerID":68351,"trusted":false,"image_id":"v1597283967/ford_RM.png","phone":"8884410392","cityStateSlug":"new-castle.de","slug":"New-Castle.DE/carman+ford+lincoln","location":"39.6574638,-75.615077","brandsList":["ford","lincoln"]},{"id":6412,"crm_id":67054270,"name":"Hertrich Mitsubishi","dealerSlug":"hertrich+mitsubishi","city_state_slug":"New-Castle.DE","brand":"Mitsubishi","website":"www.hertrichmitsubishiofnewcastle.com","address":"120 SOUTH DUPONT HIGHWAY","city":"New Castle","state":"DE","zip":19720,"latitude":39.662339,"longitude":-75.6061945,"phone_number_service":"8664980760","phone_number_main":"3025449412","service_hours":"Mo-Fr 07:30 - 17:00 | Sa 08:00 - 16:00","utc_offset":"-240","gplace_id":null,"gplace_url":"https://maps.google.com/?cid=7122969772939000911","dealerID":68822,"trusted":false,"image_id":"v1597283928/mitsubishi.png","phone":"8664980760","cityStateSlug":"new-castle.de","slug":"New-Castle.DE/hertrich+mitsubishi","location":"39.662339,-75.6061945","brandsList":["mitsubishi"]},{"id":9878,"crm_id":67054282,"name":"Mercedes-Benz of Wilmington","dealerSlug":"mercedes+benz+of+wilmington","city_state_slug":"Wilmington.DE","brand":"Mercedes-Benz","website":"www.mbofwilmington.com","address":"3801 Lancaster Pike","city":"Wilmington","state":"DE","zip":19805,"latitude":39.7553845,"longitude":-75.5950617,"phone_number_service":"8777998397","phone_number_main":"3029952211","service_hours":"Mo 07:00 - 18:00 | Tu 07:00 - 18:00 | We 07:00 - 18:00 | Th 07:00 - 18:00 | Fr 07:00 - 17:00 | Sa 07:00 - 14:00","utc_offset":"-240","gplace_id":null,"gplace_url":"https://maps.google.com/?cid=5254479118501579179","dealerID":68826,"trusted":false,"image_id":"v1597283934/mercedes_RM.png","phone":"8777998397","cityStateSlug":"wilmington.de","slug":"Wilmington.DE/mercedes+benz+of+wilmington","location":"39.7553845,-75.5950617","brandsList":["mercedes-benz"]},{"id":14731,"crm_id":67054288,"name":"Union Park Jaguar","dealerSlug":"union+park+jaguar","city_state_slug":"Wilmington.DE","brand":"Jaguar","website":"www.unionparkjaguar.com","address":"1900 Pennsylvania Ave","city":"Wilmington","state":"DE","zip":19806,"latitude":39.755586,"longitude":-75.5674584,"phone_number_service":"3024164775","phone_number_main":"3026587245","service_hours":"Mo-Fr 07:30 - 17:00","utc_offset":"-240","gplace_id":null,"gplace_url":"https://maps.google.com/?cid=14547047036307873369","dealerID":68828,"trusted":false,"image_id":"v1597283954/jaguar_RM.png","phone":"3024164775","cityStateSlug":"wilmington.de","slug":"Wilmington.DE/union+park+jaguar","location":"39.755586,-75.5674584","brandsList":["jaguar"]},{"id":8075,"crm_id":67054294,"name":"Koons Lexus of Wilmington","dealerSlug":"koons+lexus+of+wilmington","city_state_slug":"Wilmington.DE","brand":"Lexus","website":"www.koonslexusofwilmington.com","address":"2100 Pennsylvania Ave","city":"Wilmington","state":"DE","zip":19806,"latitude":39.756489,"longitude":-75.5697671,"phone_number_service":"3024274400","phone_number_main":"3024274400","service_hours":"Mo-Fr 07:00 - 19:00 | Sa 07:00 - 17:00","utc_offset":"-240","gplace_id":null,"gplace_url":"https://maps.google.com/?cid=18114166951277042290","dealerID":51416,"trusted":true,"image_id":"v1597284042/lexus_ms.png","phone":"3024274400","cityStateSlug":"wilmington.de","slug":"Wilmington.DE/koons+lexus+of+wilmington","location":"39.756489,-75.5697671","brandsList":["lexus"]},{"id":6413,"crm_id":67054303,"name":"Hertrich Nissan of Dover","dealerSlug":"hertrich+nissan+of+dover","city_state_slug":"Dover.DE","brand":"Nissan","website":"www.hertrichnissan.com","address":"1378 S Dupont Hwy","city":"Dover","state":"DE","zip":19901,"latitude":39.1365172,"longitude":-75.527579,"phone_number_service":"8778155313","phone_number_main":"3022573754","service_hours":"Mo-Fr 07:30 - 17:00 | Sa 08:00 - 16:00","utc_offset":"-240","gplace_id":null,"gplace_url":"https://maps.google.com/?cid=4533457916278145881","dealerID":68832,"trusted":false,"image_id":"v1597283926/nissan_RM.png","phone":"8778155313","cityStateSlug":"dover.de","slug":"Dover.DE/hertrich+nissan+of+dover","location":"39.1365172,-75.527579","brandsList":["nissan"]},{"id":15574,"crm_id":67054309,"name":"Winner Subaru","dealerSlug":"winner+subaru","city_state_slug":"Dover.DE","brand":"Subaru","website":"www.winnersubaru.com","address":"1387 N Dupont Hwy","city":"Dover","state":"DE","zip":19901,"latitude":39.1922636,"longitude":-75.5441897,"phone_number_service":"8773003402","phone_number_main":"3027348200","service_hours":"Mo-Fr 07:30 - 17:00 | Sa 08:00-16:00","utc_offset":"-240","gplace_id":null,"gplace_url":"https://maps.google.com/?cid=11974389984403921256","dealerID":68833,"trusted":false,"image_id":"v1597283982/subaru_ms.png","phone":"8773003402","cityStateSlug":"dover.de","slug":"Dover.DE/winner+subaru","location":"39.1922636,-75.5441897","brandsList":["subaru"]},{"id":2403,"crm_id":67054315,"name":"C.F. Schwartz Toyota","dealerSlug":"cf+schwartz+toyota","city_state_slug":"Dover.DE","brand":"Toyota","website":"cfschwartztoyota.com","address":"1536 N Dupont Hwy","city":"Dover","state":"DE","zip":19901,"latitude":39.1939501,"longitude":-75.5488751,"phone_number_service":"8884995906","phone_number_main":"3027345748","service_hours":"Mo-Fr 08:00 - 18:00","utc_offset":"-240","gplace_id":null,"gplace_url":"https://maps.google.com/?cid=7467948688896165827","dealerID":68835,"trusted":false,"image_id":"v1597284039/toyota_ms.png","phone":"8884995906","cityStateSlug":"dover.de","slug":"Dover.DE/cf+schwartz+toyota","location":"39.1939501,-75.5488751","brandsList":["toyota"]},{"id":15571,"crm_id":67054330,"name":"Winner Ford","dealerSlug":"winner+ford","city_state_slug":"Dover.DE","brand":"Ford","website":"www.winnerfordofdover.com","address":"591 S Dupont Hwy","city":"Dover","state":"DE","zip":19901,"latitude":39.1526773,"longitude":-75.5128244,"phone_number_service":"8668571658","phone_number_main":"3028772489","service_hours":"Mo-Fr 07:30 - 18:00 | Sa 08:00 - 17:00","utc_offset":"-240","gplace_id":null,"gplace_url":"https://maps.google.com/?cid=17079306084148758842","dealerID":68839,"trusted":false,"image_id":"v1597283967/ford_RM.png","phone":"8668571658","cityStateSlug":"dover.de","slug":"Dover.DE/winner+ford","location":"39.1526773,-75.5128244","brandsList":["ford"]},{"id":6414,"crm_id":67054339,"name":"Hertrich Toyota of Milford","dealerSlug":"hertrich+toyota+of+milford","city_state_slug":"Milford.DE","brand":"Toyota","website":"www.hertrichtoyota.com","address":"1367 Bay Rd","city":"Milford","state":"DE","zip":19963,"latitude":38.9586532,"longitude":-75.430238,"phone_number_service":"8885684322","phone_number_main":"8774580609","service_hours":"Mo-Fr 07:30 - 18:00 | Sa 07:30 - 16:00","utc_offset":"-240","gplace_id":null,"gplace_url":"https://maps.google.com/?cid=9817926834805679027","dealerID":68841,"trusted":false,"image_id":"v1597284039/toyota_ms.png","phone":"8885684322","cityStateSlug":"milford.de","slug":"Milford.DE/hertrich+toyota+of+milford","location":"38.9586532,-75.430238","brandsList":["toyota"]},{"id":6415,"crm_id":67054345,"name":"Hertrich's Ford of Milford","dealerSlug":"hertrichs+ford+of+milford","city_state_slug":"Milford.DE","brand":"Ford","website":"www.hertrichford.com","address":"1427 Bay Rd","city":"Milford","state":"DE","zip":19963,"latitude":38.9591413,"longitude":-75.4303758,"phone_number_service":"8889046992","phone_number_main":"3027250031","service_hours":"Mo-Fr 07:00 - 18:00 | Sa 07:00 - 15:00","utc_offset":"-240","gplace_id":null,"gplace_url":"https://maps.google.com/?cid=2481264804434846013","dealerID":68843,"trusted":false,"image_id":"v1597283967/ford_RM.png","phone":"8889046992","cityStateSlug":"milford.de","slug":"Milford.DE/hertrichs+ford+of+milford","location":"38.9591413,-75.4303758","brandsList":["ford"]},{"id":5160,"crm_id":67054360,"name":"Frederick Ford","dealerSlug":"frederick+ford","city_state_slug":"Seaford.DE","brand":"Ford","website":"www.frederickford.com/","address":"26905 Sussex Hwy.","city":"Seaford","state":"DE","zip":19973,"latitude":38.6086738,"longitude":-75.5845532,"phone_number_service":"8669225783","phone_number_main":"3026294553","service_hours":"Mo-Fr 07:00 - 17:30 | Sa 07:00 - 16:00","utc_offset":"-240","gplace_id":null,"gplace_url":"https://maps.google.com/?cid=1490088499207034652","dealerID":68847,"trusted":false,"image_id":"v1597283967/ford_RM.png","phone":"8669225783","cityStateSlug":"seaford.de","slug":"Seaford.DE/frederick+ford","location":"38.6086738,-75.5845532","brandsList":["ford"]},{"id":6400,"crm_id":67054363,"name":"Hertrich Buick GMC Of Seaford","dealerSlug":"hertrich+buick+gmc+of+seaford","city_state_slug":"Seaford.DE","brand":"Buick,GMC","website":"www.hertrichgmcbuick.com","address":"26953 Sussex Hwy","city":"Seaford","state":"DE","zip":19973,"latitude":38.6078475,"longitude":-75.5845348,"phone_number_service":"8554180186","phone_number_main":"3026299144","service_hours":"Mo-Fr 08:00 - 17:00 | Sa 08:00 - 16:00","utc_offset":"-240","gplace_id":null,"gplace_url":"https://maps.google.com/?cid=15354605505459924620","dealerID":68848,"trusted":false,"image_id":"v1597283981/buick_RM.png","phone":"8554180186","cityStateSlug":"seaford.de","slug":"Seaford.DE/hertrich+buick+gmc+of+seaford","location":"38.6078475,-75.5845348","brandsList":["buick","gmc"]},{"id":10107,"crm_id":67060801,"name":"Millsboro Chrysler Dodge Jeep RAM","dealerSlug":"millsboro+chrysler+dodge+jeep+ram","city_state_slug":"Millsboro.DE","brand":"Chrysler,Dodge,Jeep,RAM","website":"www.millsborocdjr.com","address":"28362 Dupont Blvd","city":"Millsboro","state":"DE","zip":19966,"latitude":38.5902301,"longitude":-75.304898,"phone_number_service":"3026485674","phone_number_main":"3029345347","service_hours":"Mo-Fr 08:00 - 17:00 | Sa 08:00 - 17:00","utc_offset":"-240","gplace_id":null,"gplace_url":"https://maps.google.com/?cid=16966519253513117672","dealerID":70618,"trusted":false,"image_id":"v1597283975/chrysler_RM.png","phone":"3026485674","cityStateSlug":"millsboro.de","slug":"Millsboro.DE/millsboro+chrysler+dodge+jeep+ram","location":"38.5902301,-75.304898","brandsList":["chrysler","dodge","jeep","ram"]},{"id":15573,"crm_id":73267699,"name":"Winner Hyundai","dealerSlug":"winner+hyundai","city_state_slug":"Dover.DE","brand":"Hyundai","website":"www.winnerhyundai.com","address":"591 S Dupont Hwy","city":"Dover","state":"DE","zip":19901,"latitude":39.152554,"longitude":-75.511997,"phone_number_service":"8668969585","phone_number_main":"3028772489","service_hours":"Mo-Fr 07:30 - 18:00 | Sa 08:00-17:00","utc_offset":"-240","gplace_id":null,"gplace_url":"https://maps.google.com/?cid=7835485807314643911","dealerID":75082,"trusted":false,"image_id":"v1597283959/hyundai_RM.png","phone":"8668969585","cityStateSlug":"dover.de","slug":"Dover.DE/winner+hyundai","location":"39.152554,-75.511997","brandsList":["hyundai"]},{"id":9315,"crm_id":76522069,"name":"Martin Kia","dealerSlug":"martin+kia","city_state_slug":"Newark.DE","brand":"Kia","website":"www.martin-kia.com","address":"289 E Cleveland Ave","city":"Newark","state":"DE","zip":19711,"latitude":39.6867417,"longitude":-75.7420595,"phone_number_service":"3024522710","phone_number_main":"3027385200","service_hours":"Mo-Fr 07:00 - 19:00 | Sa 07:00 - 17:00","utc_offset":"-240","gplace_id":null,"gplace_url":"https://maps.google.com/?cid=2916172947131882839","dealerID":75159,"trusted":false,"image_id":"v1597283948/kia_RM.png","phone":"3024522710","cityStateSlug":"newark.de","slug":"Newark.DE/martin+kia","location":"39.6867417,-75.7420595","brandsList":["kia"]},{"id":11873,"crm_id":83674780,"name":"Price Acura","dealerSlug":"price+acura","city_state_slug":"Dover.DE","brand":"Acura","website":"www.priceacura.com","address":"4585 S Dupont Hwy","city":"Dover","state":"DE","zip":19901,"latitude":39.0979155,"longitude":-75.5439418,"phone_number_service":"3029436003","phone_number_main":"3027345000","service_hours":"Mo 07:00 - 16:00 | Tu 07:00 - 16:00 | We 10:00 - 18:00 | Th 07:00 - 16:00 | Fr 07:00 - 16:00 | Sa 08:00 - 14:00","utc_offset":"-240","gplace_id":null,"gplace_url":"https://maps.google.com/?cid=9179145395700038604","dealerID":75301,"trusted":false,"image_id":"v1597283988/acura.png","phone":"3029436003","cityStateSlug":"dover.de","slug":"Dover.DE/price+acura","location":"39.0979155,-75.5439418","brandsList":["acura"]},{"id":6868,"crm_id":86568856,"name":"i.g. Burton Chrysler Dodge Jeep RAM Fiat","dealerSlug":"ig+burton+chrysler+dodge+jeep+ram+fiat","city_state_slug":"Milford.DE","brand":"Chrysler,Dodge,Jeep,RAM,Fiat","website":"www.igburtonchrysler.com","address":"605 Bay Rd","city":"Milford","state":"DE","zip":19963,"latitude":38.9479473,"longitude":-75.4266775,"phone_number_service":"8888851962","phone_number_main":"3024243041","service_hours":"Mo-Fr 07:30-17:00","utc_offset":"-240","gplace_id":null,"gplace_url":"https://maps.google.com/?cid=14058906063258194595","dealerID":51467,"trusted":true,"image_id":"v1597283975/chrysler_RM.png","phone":"8888851962","cityStateSlug":"milford.de","slug":"Milford.DE/ig+burton+chrysler+dodge+jeep+ram+fiat","location":"38.9479473,-75.4266775","brandsList":["chrysler","dodge","jeep","ram","fiat"]},{"id":6511,"crm_id":88549837,"name":"Holden Dodge Chrysler Jeep RAM","dealerSlug":"holden+dodge+chrysler+jeep+ram","city_state_slug":"Dover.DE","brand":"Chrysler,Dodge,Jeep,RAM","website":"www.holdendodge.com","address":"640 S Governors Ave","city":"Dover","state":"DE","zip":19904,"latitude":39.1508838,"longitude":-75.5253714,"phone_number_service":"3022136525","phone_number_main":"3027345708","service_hours":"Mo-Fr 07:30 - 17:30","utc_offset":"-240","gplace_id":null,"gplace_url":"https://maps.google.com/?cid=3725476547890308907","dealerID":75530,"trusted":false,"image_id":"v1597283975/chrysler_RM.png","phone":"3022136525","cityStateSlug":"dover.de","slug":"Dover.DE/holden+dodge+chrysler+jeep+ram","location":"39.1508838,-75.5253714","brandsList":["chrysler","dodge","jeep","ram"]},{"id":4951,"crm_id":88551712,"name":"Floyd A Megee Motor Company","dealerSlug":"floyd+a+megee+motor+company","city_state_slug":"Georgetown.DE","brand":"Chrysler,Dodge,Jeep,RAM","website":"www.floydamegeemotor.com","address":"515 N Bedford Street","city":"Georgetown","state":"DE","zip":19947,"latitude":38.6969371,"longitude":-75.3941323,"phone_number_service":"3023969592","phone_number_main":"3028560064","service_hours":"Mo-Fr 07:30 - 17:30","utc_offset":"-240","gplace_id":null,"gplace_url":"https://maps.google.com/?cid=13725538845199885522","dealerID":75532,"trusted":false,"image_id":"v1597283975/chrysler_RM.png","phone":"3023969592","cityStateSlug":"georgetown.de","slug":"Georgetown.DE/floyd+a+megee+motor+company","location":"38.6969371,-75.3941323","brandsList":["chrysler","dodge","jeep","ram"]},{"id":6866,"crm_id":91874491,"name":"i.g. Burton Chevrolet of Milford","dealerSlug":"ig+burton+chevrolet+of+milford","city_state_slug":"Milford.DE","brand":"Ford","website":"www.igburtonchevymilford.com","address":"793 Bay Rd","city":"Milford","state":"DE","zip":19963,"latitude":38.9506771,"longitude":-75.4271695,"phone_number_service":"8006398540","phone_number_main":"8007969702","service_hours":"Mo-Fr 07:30 - 17:30","utc_offset":"-240","gplace_id":null,"gplace_url":"https://maps.google.com/?cid=14956299250986701727","dealerID":76123,"trusted":false,"image_id":"v1597283967/ford_RM.png","phone":"8006398540","cityStateSlug":"milford.de","slug":"Milford.DE/ig+burton+chevrolet+of+milford","location":"38.9506771,-75.4271695","brandsList":["ford"]},{"id":6865,"crm_id":91874836,"name":"i.g. Burton BMW","dealerSlug":"ig+burton+bmw","city_state_slug":"Milford.DE","brand":"BMW","website":"www.igburtonbmw.com","address":"509 Bay Rd","city":"Milford","state":"DE","zip":19963,"latitude":38.9466007,"longitude":-75.4269941,"phone_number_service":"8886231347","phone_number_main":"8007969702","service_hours":"Mo-Fr 08:00-17:00","utc_offset":"-240","gplace_id":null,"gplace_url":"https://maps.google.com/?cid=10620978730276151209","dealerID":76124,"trusted":false,"image_id":"v1597283982/bmw_RM.png","phone":"8886231347","cityStateSlug":"milford.de","slug":"Milford.DE/ig+burton+bmw","location":"38.9466007,-75.4269941","brandsList":["bmw"]},{"id":15575,"crm_id":92518087,"name":"Winner Volkswagen","dealerSlug":"winner+volkswagen","city_state_slug":"Dover.DE","brand":"Volkswagen","website":"www.winnervw.com","address":"1387 N Dupont Hwy","city":"Dover","state":"DE","zip":19901,"latitude":39.1923677,"longitude":-75.5442716,"phone_number_service":"8884394611","phone_number_main":"3022196184","service_hours":"Mo-Fr 07:30 - 17:00","utc_offset":"-240","gplace_id":null,"gplace_url":"https://maps.google.com/?cid=5748192013446411458","dealerID":76132,"trusted":false,"image_id":"v1597283902/volkswagen.png","phone":"8884394611","cityStateSlug":"dover.de","slug":"Dover.DE/winner+volkswagen","location":"39.1923677,-75.5442716","brandsList":["volkswagen"]},{"id":9317,"crm_id":97683454,"name":"Martin Mazda","dealerSlug":"martin+mazda","city_state_slug":"Newark.DE","brand":"Mazda","website":"www.martinmazda.com","address":"298 E Cleveland Ave","city":"Newark","state":"DE","zip":19711,"latitude":39.6887904,"longitude":-75.7417124,"phone_number_service":"3024522705","phone_number_main":"3024522705","service_hours":"Mo-Fr 07:00 - 18:00 | Sa 07:00 - 17:00","utc_offset":"-240","gplace_id":null,"gplace_url":"https://maps.google.com/?cid=15136996598708817953","dealerID":51291,"trusted":true,"image_id":"v1597283937/mazda.png","phone":"3024522705","cityStateSlug":"newark.de","slug":"Newark.DE/martin+mazda","location":"39.6887904,-75.7417124","brandsList":["mazda"]},{"id":10896,"crm_id":100581529,"name":"Nucar Chevrolet","dealerSlug":"nucar+chevrolet","city_state_slug":"New-Castle.DE","brand":"Chevrolet","website":"www.nucarchevy.com","address":"174 N Dupont Hwy","city":"New Castle","state":"DE","zip":19720,"latitude":39.6747776,"longitude":-75.5931875,"phone_number_service":"3023271172","phone_number_main":"3023192151","service_hours":"Mo-Fr 07:00 - 17:00 | Sa 08:00 - 14:00","utc_offset":"-240","gplace_id":null,"gplace_url":"https://maps.google.com/?cid=920491833690317563","dealerID":76514,"trusted":false,"image_id":"v1597284079/chevy_ms.png","phone":"3023271172","cityStateSlug":"new-castle.de","slug":"New-Castle.DE/nucar+chevrolet","location":"39.6747776,-75.5931875","brandsList":["chevrolet"]},{"id":15533,"crm_id":106332907,"name":"Willis Ford","dealerSlug":"willis+ford","city_state_slug":"Smyrna.DE","brand":"Ford","website":"www.willisford.com","address":"15 North Dupont Blvd","city":"Smyrna","state":"DE","zip":19977,"latitude":39.3030209,"longitude":-75.6046825,"phone_number_service":"8883887952","phone_number_main":"3026535900","service_hours":"Mo-Fr 07:00 - 18:00 | Sa 08:00 - 15:00","utc_offset":"-240","gplace_id":null,"gplace_url":"https://maps.google.com/?cid=14221925643559522281","dealerID":76661,"trusted":false,"image_id":"v1597283967/ford_RM.png","phone":"8883887952","cityStateSlug":"smyrna.de","slug":"Smyrna.DE/willis+ford","location":"39.3030209,-75.6046825","brandsList":["ford"]},{"id":14730,"crm_id":107072245,"name":"Union Park Honda","dealerSlug":"union+park+honda","city_state_slug":"Wilmington.DE","brand":"Honda","website":"www.unionparkhonda.com","address":"1704 Pennsylvania Ave","city":"Wilmington","state":"DE","zip":19806,"latitude":39.7544439,"longitude":-75.5677943,"phone_number_service":"3027789920","phone_number_main":"3027789919","service_hours":"Mo-Fr 07:00 - 18:00 | Sa 08:00 - 13:00","utc_offset":"-240","gplace_id":null,"gplace_url":"https://maps.google.com/?cid=13405783940045962786","dealerID":76706,"trusted":false,"image_id":"v1597284047/honda_ms.png","phone":"3027789920","cityStateSlug":"wilmington.de","slug":"Wilmington.DE/union+park+honda","location":"39.7544439,-75.5677943","brandsList":["honda"]},{"id":14729,"crm_id":107072281,"name":"Union Park BMW","dealerSlug":"union+park+bmw","city_state_slug":"Wilmington.DE","brand":"BMW","website":"www.unionparkbmw.com","address":"1900 Pennsylvania Ave","city":"Wilmington","state":"DE","zip":19806,"latitude":39.7555509,"longitude":-75.567608,"phone_number_service":"3024824346","phone_number_main":"3026587245","service_hours":"Mo-Fr 07:00 - 18:00 | Sa 08:00 - 13:00","utc_offset":"-240","gplace_id":null,"gplace_url":"https://maps.google.com/?cid=3930707814312602617","dealerID":76707,"trusted":false,"image_id":"v1597283982/bmw_RM.png","phone":"3024824346","cityStateSlug":"wilmington.de","slug":"Wilmington.DE/union+park+bmw","location":"39.7555509,-75.567608","brandsList":["bmw"]},{"id":7948,"crm_id":110049223,"name":"Kia of Wilmington","dealerSlug":"kia+of+wilmington","city_state_slug":"Wilmington.DE","brand":"Kia","website":"www.kiaofwilmington.com","address":"1603 Pennsylvania Ave","city":"Wilmington","state":"DE","zip":19806,"latitude":39.7546964,"longitude":-75.5635584,"phone_number_service":"8889071590","phone_number_main":"3026563100","service_hours":"Mo-Fr 08:00 - 17:00 | Sa 08:00 - 13:00","utc_offset":"-240","gplace_id":null,"gplace_url":"https://maps.google.com/?cid=13025588673203212677","dealerID":76763,"trusted":false,"image_id":"v1597283948/kia_RM.png","phone":"8889071590","cityStateSlug":"wilmington.de","slug":"Wilmington.DE/kia+of+wilmington","location":"39.7546964,-75.5635584","brandsList":["kia"]}]