[{"id":17227,"crm_id":999,"name":"Orchid Isle Ford","dealerSlug":"orchid+isle+ford","city_state_slug":"Hilo.HI","brand":"Ford","website":"www.fords-online.com","address":"1030 Kanoelehua Ave.","city":"Hilo","state":"HI","zip":96720,"latitude":19.700355,"longitude":-155.06494,"phone_number_service":"8089351191","phone_number_main":"","service_hours":"Mo-Fr 08:00 - 18:00 | Sa 08:30 - 16:30 | Su Closed","utc_offset":"","gplace_id":0,"gplace_url":"","dealerID":60013,"trusted":false,"image_id":"v1597283967/ford_RM.png","phone":"8089351191","cityStateSlug":"hilo.hi","slug":"Hilo.HI/orchid+isle+ford","location":"19.700355,-155.06494","brandsList":["ford"]},{"id":17226,"crm_id":999,"name":"Orchid Isle Ford","dealerSlug":"orchid+isle+ford","city_state_slug":"Kailua-Kona.HI","brand":"Ford","website":"www.fords-online.com","address":"76-6319 Kuakini","city":"Kailua-Kona","state":"HI","zip":96740,"latitude":19.611487,"longitude":-155.965967,"phone_number_service":"8884330360","phone_number_main":"","service_hours":"Mo-Fr 08:00 - 18:00 | Sa 08:30 - 16:30 | Su Closed","utc_offset":"","gplace_id":0,"gplace_url":"","dealerID":60014,"trusted":false,"image_id":"v1597283967/ford_RM.png","phone":"8884330360","cityStateSlug":"kailua-kona.hi","slug":"Kailua-Kona.HI/orchid+isle+ford","location":"19.611487,-155.965967","brandsList":["ford"]},{"id":16802,"crm_id":999,"name":"KarMART Volkswagen of Maui","dealerSlug":"karmart+volkswagen+of+maui","city_state_slug":"Kihei.HI","brand":"Volkswagen","website":"www.mauivw.com","address":"411 Huku Lii Pl Ste 104","city":"Kihei","state":"HI","zip":96753,"latitude":20.7719,"longitude":-156.452,"phone_number_service":"2193266850","phone_number_main":"","service_hours":"Mo-Fr 08:30 - 19:00 | Sa 08:30 - 17:00 | Su Closed","utc_offset":"","gplace_id":0,"gplace_url":"","dealerID":60075,"trusted":false,"image_id":"v1597283902/volkswagen.png","phone":"2193266850","cityStateSlug":"kihei.hi","slug":"Kihei.HI/karmart+volkswagen+of+maui","location":"20.7719,-156.452","brandsList":["volkswagen"]},{"id":16830,"crm_id":999,"name":"Kona Nissan","dealerSlug":"kona+nissan","city_state_slug":"Kailua-Kona.HI","brand":"Nissan","website":"www.konanissan.com","address":"76-6353 Kuakini Hwy","city":"Kailua-Kona","state":"HI","zip":96740,"latitude":19.6142559,"longitude":-155.9679571,"phone_number_service":"8083294408","phone_number_main":"","service_hours":"Mo-Fr 08:30 - 18:00\n | Sa 09:00 - 16:00\n | Su Closed","utc_offset":"","gplace_id":0,"gplace_url":"","dealerID":60375,"trusted":false,"image_id":"v1597283926/nissan_RM.png","phone":"8083294408","cityStateSlug":"kailua-kona.hi","slug":"Kailua-Kona.HI/kona+nissan","location":"19.6142559,-155.9679571","brandsList":["nissan"]},{"id":16758,"crm_id":999,"name":"Jim Falk Chrysler Dodge Jeep RAM FIAT","dealerSlug":"jim+falk+chrysler+dodge+jeep+ram+fiat","city_state_slug":"Kahului.HI","brand":"Chrysler,Dodge,Jeep,RAM,Fiat","website":"www.jimfalkchryslerjeepdodgeram.com","address":"195 S. Puunene Avenue","city":"Kahului","state":"HI","zip":96732,"latitude":20.8865208,"longitude":-156.4648278,"phone_number_service":"8088773673","phone_number_main":"","service_hours":"Mo-Fr 09:00 - 20:00 | Sa 09:00 - 17:00 | Su Closed","utc_offset":"","gplace_id":0,"gplace_url":"","dealerID":60800,"trusted":false,"image_id":"v1597283975/chrysler_RM.png","phone":"8088773673","cityStateSlug":"kahului.hi","slug":"Kahului.HI/jim+falk+chrysler+dodge+jeep+ram+fiat","location":"20.8865208,-156.4648278","brandsList":["chrysler","dodge","jeep","ram","fiat"]},{"id":16759,"crm_id":999,"name":"Jim Falk Motors Of Maui","dealerSlug":"jim+falk+motors+of+maui","city_state_slug":"Kahului.HI","brand":"Nissan","website":"www.jimfalknissan.com","address":"260 HANA HWY","city":"Kahului","state":"HI","zip":96732,"latitude":20.888818,"longitude":-156.458202,"phone_number_service":"8082702600","phone_number_main":"","service_hours":"Mo-Fr 09:00 - 20:00\n | Sa 09:00 - 18:00\n | Su Closed","utc_offset":"","gplace_id":0,"gplace_url":"","dealerID":60990,"trusted":false,"image_id":"v1597283926/nissan_RM.png","phone":"8082702600","cityStateSlug":"kahului.hi","slug":"Kahului.HI/jim+falk+motors+of+maui","location":"20.888818,-156.458202","brandsList":["nissan"]},{"id":16838,"crm_id":999,"name":"Kuhio Nissan","dealerSlug":"kuhio+nissan","city_state_slug":"Lihue.HI","brand":"Nissan","website":"www.kuhionissan.com","address":"3039 AUKELE ST","city":"Lihue","state":"HI","zip":96766,"latitude":21.967792,"longitude":-159.356593,"phone_number_service":"8082456731","phone_number_main":"","service_hours":"Mo-Fr 08:00 - 18:00\n | Sa 09:00 - 17:00\n | Su Closed","utc_offset":"","gplace_id":0,"gplace_url":"","dealerID":61088,"trusted":false,"image_id":"v1597283926/nissan_RM.png","phone":"8082456731","cityStateSlug":"lihue.hi","slug":"Lihue.HI/kuhio+nissan","location":"21.967792,-159.356593","brandsList":["nissan"]},{"id":17044,"crm_id":999,"name":"Mercedes-Benz of Maui","dealerSlug":"mercedes+benz+of+maui","city_state_slug":"Kahului.HI","brand":"Mercedes-Benz","website":"www.maui.mercedesdealer.com","address":"69 Hobron Avenue","city":"Kahului","state":"HI","zip":96732,"latitude":20.8922726,"longitude":-156.4642914,"phone_number_service":"8088721500","phone_number_main":"8088721520","service_hours":"","utc_offset":"","gplace_id":0,"gplace_url":"","dealerID":61508,"trusted":false,"image_id":"v1597283934/mercedes_RM.png","phone":"8088721500","cityStateSlug":"kahului.hi","slug":"Kahului.HI/mercedes+benz+of+maui","location":"20.8922726,-156.4642914","brandsList":["mercedes-benz"]},{"id":17870,"crm_id":999,"name":"Windward Ford of Hawaii","dealerSlug":"windward+ford+of+hawaii","city_state_slug":"Kailua.HI","brand":"Ford","website":"www.windwardfordhawaii.com","address":"725 Kailua Road","city":"Kailua","state":"HI","zip":96734,"latitude":21.393915,"longitude":-157.74379,"phone_number_service":"8082667000","phone_number_main":"","service_hours":"Mo-Sa 09:00 - 19:00 | Su 10:00 - 18:00","utc_offset":"","gplace_id":0,"gplace_url":"","dealerID":61539,"trusted":false,"image_id":"v1597283967/ford_RM.png","phone":"8082667000","cityStateSlug":"kailua.hi","slug":"Kailua.HI/windward+ford+of+hawaii","location":"21.393915,-157.74379","brandsList":["ford"]},{"id":15873,"crm_id":999,"name":"Audi Maui","dealerSlug":"audi+maui","city_state_slug":"Kihei.HI","brand":"Audi","website":"www.audimauiservice.com","address":"Huku Lii Pl # 101 357","city":"Kihei","state":"HI","zip":96753,"latitude":20.7732158,"longitude":-156.4520417,"phone_number_service":"8313920445","phone_number_main":"","service_hours":"","utc_offset":"","gplace_id":0,"gplace_url":"","dealerID":61730,"trusted":false,"image_id":"v1597283985/audi_RM.png","phone":"8313920445","cityStateSlug":"kihei.hi","slug":"Kihei.HI/audi+maui","location":"20.7732158,-156.4520417","brandsList":["audi"]},{"id":15562,"crm_id":51926329,"name":"Windward Dodge Chrysler Jeep","dealerSlug":"windward+dodge+chrysler+jeep","city_state_slug":"Kaneohe.HI","brand":"Chrysler,Dodge,Jeep,RAM","website":"www.jerryforthepeople.com","address":"46-177 Kahuhipa St","city":"Kaneohe","state":"HI","zip":96744,"latitude":21.4165092,"longitude":-157.8060366,"phone_number_service":"8087911818","phone_number_main":"8777850303","service_hours":"Mo-Sa 07:00 - 18:00","utc_offset":"-600","gplace_id":null,"gplace_url":"https://maps.google.com/?cid=3919701365587521435","dealerID":62135,"trusted":false,"image_id":"v1597283975/chrysler_RM.png","phone":"8087911818","cityStateSlug":"kaneohe.hi","slug":"Kaneohe.HI/windward+dodge+chrysler+jeep","location":"21.4165092,-157.8060366","brandsList":["chrysler","dodge","jeep","ram"]},{"id":6671,"crm_id":51927910,"name":"Honolulu Ford","dealerSlug":"honolulu+ford","city_state_slug":"Honolulu.HI","brand":"Ford","website":"www.honoluluford.com","address":"1370 N King St","city":"Honolulu","state":"HI","zip":96817,"latitude":21.3287572,"longitude":-157.8700523,"phone_number_service":"8082014967","phone_number_main":"8088243981","service_hours":"Mo-Fr 07:00 - 17:30 | Sa 07:00 - 16:00","utc_offset":"-600","gplace_id":null,"gplace_url":"https://maps.google.com/?cid=1296529311552099697","dealerID":62231,"trusted":false,"image_id":"v1597283967/ford_RM.png","phone":"8082014967","cityStateSlug":"honolulu.hi","slug":"Honolulu.HI/honolulu+ford","location":"21.3287572,-157.8700523","brandsList":["ford"]},{"id":7676,"crm_id":60526759,"name":"Kama'aina Motors","dealerSlug":"kamaaina+motors","city_state_slug":"Hilo.HI","brand":"Chrysler,Dodge,Jeep,RAM","website":"www.kamaainamotors.com","address":"400 E Kawili St","city":"Hilo","state":"HI","zip":96720,"latitude":19.7053627,"longitude":-155.0653978,"phone_number_service":"8884016173","phone_number_main":"8089353741","service_hours":"Mo-Fr 07:00 - 17:00","utc_offset":"-600","gplace_id":null,"gplace_url":"https://maps.google.com/?cid=17309559089052754486","dealerID":62452,"trusted":false,"image_id":"v1597283975/chrysler_RM.png","phone":"8884016173","cityStateSlug":"hilo.hi","slug":"Hilo.HI/kamaaina+motors","location":"19.7053627,-155.0653978","brandsList":["chrysler","dodge","jeep","ram"]},{"id":6672,"crm_id":67032634,"name":"Honolulu Volkswagen","dealerSlug":"honolulu+volkswagen","city_state_slug":"Honolulu.HI","brand":"Volkswagen","website":"www.honoluluvw.com","address":"2881 N. Nimitz Highway SE","city":"Honolulu","state":"HI","zip":96819,"latitude":21.3347443,"longitude":-157.9031811,"phone_number_service":"8553713150","phone_number_main":"8083699016","service_hours":"Mo-Fr 07:00 - 18:00 | Sa 08:00 - 16:00","utc_offset":"-600","gplace_id":null,"gplace_url":"https://maps.google.com/?cid=17981149699409899438","dealerID":62937,"trusted":false,"image_id":"v1597283902/volkswagen.png","phone":"8553713150","cityStateSlug":"honolulu.hi","slug":"Honolulu.HI/honolulu+volkswagen","location":"21.3347443,-157.9031811","brandsList":["volkswagen"]},{"id":7124,"crm_id":67032652,"name":"Jaguar Honolulu","dealerSlug":"jaguar+honolulu","city_state_slug":"Honolulu.HI","brand":"Jaguar","website":"www.jaguarhonolulu.com","address":"888 Kapiolani Blvd","city":"Honolulu","state":"HI","zip":96813,"latitude":21.2997531,"longitude":-157.8528442,"phone_number_service":"8083774045","phone_number_main":"8085925108","service_hours":"Mo-Fr 08:00 - 17:00","utc_offset":"-600","gplace_id":null,"gplace_url":"https://maps.google.com/?cid=10457544362822620929","dealerID":62942,"trusted":false,"image_id":"v1597283954/jaguar_RM.png","phone":"8083774045","cityStateSlug":"honolulu.hi","slug":"Honolulu.HI/jaguar+honolulu","location":"21.2997531,-157.8528442","brandsList":["jaguar"]},{"id":8290,"crm_id":67032655,"name":"Land Rover Honolulu","dealerSlug":"land+rover+honolulu","city_state_slug":"Honolulu.HI","brand":"Land Rover","website":"www.landroverhonolulu.com","address":"888 Kapiolani Blvd","city":"Honolulu","state":"HI","zip":96813,"latitude":21.299757,"longitude":-157.8528289,"phone_number_service":"8082179722","phone_number_main":"8085927400","service_hours":"Mo-Fr 08:00 - 17:00","utc_offset":"-600","gplace_id":null,"gplace_url":"https://maps.google.com/?cid=16198349675493877414","dealerID":62943,"trusted":false,"image_id":"v1597283945/landrover_RM.png","phone":"8082179722","cityStateSlug":"honolulu.hi","slug":"Honolulu.HI/land+rover+honolulu","location":"21.299757,-157.8528289","brandsList":["land rover"]},{"id":7003,"crm_id":67032697,"name":"Island Honda","dealerSlug":"island+honda","city_state_slug":"Kahului.HI","brand":"Honda","website":"www.islandhonda.com","address":"110 Hana Hwy","city":"Kahului","state":"HI","zip":96732,"latitude":20.8905067,"longitude":-156.4612426,"phone_number_service":"8553495037","phone_number_main":"8084958050","service_hours":"Mo-Fr 07:00 - 17:00 | Sa 08:00 - 14:00","utc_offset":"-600","gplace_id":null,"gplace_url":"https://maps.google.com/?cid=9858555563822700373","dealerID":62956,"trusted":false,"image_id":"v1597284047/honda_ms.png","phone":"8553495037","cityStateSlug":"kahului.hi","slug":"Kahului.HI/island+honda","location":"20.8905067,-156.4612426","brandsList":["honda"]},{"id":3623,"crm_id":67032874,"name":"Cutter Mazda Honolulu","dealerSlug":"cutter+mazda+honolulu","city_state_slug":"Honolulu.HI","brand":"Mazda","website":"www.cuttermazdahonolulu.com","address":"805 Ala Moana Blvd","city":"Honolulu","state":"HI","zip":96813,"latitude":21.295372,"longitude":-157.859522,"phone_number_service":"8085649160","phone_number_main":"8085649100","service_hours":"Mo-Fr 07:00 - 17:00","utc_offset":"-600","gplace_id":null,"gplace_url":"https://maps.google.com/?cid=10530246811170878779","dealerID":63001,"trusted":false,"image_id":"v1597283937/mazda.png","phone":"8085649160","cityStateSlug":"honolulu.hi","slug":"Honolulu.HI/cutter+mazda+honolulu","location":"21.295372,-157.859522","brandsList":["mazda"]},{"id":3620,"crm_id":67034191,"name":"Cutter Chevrolet","dealerSlug":"cutter+chevrolet","city_state_slug":"Honolulu.HI","brand":"Chevrolet","website":"www.cutterchevy.com","address":"711 Ala Moana Blvd","city":"Honolulu","state":"HI","zip":96813,"latitude":21.2963447,"longitude":-157.8616567,"phone_number_service":"8083742096","phone_number_main":"8087973268","service_hours":"Mo-Fr 07:00 - 17:30","utc_offset":"-600","gplace_id":null,"gplace_url":"https://maps.google.com/?cid=12072880177183740367","dealerID":63364,"trusted":false,"image_id":"v1597284079/chevy_ms.png","phone":"8083742096","cityStateSlug":"honolulu.hi","slug":"Honolulu.HI/cutter+chevrolet","location":"21.2963447,-157.8616567","brandsList":["chevrolet"]},{"id":7970,"crm_id":67035511,"name":"King Auto Center","dealerSlug":"king+auto+center","city_state_slug":"Lihue.HI","brand":"Chrysler,Dodge,Jeep,RAM","website":"www.kingautocenter.com","address":"4330 Kukui Grove St","city":"Lihue","state":"HI","zip":96766,"latitude":21.9703296,"longitude":-159.3759686,"phone_number_service":"8082455977","phone_number_main":"8082454788","service_hours":"Mo-Sa 07:30-16:00","utc_offset":"-600","gplace_id":null,"gplace_url":"https://maps.google.com/?cid=17458713359229844016","dealerID":63728,"trusted":false,"image_id":"v1597283975/chrysler_RM.png","phone":"8082455977","cityStateSlug":"lihue.hi","slug":"Lihue.HI/king+auto+center","location":"21.9703296,-159.3759686","brandsList":["chrysler","dodge","jeep","ram"]},{"id":6663,"crm_id":67036561,"name":"Honda Windward","dealerSlug":"honda+windward","city_state_slug":"Kaneohe.HI","brand":"Honda","website":"www.hondawindward.com","address":"45-671 Kamehameha Hwy","city":"Kaneohe","state":"HI","zip":96744,"latitude":21.4046427,"longitude":-157.798844,"phone_number_service":"8082357566","phone_number_main":"8082478544","service_hours":"Mo-Sa 07:00 - 17:30","utc_offset":"-600","gplace_id":null,"gplace_url":"https://maps.google.com/?cid=2020988777909041075","dealerID":64014,"trusted":false,"image_id":"v1597284047/honda_ms.png","phone":"8082357566","cityStateSlug":"kaneohe.hi","slug":"Kaneohe.HI/honda+windward","location":"21.4046427,-157.798844","brandsList":["honda"]},{"id":9405,"crm_id":67036567,"name":"Maui Toyota","dealerSlug":"maui+toyota","city_state_slug":"Kahului.HI","brand":"Toyota","website":"www.mauitoyota.com","address":"320 Hana Hwy","city":"Kahului","state":"HI","zip":96732,"latitude":20.8874714,"longitude":-156.4577812,"phone_number_service":"8088714977","phone_number_main":"8088772781","service_hours":"Mo-Fr 07:00 - 17:00","utc_offset":"-600","gplace_id":null,"gplace_url":"https://maps.google.com/?cid=4059217638151219","dealerID":64016,"trusted":false,"image_id":"v1597284039/toyota_ms.png","phone":"8088714977","cityStateSlug":"kahului.hi","slug":"Kahului.HI/maui+toyota","location":"20.8874714,-156.4577812","brandsList":["toyota"]},{"id":1681,"crm_id":67037935,"name":"BMW of Honolulu","dealerSlug":"bmw+of+honolulu","city_state_slug":"Honolulu.HI","brand":"BMW","website":"www.bmwhawaii.com","address":"777 Kapiolani Blvd","city":"Honolulu","state":"HI","zip":96813,"latitude":21.3000377,"longitude":-157.854032,"phone_number_service":"8669331428","phone_number_main":"8085971225","service_hours":"Mo-Fr 06:30 - 18:00 | Sa 06:30 - 17:00","utc_offset":"-600","gplace_id":null,"gplace_url":"https://maps.google.com/?cid=11754916576100282728","dealerID":51520,"trusted":true,"image_id":"v1597283982/bmw_RM.png","phone":"8669331428","cityStateSlug":"honolulu.hi","slug":"Honolulu.HI/bmw+of+honolulu","location":"21.3000377,-157.854032","brandsList":["bmw"]},{"id":15563,"crm_id":67038367,"name":"Windward Hyundai","dealerSlug":"windward+hyundai","city_state_slug":"Kaneohe.HI","brand":"Hyundai","website":"www.hyundaiwindward.com/","address":"46-201 Kahuhipa St","city":"Kaneohe","state":"HI","zip":96744,"latitude":21.4164267,"longitude":-157.8065984,"phone_number_service":"8883235443","phone_number_main":"8777745594","service_hours":"Mo-Sa  07:00 - 18:00","utc_offset":"-600","gplace_id":null,"gplace_url":"https://maps.google.com/?cid=12002500427659547335","dealerID":64521,"trusted":false,"image_id":"v1597283959/hyundai_RM.png","phone":"8883235443","cityStateSlug":"kaneohe.hi","slug":"Kaneohe.HI/windward+hyundai","location":"21.4164267,-157.8065984","brandsList":["hyundai"]},{"id":11674,"crm_id":67039201,"name":"Porsche Hawaii","dealerSlug":"porsche+hawaii","city_state_slug":"Honolulu.HI","brand":"Porsche","website":"www.porschehawaii.com","address":"730 Ala Moana Blvd","city":"Honolulu","state":"HI","zip":96813,"latitude":21.2970053,"longitude":-157.8609711,"phone_number_service":"8086701584","phone_number_main":"8083540003","service_hours":"Mo-Fr 08:00 - 17:00","utc_offset":"-600","gplace_id":null,"gplace_url":"https://maps.google.com/?cid=11377977939740155962","dealerID":64749,"trusted":false,"image_id":"v1597283919/porsche.jpg","phone":"8086701584","cityStateSlug":"honolulu.hi","slug":"Honolulu.HI/porsche+hawaii","location":"21.2970053,-157.8609711","brandsList":["porsche"]},{"id":14372,"crm_id":67041643,"name":"Tony Nissan","dealerSlug":"tony+nissan","city_state_slug":"Waipahu.HI","brand":"Nissan","website":"www.tonynissan.com","address":"94-1299 Ka Uka Blvd","city":"Waipahu","state":"HI","zip":96797,"latitude":21.4276186,"longitude":-157.9979486,"phone_number_service":"8083762463","phone_number_main":"8086807150","service_hours":"Mo-Fr 07:00 - 17:00 | Sa 07:00 - 15:30","utc_offset":"-600","gplace_id":null,"gplace_url":"https://maps.google.com/?cid=5379565048893169665","dealerID":65392,"trusted":false,"image_id":"v1597283926/nissan_RM.png","phone":"8083762463","cityStateSlug":"waipahu.hi","slug":"Waipahu.HI/tony+nissan","location":"21.4276186,-157.9979486","brandsList":["nissan"]},{"id":8062,"crm_id":67042372,"name":"Kona Auto Center","dealerSlug":"kona+auto+center","city_state_slug":"Kailua-Kona.HI","brand":"Chrysler,Dodge,Jeep,RAM","website":"www.konaautocenter.com","address":"76-6353 Kuakini Hwy","city":"Kailua-Kona","state":"HI","zip":96740,"latitude":19.6092564,"longitude":-155.964502,"phone_number_service":"8888500917","phone_number_main":"8083294408","service_hours":"Mo-Fr 07:00-17:00","utc_offset":"-600","gplace_id":null,"gplace_url":"https://maps.google.com/?cid=17631424573162553223","dealerID":65584,"trusted":false,"image_id":"v1597283975/chrysler_RM.png","phone":"8888500917","cityStateSlug":"kailua-kona.hi","slug":"Kailua-Kona.HI/kona+auto+center","location":"19.6092564,-155.964502","brandsList":["chrysler","dodge","jeep","ram"]},{"id":11106,"crm_id":67047460,"name":"Pacific Honda","dealerSlug":"pacific+honda","city_state_slug":"Honolulu.HI","brand":"Honda","website":"www.pachonda.com","address":"188 S Beretania St","city":"Honolulu","state":"HI","zip":96813,"latitude":21.310863,"longitude":-157.85808,"phone_number_service":"8085287400","phone_number_main":"8085287200","service_hours":"Mo-Fr 06:30 - 17:00 | Sa 07:00 - 16:00","utc_offset":"-600","gplace_id":null,"gplace_url":"https://maps.google.com/?cid=7747615782829132847","dealerID":66962,"trusted":false,"image_id":"v1597284047/honda_ms.png","phone":"8085287400","cityStateSlug":"honolulu.hi","slug":"Honolulu.HI/pacific+honda","location":"21.310863,-157.85808","brandsList":["honda"]},{"id":3622,"crm_id":67053310,"name":"Cutter Ford","dealerSlug":"cutter+ford","city_state_slug":"Aiea.HI","brand":"Ford","website":"www.cutterfordsales.com","address":"98-15 Kamehameha Hwy","city":"Aiea","state":"HI","zip":96701,"latitude":21.3853187,"longitude":-157.9520835,"phone_number_service":"8085649216","phone_number_main":"8085649777","service_hours":"Mo-Fr 07:00 - 18:00 | Sa 07:00 - 16:00","utc_offset":"-600","gplace_id":null,"gplace_url":"https://maps.google.com/?cid=12255926417111092807","dealerID":68559,"trusted":false,"image_id":"v1597283967/ford_RM.png","phone":"8085649216","cityStateSlug":"aiea.hi","slug":"Aiea.HI/cutter+ford","location":"21.3853187,-157.9520835","brandsList":["ford"]},{"id":3625,"crm_id":67053955,"name":"Cutter Volvo Cars Honolulu","dealerSlug":"cutter+volvo+cars+honolulu","city_state_slug":"Honolulu.HI","brand":"Volvo","website":"www.cuttervolvocars.com","address":"744 Ala Moana Blvd","city":"Honolulu","state":"HI","zip":96813,"latitude":21.2967544,"longitude":-157.8602852,"phone_number_service":"8083565070","phone_number_main":"8083565000","service_hours":"Mo-Fr 07:00 - 17:00","utc_offset":"-600","gplace_id":null,"gplace_url":"https://maps.google.com/?cid=8523009250212001565","dealerID":68739,"trusted":false,"image_id":"v1597283901/volvo.jpg","phone":"8083565070","cityStateSlug":"honolulu.hi","slug":"Honolulu.HI/cutter+volvo+cars+honolulu","location":"21.2967544,-157.8602852","brandsList":["volvo"]},{"id":8108,"crm_id":67056757,"name":"Kuhio Ford","dealerSlug":"kuhio+ford","city_state_slug":"Lihue.HI","brand":"Ford","website":"www.fordkauai.net","address":"3050 Hoolako Street","city":"Lihue","state":"HI","zip":96766,"latitude":21.969219,"longitude":-159.3591942,"phone_number_service":"8088293252","phone_number_main":"8082453673","service_hours":"Mo-Fr 07:00 - 17:00","utc_offset":"-600","gplace_id":null,"gplace_url":"https://maps.google.com/?cid=9329036780969961676","dealerID":69499,"trusted":false,"image_id":"v1597283967/ford_RM.png","phone":"8088293252","cityStateSlug":"lihue.hi","slug":"Lihue.HI/kuhio+ford","location":"21.969219,-159.3591942","brandsList":["ford"]},{"id":14370,"crm_id":67058134,"name":"Tony Honda Kona","dealerSlug":"tony+honda+kona","city_state_slug":"Kailua-Kona.HI","brand":"Honda","website":"www.tonyhondakona.com","address":"75-5608 Kuakini Hwy","city":"Kailua-Kona","state":"HI","zip":96740,"latitude":19.6419959,"longitude":-155.9983465,"phone_number_service":"8083762538","phone_number_main":"8089302224","service_hours":"Mo-Fr 07:30 - 17:00 | Sa 08:00 - 16:00","utc_offset":"-600","gplace_id":null,"gplace_url":"https://maps.google.com/?cid=13301904526394618703","dealerID":69876,"trusted":false,"image_id":"v1597284047/honda_ms.png","phone":"8083762538","cityStateSlug":"kailua-kona.hi","slug":"Kailua-Kona.HI/tony+honda+kona","location":"19.6419959,-155.9983465","brandsList":["honda"]},{"id":14369,"crm_id":67060903,"name":"Tony Honda Hilo","dealerSlug":"tony+honda+hilo","city_state_slug":"Hilo.HI","brand":"Honda","website":"www.tonyhondahilo.com","address":"124 Wiwoole St","city":"Hilo","state":"HI","zip":96720,"latitude":19.7023625,"longitude":-155.0650256,"phone_number_service":"8082068310","phone_number_main":"8089615505","service_hours":"Mo-Fr 07:30 - 17:00 | Sa 08:00 - 16:00","utc_offset":"-600","gplace_id":null,"gplace_url":"https://maps.google.com/?cid=15799522888289600349","dealerID":70645,"trusted":false,"image_id":"v1597284047/honda_ms.png","phone":"8082068310","cityStateSlug":"hilo.hi","slug":"Hilo.HI/tony+honda+hilo","location":"19.7023625,-155.0650256","brandsList":["honda"]},{"id":7677,"crm_id":67078534,"name":"Kama'aina Nissan","dealerSlug":"kamaaina+nissan","city_state_slug":"Hilo.HI","brand":"Nissan","website":"www.kamaainanissan.com","address":"471 Kalanianaole Street","city":"Hilo","state":"HI","zip":96720,"latitude":19.7263729,"longitude":-155.0576667,"phone_number_service":"8885173225","phone_number_main":"8089306477","service_hours":"Mo-Fr 07:00 - 17:00","utc_offset":"-600","gplace_id":null,"gplace_url":"https://maps.google.com/?cid=5238516778707256166","dealerID":74558,"trusted":false,"image_id":"v1597283926/nissan_RM.png","phone":"8885173225","cityStateSlug":"hilo.hi","slug":"Hilo.HI/kamaaina+nissan","location":"19.7263729,-155.0576667","brandsList":["nissan"]},{"id":1397,"crm_id":67078537,"name":"Big Island Toyota","dealerSlug":"big+island+toyota","city_state_slug":"Hilo.HI","brand":"Toyota","website":"bigislandtoyota.com","address":"811 Kanoelehua Ave","city":"Hilo","state":"HI","zip":96720,"latitude":19.7060995,"longitude":-155.0634411,"phone_number_service":"8089693112","phone_number_main":"8089352920","service_hours":"Mo-Sa 07:00 - 18:00","utc_offset":"-600","gplace_id":null,"gplace_url":"https://maps.google.com/?cid=12805855132622305345","dealerID":74559,"trusted":false,"image_id":"v1597284039/toyota_ms.png","phone":"8089693112","cityStateSlug":"hilo.hi","slug":"Hilo.HI/big+island+toyota","location":"19.7060995,-155.0634411","brandsList":["toyota"]},{"id":14811,"crm_id":67078540,"name":"Valley Isle Motors Ford","dealerSlug":"valley+isle+motors+ford","city_state_slug":"Kahului.HI","brand":"Ford","website":"www.fordofhawaii.com","address":"221 S Puunene Ave","city":"Kahului","state":"HI","zip":96732,"latitude":20.8867556,"longitude":-156.4645955,"phone_number_service":"8088937711","phone_number_main":"8088773673","service_hours":"Mo-Fr 07:00 - 17:00","utc_offset":"-600","gplace_id":null,"gplace_url":"https://maps.google.com/?cid=9246166673297615920","dealerID":74560,"trusted":false,"image_id":"v1597283967/ford_RM.png","phone":"8088937711","cityStateSlug":"kahului.hi","slug":"Kahului.HI/valley+isle+motors+ford","location":"20.8867556,-156.4645955","brandsList":["ford"]},{"id":13065,"crm_id":67078543,"name":"Servco Lexus Maui","dealerSlug":"servco+lexus+maui","city_state_slug":"Kahului.HI","brand":"Lexus","website":"dealers.servcolexus.com","address":"781 Ho'okele St","city":"Kahului","state":"HI","zip":96732,"latitude":20.8797844,"longitude":-156.4472179,"phone_number_service":"8772150288","phone_number_main":"8772909406","service_hours":"Mo-Fr 07:30 - 16:30","utc_offset":"-600","gplace_id":null,"gplace_url":"https://maps.google.com/?cid=9100332386313234168","dealerID":74561,"trusted":false,"image_id":"v1597284042/lexus_ms.png","phone":"8772150288","cityStateSlug":"kahului.hi","slug":"Kahului.HI/servco+lexus+maui","location":"20.8797844,-156.4472179","brandsList":["lexus"]},{"id":7988,"crm_id":67078549,"name":"King Windward Nissan","dealerSlug":"king+windward+nissan","city_state_slug":"Kaneohe.HI","brand":"Nissan","website":"www.kingwindwardnissan.com","address":"45-568 Kamehameha Hwy","city":"Kaneohe","state":"HI","zip":96744,"latitude":21.3992461,"longitude":-157.7992043,"phone_number_service":"8084396903","phone_number_main":"8084396901","service_hours":"Mo-Fr 06:30 - 17:15 | Sa 06:30 - 16:15","utc_offset":"-600","gplace_id":null,"gplace_url":"https://maps.google.com/?cid=10131196826880960103","dealerID":74562,"trusted":false,"image_id":"v1597283926/nissan_RM.png","phone":"8084396903","cityStateSlug":"kaneohe.hi","slug":"Kaneohe.HI/king+windward+nissan","location":"21.3992461,-157.7992043","brandsList":["nissan"]},{"id":13067,"crm_id":67078552,"name":"Servco Toyota Windward","dealerSlug":"servco+toyota+windward","city_state_slug":"Kaneohe.HI","brand":"Toyota","website":"servcotoyotagroup.composer.dealer.com/windward/index.htm","address":"45-655 Kamehameha Hwy","city":"Kaneohe","state":"HI","zip":96744,"latitude":21.4036922,"longitude":-157.7987392,"phone_number_service":"8772156574","phone_number_main":"8772539422","service_hours":"Mo-Sa 7:00 - 18:00","utc_offset":"-600","gplace_id":null,"gplace_url":"https://maps.google.com/?cid=15885548196003381657","dealerID":74563,"trusted":false,"image_id":"v1597284039/toyota_ms.png","phone":"8772156574","cityStateSlug":"kaneohe.hi","slug":"Kaneohe.HI/servco+toyota+windward","location":"21.4036922,-157.7987392","brandsList":["toyota"]},{"id":7980,"crm_id":67078564,"name":"King Honda","dealerSlug":"king+honda","city_state_slug":"Lihue.HI","brand":"Honda","website":"www.kinghondaoflihue.com/","address":"4330 Kukui Grove St","city":"Lihue","state":"HI","zip":96766,"latitude":21.9703296,"longitude":-159.3759686,"phone_number_service":"8082455977","phone_number_main":"8082454788","service_hours":"Mo-Fr 07:30-16:30 | Sa 07:30-16:00","utc_offset":"-600","gplace_id":null,"gplace_url":"https://maps.google.com/?cid=17458713359229844016","dealerID":74564,"trusted":false,"image_id":"v1597284047/honda_ms.png","phone":"8082455977","cityStateSlug":"lihue.hi","slug":"Lihue.HI/king+honda","location":"21.9703296,-159.3759686","brandsList":["honda"]},{"id":3621,"crm_id":67078570,"name":"Cutter Chrysler Dodge Jeep RAM of Pearl City","dealerSlug":"cutter+chrysler+dodge+jeep+ram+of+pearl+city","city_state_slug":"Pearl-City.HI","brand":"Chrysler,Dodge,Jeep,RAM","website":"www.cutterpearlcitychryslerjeepdodgeram.com","address":"905 Kamehameha Hwy","city":"Pearl City","state":"HI","zip":96782,"latitude":21.3935988,"longitude":-157.9711121,"phone_number_service":"8085649316","phone_number_main":"8085649640","service_hours":"Mo-Fr 07:00 - 17:00","utc_offset":"-600","gplace_id":null,"gplace_url":"https://maps.google.com/?cid=16788610432229727214","dealerID":74565,"trusted":false,"image_id":"v1597283975/chrysler_RM.png","phone":"8085649316","cityStateSlug":"pearl-city.hi","slug":"Pearl-City.HI/cutter+chrysler+dodge+jeep+ram+of+pearl+city","location":"21.3935988,-157.9711121","brandsList":["chrysler","dodge","jeep","ram"]},{"id":14368,"crm_id":67078573,"name":"Tony Honda","dealerSlug":"tony+honda","city_state_slug":"Waipahu.HI","brand":"Honda","website":"www.tonyhonda.com","address":"94-1299 Ka Uka Blvd","city":"Waipahu","state":"HI","zip":96797,"latitude":21.4276115,"longitude":-157.9973982,"phone_number_service":"8086640264","phone_number_main":"8086807100","service_hours":"Mo-Fr 07:00 - 17:00 | Sa 07:00 - 15:30","utc_offset":"-600","gplace_id":null,"gplace_url":"https://maps.google.com/?cid=1966516783590964486","dealerID":74566,"trusted":false,"image_id":"v1597284047/honda_ms.png","phone":"8086640264","cityStateSlug":"waipahu.hi","slug":"Waipahu.HI/tony+honda","location":"21.4276115,-157.9973982","brandsList":["honda"]},{"id":14375,"crm_id":67078579,"name":"Tony Volkswagen","dealerSlug":"tony+volkswagen","city_state_slug":"Waipahu.HI","brand":"Volkswagen","website":"www.tonyvolkswagen.com","address":"94-1299 Ka Uka Blvd","city":"Waipahu","state":"HI","zip":96797,"latitude":21.427438,"longitude":-157.998211,"phone_number_service":"8086640260","phone_number_main":"8086807170","service_hours":"Mo-Fr 07:00 - 17:00 | Sa 07:00 - 15:30","utc_offset":"-600","gplace_id":null,"gplace_url":"https://maps.google.com/?cid=5828975288115516534","dealerID":74567,"trusted":false,"image_id":"v1597283902/volkswagen.png","phone":"8086640260","cityStateSlug":"waipahu.hi","slug":"Waipahu.HI/tony+volkswagen","location":"21.427438,-157.998211","brandsList":["volkswagen"]},{"id":3624,"crm_id":67078582,"name":"Cutter Mazda Waipahu","dealerSlug":"cutter+mazda+waipahu","city_state_slug":"Waipahu.HI","brand":"Mazda","website":"www.cuttermazdawaipahu.com","address":"94-245 Farrington Hwy","city":"Waipahu","state":"HI","zip":96797,"latitude":21.379464,"longitude":-158.0195048,"phone_number_service":"8085649560","phone_number_main":"8085649500","service_hours":"Mo-Fr 07:00 - 16:00","utc_offset":"-600","gplace_id":null,"gplace_url":"https://maps.google.com/?cid=18112046322169371570","dealerID":74568,"trusted":false,"image_id":"v1597283937/mazda.png","phone":"8085649560","cityStateSlug":"waipahu.hi","slug":"Waipahu.HI/cutter+mazda+waipahu","location":"21.379464,-158.0195048","brandsList":["mazda"]},{"id":13064,"crm_id":67078588,"name":"Servco Lexus Honolulu","dealerSlug":"servco+lexus+honolulu","city_state_slug":"Honolulu.HI","brand":"Lexus","website":"dealers.servcolexus.com","address":"650 Kapiolani Blvd","city":"Honolulu","state":"HI","zip":96813,"latitude":21.3024847,"longitude":-157.8566988,"phone_number_service":"8772149844","phone_number_main":"8883909028","service_hours":"Mo-Fr 08:00 - 17:00","utc_offset":"-600","gplace_id":null,"gplace_url":"https://maps.google.com/?cid=9667936163653783287","dealerID":74569,"trusted":false,"image_id":"v1597284042/lexus_ms.png","phone":"8772149844","cityStateSlug":"honolulu.hi","slug":"Honolulu.HI/servco+lexus+honolulu","location":"21.3024847,-157.8566988","brandsList":["lexus"]},{"id":573,"crm_id":67078594,"name":"Audi Honolulu","dealerSlug":"audi+honolulu","city_state_slug":"Honolulu.HI","brand":"Audi","website":"www.audihonolulu.com","address":"888 Kapiolani Blvd","city":"Honolulu","state":"HI","zip":96813,"latitude":21.2996293,"longitude":-157.8528993,"phone_number_service":"8082067476","phone_number_main":"8085856600","service_hours":"Mo-Fr 08:00 - 17:00","utc_offset":"-600","gplace_id":null,"gplace_url":"https://maps.google.com/?cid=2125107721290636138","dealerID":74570,"trusted":false,"image_id":"v1597283985/audi_RM.png","phone":"8082067476","cityStateSlug":"honolulu.hi","slug":"Honolulu.HI/audi+honolulu","location":"21.2996293,-157.8528993","brandsList":["audi"]},{"id":1251,"crm_id":67078597,"name":"Bentley Honolulu","dealerSlug":"bentley+honolulu","city_state_slug":"Honolulu.HI","brand":"Bentley","website":"bentleyofhonolulu.com","address":"888 Kapiolani Blvd","city":"Honolulu","state":"HI","zip":96813,"latitude":21.299359,"longitude":-157.852662,"phone_number_service":"8084571076","phone_number_main":"8083774614","service_hours":"Mo-Fr 07:00 - 18:00","utc_offset":"-600","gplace_id":null,"gplace_url":"https://maps.google.com/?cid=6289426425124672885","dealerID":74571,"trusted":false,"image_id":"v1597283990/bentley.png","phone":"8084571076","cityStateSlug":"honolulu.hi","slug":"Honolulu.HI/bentley+honolulu","location":"21.299359,-157.852662","brandsList":["bentley"]},{"id":9749,"crm_id":67078603,"name":"Mercedes-Benz of Honolulu","dealerSlug":"mercedes+benz+of+honolulu","city_state_slug":"Honolulu.HI","brand":"Mercedes-Benz","website":"www.mercedesbenzofhonolulu.com","address":"818 Kapiolani Blvd","city":"Honolulu","state":"HI","zip":96813,"latitude":21.3003487,"longitude":-157.8531129,"phone_number_service":"8084270226","phone_number_main":"8085925600","service_hours":"Mo-Fr 07:00 - 17:00","utc_offset":"-600","gplace_id":null,"gplace_url":"https://maps.google.com/?cid=431201454023495090","dealerID":74572,"trusted":false,"image_id":"v1597283934/mercedes_RM.png","phone":"8084270226","cityStateSlug":"honolulu.hi","slug":"Honolulu.HI/mercedes+benz+of+honolulu","location":"21.3003487,-157.8531129","brandsList":["mercedes-benz"]},{"id":9336,"crm_id":67078609,"name":"Maserati of Hawaii","dealerSlug":"maserati+of+hawaii","city_state_slug":"Honolulu.HI","brand":"Maserati","website":"www.maseratiofhawaii.com","address":"888 Kapiolani Blvd","city":"Honolulu","state":"HI","zip":96813,"latitude":21.2993202,"longitude":-157.8526401,"phone_number_service":"8445514909","phone_number_main":"8085856617","service_hours":"Mo-Fr 08:00 - 17:00","utc_offset":"-600","gplace_id":null,"gplace_url":"https://maps.google.com/?cid=3391514849041081701","dealerID":74573,"trusted":false,"image_id":"v1597283940/maserati_RM.png","phone":"8445514909","cityStateSlug":"honolulu.hi","slug":"Honolulu.HI/maserati+of+hawaii","location":"21.2993202,-157.8526401","brandsList":["maserati"]},{"id":3619,"crm_id":67078612,"name":"Cutter CDJR & Fiat Honolulu","dealerSlug":"cutter+cdjr+and+fiat+honolulu","city_state_slug":"Honolulu.HI","brand":"Chrysler,Dodge,Jeep,RAM,Fiat","website":"www.cutterhonoluluchryslerjeepdodgeram.com","address":"777 Ala Moana Blvd","city":"Honolulu","state":"HI","zip":96813,"latitude":21.295433,"longitude":-157.8604765,"phone_number_service":"8085649970","phone_number_main":"8085649950","service_hours":"Mo-Fr 07:00 - 17:00","utc_offset":"-600","gplace_id":null,"gplace_url":"https://maps.google.com/?cid=14529973824988392776","dealerID":74574,"trusted":false,"image_id":"v1597283975/chrysler_RM.png","phone":"8085649970","cityStateSlug":"honolulu.hi","slug":"Honolulu.HI/cutter+cdjr+and+fiat+honolulu","location":"21.295433,-157.8604765","brandsList":["chrysler","dodge","jeep","ram","fiat"]},{"id":6915,"crm_id":67078615,"name":"INFINITI Of Honolulu","dealerSlug":"infiniti+of+honolulu","city_state_slug":"Honolulu.HI","brand":"INFINITI","website":"www.infinitiofhonolulu.com","address":"2845 Kilihau St","city":"Honolulu","state":"HI","zip":96819,"latitude":21.3356267,"longitude":-157.9007703,"phone_number_service":"8084608655","phone_number_main":"8087973054","service_hours":"Mo-Fr 07:00 - 16:00 | Sa 07:30 - 16:00","utc_offset":"-600","gplace_id":null,"gplace_url":"https://maps.google.com/?cid=8626432074814727411","dealerID":74575,"trusted":false,"image_id":"v1597283957/infiniti_RM.png","phone":"8084608655","cityStateSlug":"honolulu.hi","slug":"Honolulu.HI/infiniti+of+honolulu","location":"21.3356267,-157.9007703","brandsList":["infiniti"]},{"id":13066,"crm_id":67078618,"name":"Servco Subaru Honolulu","dealerSlug":"servco+subaru+honolulu","city_state_slug":"Honolulu.HI","brand":"Subaru","website":"www.servcosubaru.com","address":"2850 Pukoloa Street Suite 101","city":"Honolulu","state":"HI","zip":96819,"latitude":21.3444156,"longitude":-157.8967013,"phone_number_service":"8772150338","phone_number_main":"8086877610","service_hours":"","utc_offset":"-600","gplace_id":null,"gplace_url":"https://maps.google.com/?cid=5072280970874489135","dealerID":74576,"trusted":false,"image_id":"v1597283982/subaru_ms.png","phone":"8772150338","cityStateSlug":"honolulu.hi","slug":"Honolulu.HI/servco+subaru+honolulu","location":"21.3444156,-157.8967013","brandsList":["subaru"]},{"id":1396,"crm_id":71558257,"name":"Big Island Motors","dealerSlug":"big+island+motors","city_state_slug":"Kailua-Kona.HI","brand":"Hyundai,Subaru","website":"www.bigislandmotors.com","address":"75-5793 Kuakini Hwy","city":"Kailua-Kona","state":"HI","zip":96740,"latitude":19.6361195,"longitude":-155.9885524,"phone_number_service":"8083294141","phone_number_main":"","service_hours":"Mo-Fr 07:30-17:00","utc_offset":"-600","gplace_id":null,"gplace_url":"https://maps.google.com/?cid=11847586669819903120","dealerID":75034,"trusted":false,"image_id":"v1597283959/hyundai_RM.png","phone":"8083294141","cityStateSlug":"kailua-kona.hi","slug":"Kailua-Kona.HI/big+island+motors","location":"19.6361195,-155.9885524","brandsList":["hyundai","subaru"]},{"id":10625,"crm_id":90216913,"name":"New City Nissan","dealerSlug":"new+city+nissan","city_state_slug":"Honolulu.HI","brand":"Nissan","website":"www.newcitynissan.com","address":"2295 N King St","city":"Honolulu","state":"HI","zip":96819,"latitude":21.335147,"longitude":-157.8822394,"phone_number_service":"8558910851","phone_number_main":"8085249111","service_hours":"Mo-Fr 07:00 - 17:00 | Sa 07:00 - 16:00","utc_offset":"-600","gplace_id":null,"gplace_url":"https://maps.google.com/?cid=17950337341949484630","dealerID":75729,"trusted":false,"image_id":"v1597283926/nissan_RM.png","phone":"8558910851","cityStateSlug":"honolulu.hi","slug":"Honolulu.HI/new+city+nissan","location":"21.335147,-157.8822394","brandsList":["nissan"]},{"id":1679,"crm_id":111070087,"name":"BMW of Hawaii","dealerSlug":"bmw+of+hawaii","city_state_slug":"Kailua-Kona.HI","brand":"BMW","website":"www.bmwbigisland.com","address":"74-5533 Loloku St","city":"Kailua-Kona","state":"HI","zip":96740,"latitude":19.6441667,"longitude":-156.0027778,"phone_number_service":"8663439269","phone_number_main":"8089303400","service_hours":"Mo-Sa 08:00 - 17:00","utc_offset":"-600","gplace_id":null,"gplace_url":"https://maps.google.com/?cid=9205687622941501365","dealerID":76776,"trusted":false,"image_id":"v1597283982/bmw_RM.png","phone":"8663439269","cityStateSlug":"kailua-kona.hi","slug":"Kailua-Kona.HI/bmw+of+hawaii","location":"19.6441667,-156.0027778","brandsList":["bmw"]},{"id":1697,"crm_id":111070126,"name":"BMW of Maui","dealerSlug":"bmw+of+maui","city_state_slug":"Kahului.HI","brand":"BMW","website":"www.bmwofmaui.com","address":"151 Ala'ihi St","city":"Kahului","state":"HI","zip":96732,"latitude":20.878725,"longitude":-156.4500427,"phone_number_service":"8883237818","phone_number_main":"8088774269","service_hours":"Mo-Fr 07:00 - 18:00","utc_offset":"-600","gplace_id":null,"gplace_url":"https://maps.google.com/?cid=14655937789403768732","dealerID":76777,"trusted":false,"image_id":"v1597283982/bmw_RM.png","phone":"8883237818","cityStateSlug":"kahului.hi","slug":"Kahului.HI/bmw+of+maui","location":"20.878725,-156.4500427","brandsList":["bmw"]},{"id":10148,"crm_id":114996030,"name":"MINI of Hawaii","dealerSlug":"mini+of+hawaii","city_state_slug":"Honolulu.HI","brand":"MINI","website":"www.miniofhawaii.com","address":"800 Ala Moana Blvd","city":"Honolulu","state":"HI","zip":96813,"latitude":21.296235,"longitude":-157.859345,"phone_number_service":"8887990596","phone_number_main":"8085938699","service_hours":"Mo-Fr 06:30 - 17:30 | Sa 06:30 - 17:30","utc_offset":"-600","gplace_id":null,"gplace_url":"https://maps.google.com/?cid=8261948078158837525","dealerID":76963,"trusted":false,"image_id":"v1597283930/mini_RM.png","phone":"8887990596","cityStateSlug":"honolulu.hi","slug":"Honolulu.HI/mini+of+hawaii","location":"21.296235,-157.859345","brandsList":["mini"]},{"id":7469,"crm_id":115425829,"name":"JN Hyundai Honolulu","dealerSlug":"jn+hyundai+honolulu","city_state_slug":"Honolulu.HI","brand":"Hyundai","website":"www.jnhyundai.com","address":"2770 Waiwai Loop","city":"Honolulu","state":"HI","zip":96819,"latitude":21.3343405,"longitude":-157.9002136,"phone_number_service":"8084267760","phone_number_main":"8084413000","service_hours":"Mo-Fr 08:00 - 17:00","utc_offset":"-600","gplace_id":null,"gplace_url":"https://maps.google.com/?cid=13279323644310161118","dealerID":77028,"trusted":false,"image_id":"v1597283959/hyundai_RM.png","phone":"8084267760","cityStateSlug":"honolulu.hi","slug":"Honolulu.HI/jn+hyundai+honolulu","location":"21.3343405,-157.9002136","brandsList":["hyundai"]},{"id":8109,"crm_id":115426577,"name":"Kuhio Hyundai","dealerSlug":"kuhio+hyundai","city_state_slug":"Lihue.HI","brand":"Hyundai","website":"www.kuhiohyundai.com","address":"3033 Aukele St","city":"Lihue","state":"HI","zip":96766,"latitude":21.9676426,"longitude":-159.3571799,"phone_number_service":"8084652617","phone_number_main":"8082456731","service_hours":"Mo-Fr 07:30 - 17:00","utc_offset":"-600","gplace_id":null,"gplace_url":"https://maps.google.com/?cid=13735098463688325638","dealerID":77031,"trusted":false,"image_id":"v1597283959/hyundai_RM.png","phone":"8084652617","cityStateSlug":"lihue.hi","slug":"Lihue.HI/kuhio+hyundai","location":"21.9676426,-159.3571799","brandsList":["hyundai"]}]