[{"id":15979,"crm_id":999,"name":"Billion Toyota of Clinton","dealerSlug":"billion+toyota+of+clinton","city_state_slug":"Clinton.IA","brand":"Toyota","website":"www.clintontoyota.com","address":"2435 Lincolnway","city":"Clinton","state":"IA","zip":52732,"latitude":41.815294,"longitude":-90.24429,"phone_number_service":"2038775141","phone_number_main":"","service_hours":"","utc_offset":"","gplace_id":0,"gplace_url":"","dealerID":60045,"trusted":false,"image_id":"v1597284039/toyota_ms.png","phone":"2038775141","cityStateSlug":"clinton.ia","slug":"Clinton.IA/billion+toyota+of+clinton","location":"41.815294,-90.24429","brandsList":["toyota"]},{"id":16086,"crm_id":999,"name":"C & S Subaru","dealerSlug":"c+and+s+subaru","city_state_slug":"Waterloo.IA","brand":"Subaru","website":"CSSubaruWaterloo.dealer.subaru.com","address":"812 Washington St","city":"Waterloo","state":"IA","zip":50702,"latitude":42.490553,"longitude":-92.340313,"phone_number_service":"3158581350","phone_number_main":"","service_hours":"","utc_offset":"","gplace_id":0,"gplace_url":"","dealerID":60108,"trusted":false,"image_id":"v1597283982/subaru_ms.png","phone":"3158581350","cityStateSlug":"waterloo.ia","slug":"Waterloo.IA/c+and+s+subaru","location":"42.490553,-92.340313","brandsList":["subaru"]},{"id":17536,"crm_id":999,"name":"Smart Toyota of Quad Cities","dealerSlug":"smart+toyota+of+quad+cities","city_state_slug":"Davenport.IA","brand":"Toyota","website":"www.smarttoyotaqc.com","address":"1501 E. 53rd Street","city":"Davenport","state":"IA","zip":52807,"latitude":41.574268000000004,"longitude":-90.552525,"phone_number_service":"5122193634","phone_number_main":"5633914106","service_hours":"Mo 08:30 - 20:00 | Tu-We 08:30 - 18:00 | Th 08:30 - 20:00 | Fr-Sa 08:30 - 18:00","utc_offset":"","gplace_id":0,"gplace_url":"","dealerID":60152,"trusted":false,"image_id":"v1597284039/toyota_ms.png","phone":"5122193634","cityStateSlug":"davenport.ia","slug":"Davenport.IA/smart+toyota+of+quad+cities","location":"41.574268000000004,-90.552525","brandsList":["toyota"]},{"id":17430,"crm_id":999,"name":"Ron Drenkow Ford","dealerSlug":"ron+drenkow+ford","city_state_slug":"Sheldon.IA","brand":"Ford","website":"www.rondrenkowmotorsinc.com","address":"2604 E. Park Street","city":"Sheldon","state":"IA","zip":51201,"latitude":43.18588,"longitude":-95.819535,"phone_number_service":"7123245624","phone_number_main":"","service_hours":"Mo 07:30 - 20:00 | Tu-We 07:30 - 17:30 | Th 07:30 - 20:00 | Fr 07:30 - 17:30 | Sa 07:30 - 15:00 | Su Closed","utc_offset":"","gplace_id":0,"gplace_url":"","dealerID":60222,"trusted":false,"image_id":"v1597283967/ford_RM.png","phone":"7123245624","cityStateSlug":"sheldon.ia","slug":"Sheldon.IA/ron+drenkow+ford","location":"43.18588,-95.819535","brandsList":["ford"]},{"id":17429,"crm_id":999,"name":"Ron Drenkow CDJR","dealerSlug":"ron+drenkow+cdjr","city_state_slug":"Sheldon.IA","brand":"Chrysler,Dodge,Jeep,RAM","website":"www.rondrenkowmotors.net","address":"2604 East Park Street","city":"Sheldon","state":"IA","zip":51201,"latitude":43.185371,"longitude":-95.82011,"phone_number_service":"7123245624","phone_number_main":"","service_hours":"Mo 08:00 - 18:00 | Tu-Fr 08:00 - 17:30 | Sa 08:00 - 13:00 | Su Closed","utc_offset":"","gplace_id":0,"gplace_url":"","dealerID":60223,"trusted":false,"image_id":"v1597283975/chrysler_RM.png","phone":"7123245624","cityStateSlug":"sheldon.ia","slug":"Sheldon.IA/ron+drenkow+cdjr","location":"43.185371,-95.82011","brandsList":["chrysler","dodge","jeep","ram"]},{"id":17128,"crm_id":999,"name":"Motor Inn of Spirit Lake","dealerSlug":"motor+inn+of+spirit+lake","city_state_slug":"Spirit-Lake.IA","brand":"Ford","website":"www.motorinnspiritlake.com","address":"2702 17th St","city":"Spirit Lake","state":"IA","zip":51360,"latitude":43.422747,"longitude":-95.129132,"phone_number_service":"7123362701","phone_number_main":"","service_hours":"Mo 08:00 - 20:00 | Tu-Fr 08:00 - 18:00 | Sa 08:00 - 17:00 | Su Closed","utc_offset":"","gplace_id":0,"gplace_url":"","dealerID":60224,"trusted":false,"image_id":"v1597283967/ford_RM.png","phone":"7123362701","cityStateSlug":"spirit-lake.ia","slug":"Spirit-Lake.IA/motor+inn+of+spirit+lake","location":"43.422747,-95.129132","brandsList":["ford"]},{"id":17127,"crm_id":999,"name":"Motor Inn of Spirit Lake","dealerSlug":"motor+inn+of+spirit+lake","city_state_slug":"Spirit-Lake.IA","brand":"Chrysler,Dodge,Jeep,RAM","website":"www.motorinnofspiritlake.net","address":"2702 17th Street","city":"Spirit Lake","state":"IA","zip":51360,"latitude":43.42281,"longitude":-95.129136,"phone_number_service":"7123362701","phone_number_main":"","service_hours":"Mo 08:00 - 20:00 | Tu-Fr 08:00 - 18:00 | Sa 08:00 - 17:00 | Su Closed","utc_offset":"","gplace_id":0,"gplace_url":"","dealerID":60225,"trusted":false,"image_id":"v1597283975/chrysler_RM.png","phone":"7123362701","cityStateSlug":"spirit-lake.ia","slug":"Spirit-Lake.IA/motor+inn+of+spirit+lake","location":"43.42281,-95.129136","brandsList":["chrysler","dodge","jeep","ram"]},{"id":17002,"crm_id":999,"name":"McGrath Volkswagen of Dubuque","dealerSlug":"mcgrath+volkswagen+of+dubuque","city_state_slug":"Dubuque.IA","brand":"Volkswagen","website":"www.mcgrathvwofdubuque.com","address":"2075 Holliday Dr","city":"Dubuque","state":"IA","zip":52002,"latitude":42.5114,"longitude":-90.7434,"phone_number_service":"7156695517","phone_number_main":"","service_hours":"Mo 09:00 - 20:00 | Tu-We 09:00 - 18:00 | Th 09:00 - 20:00 | Fr 09:00 - 18:00 | Sa 09:00 - 17:00 | Su Closed","utc_offset":"","gplace_id":0,"gplace_url":"","dealerID":60234,"trusted":false,"image_id":"v1597283902/volkswagen.png","phone":"7156695517","cityStateSlug":"dubuque.ia","slug":"Dubuque.IA/mcgrath+volkswagen+of+dubuque","location":"42.5114,-90.7434","brandsList":["volkswagen"]},{"id":17534,"crm_id":999,"name":"Smart Hyundai Of Davenport","dealerSlug":"smart+hyundai+of+davenport","city_state_slug":"Davenport.IA","brand":"Hyundai","website":"www.lujackhyundai.com","address":"101 W. 37Th Street","city":"Davenport","state":"IA","zip":52806,"latitude":41.5575437,"longitude":-90.5756591,"phone_number_service":"5633861511","phone_number_main":"","service_hours":"Mo-Fr 07:00 - 18:00 | Sa 07:30 - 13:00","utc_offset":"","gplace_id":0,"gplace_url":"","dealerID":60419,"trusted":false,"image_id":"v1597283959/hyundai_RM.png","phone":"5633861511","cityStateSlug":"davenport.ia","slug":"Davenport.IA/smart+hyundai+of+davenport","location":"41.5575437,-90.5756591","brandsList":["hyundai"]},{"id":16357,"crm_id":999,"name":"Edwards Chrysler Dodge Jeep RAM FIAT","dealerSlug":"edwards+chrysler+dodge+jeep+ram+fiat","city_state_slug":"Council-Bluffs.IA","brand":"Chrysler,Dodge,Jeep,RAM,Fiat","website":"www.edwardschryslerdodgejeepram.com","address":"1010 34th Ave","city":"Council Bluffs","state":"IA","zip":51501,"latitude":41.225618,"longitude":-95.858167,"phone_number_service":"7122569204","phone_number_main":"","service_hours":"Mo-Fr 08:30 - 20:00 | Sa 08:30 - 19:00 | Su Closed","utc_offset":"","gplace_id":0,"gplace_url":"","dealerID":60420,"trusted":false,"image_id":"v1597283975/chrysler_RM.png","phone":"7122569204","cityStateSlug":"council-bluffs.ia","slug":"Council-Bluffs.IA/edwards+chrysler+dodge+jeep+ram+fiat","location":"41.225618,-95.858167","brandsList":["chrysler","dodge","jeep","ram","fiat"]},{"id":16315,"crm_id":999,"name":"Don's Truck Sales","dealerSlug":"dons+truck+sales","city_state_slug":"Fairbank.IA","brand":"Ford","website":"","address":"102 1st Street South","city":"Fairbank","state":"IA","zip":50629,"latitude":42.639318,"longitude":-92.051244,"phone_number_service":"3196352751","phone_number_main":"","service_hours":"Mo-Fr 07:30 - 17:00 | Sa 07:30 - 12:00 | Su Closed","utc_offset":"","gplace_id":0,"gplace_url":"","dealerID":60429,"trusted":false,"image_id":"v1597283967/ford_RM.png","phone":"3196352751","cityStateSlug":"fairbank.ia","slug":"Fairbank.IA/dons+truck+sales","location":"42.639318,-92.051244","brandsList":["ford"]},{"id":16453,"crm_id":999,"name":"Freese Motors","dealerSlug":"freese+motors","city_state_slug":"Monticello.IA","brand":"Ford","website":"www.freesemotors.com","address":"102 W 2nd St","city":"Monticello","state":"IA","zip":52310,"latitude":42.239341,"longitude":-91.189885,"phone_number_service":"3194653541","phone_number_main":"","service_hours":"Mo-Fr 07:30 - 17:00 | Sa 07:30 - 12:00 | Su Closed","utc_offset":"","gplace_id":0,"gplace_url":"","dealerID":60433,"trusted":false,"image_id":"v1597283967/ford_RM.png","phone":"3194653541","cityStateSlug":"monticello.ia","slug":"Monticello.IA/freese+motors","location":"42.239341,-91.189885","brandsList":["ford"]},{"id":16120,"crm_id":999,"name":"Champion Ford","dealerSlug":"champion+ford","city_state_slug":"Carroll.IA","brand":"Ford","website":"www.championfordofcarroll.com","address":"1114 US Hwy 30 W","city":"Carroll","state":"IA","zip":28379,"latitude":42.074985,"longitude":-94.880408,"phone_number_service":"7127921505","phone_number_main":"","service_hours":"Mo 08:00 - 20:00 | Tu-We 08:00 - 17:30 | Th 08:00 - 20:00 | Fr 08:00 - 17:30 | Sa 08:00 - 15:00 | Su Closed","utc_offset":"","gplace_id":0,"gplace_url":"","dealerID":60501,"trusted":false,"image_id":"v1597283967/ford_RM.png","phone":"7127921505","cityStateSlug":"carroll.ia","slug":"Carroll.IA/champion+ford","location":"42.074985,-94.880408","brandsList":["ford"]},{"id":16043,"crm_id":999,"name":"Brad Deery Motors","dealerSlug":"brad+deery+motors","city_state_slug":"Maquoketa.IA","brand":"Chrysler,Dodge,Jeep,RAM","website":"www.braddeerymotors.net","address":"112 North Second Street","city":"Maquoketa","state":"IA","zip":52060,"latitude":42.069858,"longitude":-90.667083,"phone_number_service":"5636524900","phone_number_main":"","service_hours":"Mo-Tu 08:30 - 20:00 | We 08:30 - 18:00 | Th-Fr 08:30 - 20:00 | Sa 08:30 - 17:00 | Su Closed","utc_offset":"","gplace_id":0,"gplace_url":"","dealerID":60503,"trusted":false,"image_id":"v1597283975/chrysler_RM.png","phone":"5636524900","cityStateSlug":"maquoketa.ia","slug":"Maquoketa.IA/brad+deery+motors","location":"42.069858,-90.667083","brandsList":["chrysler","dodge","jeep","ram"]},{"id":17859,"crm_id":999,"name":"Wilbur Ford Sales","dealerSlug":"wilbur+ford+sales","city_state_slug":"West-Union.IA","brand":"Ford","website":"","address":"112 West Elm Street","city":"West Union","state":"IA","zip":52175,"latitude":42.961367,"longitude":-91.809053,"phone_number_service":"5634223881","phone_number_main":"","service_hours":"","utc_offset":"","gplace_id":0,"gplace_url":"","dealerID":60504,"trusted":false,"image_id":"v1597283967/ford_RM.png","phone":"5634223881","cityStateSlug":"west-union.ia","slug":"West-Union.IA/wilbur+ford+sales","location":"42.961367,-91.809053","brandsList":["ford"]},{"id":16015,"crm_id":999,"name":"Bob Boland Ford","dealerSlug":"bob+boland+ford","city_state_slug":"Bancroft.IA","brand":"Ford","website":"www.bobbolandford.com","address":"115 W. Ramsey","city":"Bancroft","state":"IA","zip":50517,"latitude":43.293015,"longitude":-94.218902,"phone_number_service":"5157651212","phone_number_main":"","service_hours":"Mo-Fr 08:00 - 17:30 | Sa 08:00 - 12:00 | Su Closed","utc_offset":"","gplace_id":0,"gplace_url":"","dealerID":60523,"trusted":false,"image_id":"v1597283967/ford_RM.png","phone":"5157651212","cityStateSlug":"bancroft.ia","slug":"Bancroft.IA/bob+boland+ford","location":"43.293015,-94.218902","brandsList":["ford"]},{"id":16630,"crm_id":999,"name":"Holzhauer Motors Ltd.","dealerSlug":"holzhauer+motors+ltd","city_state_slug":"Cherokee.IA","brand":"Chrysler,Dodge,Jeep,RAM","website":"www.holzhauermotors.net","address":"1200 S 2nd St","city":"Cherokee","state":"IA","zip":51012,"latitude":42.734379,"longitude":-95.551657,"phone_number_service":"7122251200","phone_number_main":"","service_hours":"Mo-Fr 08:00 - 18:00 | Sa 08:00 - 16:00 | Su Closed","utc_offset":"","gplace_id":0,"gplace_url":"","dealerID":60546,"trusted":false,"image_id":"v1597283975/chrysler_RM.png","phone":"7122251200","cityStateSlug":"cherokee.ia","slug":"Cherokee.IA/holzhauer+motors+ltd","location":"42.734379,-95.551657","brandsList":["chrysler","dodge","jeep","ram"]},{"id":16358,"crm_id":999,"name":"Edwards Chrysler Dodge Jeep RAM of Storm Lake","dealerSlug":"edwards+chrysler+dodge+jeep+ram+of+storm+lake","city_state_slug":"Storm-Lake.IA","brand":"Chrysler,Dodge,Jeep,RAM","website":"www.edwardscdjrofstormlake.com","address":"1301 Lake Ave","city":"Storm Lake","state":"IA","zip":50588,"latitude":42.654637,"longitude":-95.200647,"phone_number_service":"7127322474","phone_number_main":"","service_hours":"Mo-Th 08:00 - 19:00 | Fr 08:00 - 18:00 | Sa 08:00 - 16:00 | Su Closed","utc_offset":"","gplace_id":0,"gplace_url":"","dealerID":60594,"trusted":false,"image_id":"v1597283975/chrysler_RM.png","phone":"7127322474","cityStateSlug":"storm-lake.ia","slug":"Storm-Lake.IA/edwards+chrysler+dodge+jeep+ram+of+storm+lake","location":"42.654637,-95.200647","brandsList":["chrysler","dodge","jeep","ram"]},{"id":16145,"crm_id":999,"name":"Chrysler of Forest City","dealerSlug":"chrysler+of+forest+city","city_state_slug":"Forest-City.IA","brand":"Chrysler,Dodge,Jeep,RAM","website":"www.chryslerofforestcity.com","address":"1445 Highway 69 South","city":"Forest City","state":"IA","zip":50436,"latitude":43.276818,"longitude":-93.636543,"phone_number_service":"6415854040","phone_number_main":"","service_hours":"Mo-Fr 08:00 - 17:30 | Sa 08:00 - 24:00 | Su Closed","utc_offset":"","gplace_id":0,"gplace_url":"","dealerID":60644,"trusted":false,"image_id":"v1597283975/chrysler_RM.png","phone":"6415854040","cityStateSlug":"forest-city.ia","slug":"Forest-City.IA/chrysler+of+forest+city","location":"43.276818,-93.636543","brandsList":["chrysler","dodge","jeep","ram"]},{"id":16629,"crm_id":999,"name":"Holzhauer Ford Cherokee","dealerSlug":"holzhauer+ford+cherokee","city_state_slug":"Cherokee.IA","brand":"Ford","website":"www.holzhauerfordcherokee.com","address":"1600 North 2nd Street","city":"Cherokee","state":"IA","zip":51012,"latitude":42.76877,"longitude":-95.553052,"phone_number_service":"7212256454","phone_number_main":"","service_hours":"Mo-Fr 08:00 - 18:00 | Sa 08:00 - 14:00 | Su Closed","utc_offset":"","gplace_id":0,"gplace_url":"","dealerID":60701,"trusted":false,"image_id":"v1597283967/ford_RM.png","phone":"7212256454","cityStateSlug":"cherokee.ia","slug":"Cherokee.IA/holzhauer+ford+cherokee","location":"42.76877,-95.553052","brandsList":["ford"]},{"id":16273,"crm_id":999,"name":"Deery Brothers of Ames","dealerSlug":"deery+brothers+of+ames","city_state_slug":"Ames.IA","brand":"Chrysler,Dodge,Jeep,RAM","website":"www.deeryames.com","address":"1700 SE 16th Street","city":"Ames","state":"IA","zip":50010,"latitude":42.007206,"longitude":-93.590767,"phone_number_service":"5152335000","phone_number_main":"","service_hours":"Mo 08:30 - 19:00 | Tu 08:30 - 18:00 | We-Th 08:30 - 19:00 | Fr 08:30 - 18:00 | Sa 08:30 - 17:00 | Su Closed","utc_offset":"","gplace_id":0,"gplace_url":"","dealerID":60731,"trusted":false,"image_id":"v1597283975/chrysler_RM.png","phone":"5152335000","cityStateSlug":"ames.ia","slug":"Ames.IA/deery+brothers+of+ames","location":"42.007206,-93.590767","brandsList":["chrysler","dodge","jeep","ram"]},{"id":17657,"crm_id":999,"name":"Team Chrysler Dodge Jeep RAM","dealerSlug":"team+chrysler+dodge+jeep+ram","city_state_slug":"Denison.IA","brand":"Chrysler,Dodge,Jeep,RAM","website":"www.teamchryslerdodgejeepram.com","address":"1813 4th Ave S","city":"Denison","state":"IA","zip":51442,"latitude":42.012285,"longitude":-95.345891,"phone_number_service":"7123933000","phone_number_main":"","service_hours":"Mo-We 08:00 - 17:30 | Th 08:00 - 19:00 | Fr 08:00 - 17:30 | Sa 08:00 - 15:00 | Su Closed","utc_offset":"","gplace_id":0,"gplace_url":"","dealerID":60769,"trusted":false,"image_id":"v1597283975/chrysler_RM.png","phone":"7123933000","cityStateSlug":"denison.ia","slug":"Denison.IA/team+chrysler+dodge+jeep+ram","location":"42.012285,-95.345891","brandsList":["chrysler","dodge","jeep","ram"]},{"id":16271,"crm_id":999,"name":"Decorah Chrysler Dodge Jeep RAM","dealerSlug":"decorah+chrysler+dodge+jeep+ram","city_state_slug":"Decorah.IA","brand":"Chrysler,Dodge,Jeep,RAM","website":"www.decorahcdjr.com","address":"1815 State Highway 9 East","city":"Decorah","state":"IA","zip":52101,"latitude":43.288371,"longitude":-91.757008,"phone_number_service":"5633823591","phone_number_main":"","service_hours":"Mo-Fr 08:00 - 17:30 | Sa 08:00 - 15:00 | Su Closed","utc_offset":"","gplace_id":0,"gplace_url":"","dealerID":60770,"trusted":false,"image_id":"v1597283975/chrysler_RM.png","phone":"5633823591","cityStateSlug":"decorah.ia","slug":"Decorah.IA/decorah+chrysler+dodge+jeep+ram","location":"43.288371,-91.757008","brandsList":["chrysler","dodge","jeep","ram"]},{"id":17754,"crm_id":999,"name":"Union Auto","dealerSlug":"union+auto","city_state_slug":"Union.IA","brand":"Ford","website":"www.unionautoford.com","address":"201 Center","city":"Union","state":"IA","zip":50258,"latitude":42.245194,"longitude":-93.061924,"phone_number_service":"6414862358","phone_number_main":"","service_hours":"Mo-Fr 08:00 - 17:00 | Sa 08:00 - 12:00 | Su Closed","utc_offset":"","gplace_id":0,"gplace_url":"","dealerID":60823,"trusted":false,"image_id":"v1597283967/ford_RM.png","phone":"6414862358","cityStateSlug":"union.ia","slug":"Union.IA/union+auto","location":"42.245194,-93.061924","brandsList":["ford"]},{"id":16065,"crm_id":999,"name":"Browns West Branch","dealerSlug":"browns+west+branch","city_state_slug":"West-Branch.IA","brand":"Chrysler,Dodge,Jeep,RAM","website":"www.brownswb.com/","address":"205 Tidewater Dr","city":"West Branch","state":"IA","zip":52358,"latitude":41.661945,"longitude":-91.343695,"phone_number_service":"3196434220","phone_number_main":"","service_hours":"Mo 07:30 - 20:00 | Tu-We 07:30 - 17:30 | Th 07:30 - 20:00 | Fr 07:30 - 17:30 | Sa 07:30 - 15:00 | Su Closed","utc_offset":"","gplace_id":0,"gplace_url":"","dealerID":60848,"trusted":false,"image_id":"v1597283975/chrysler_RM.png","phone":"3196434220","cityStateSlug":"west-branch.ia","slug":"West-Branch.IA/browns+west+branch","location":"41.661945,-91.343695","brandsList":["chrysler","dodge","jeep","ram"]},{"id":17001,"crm_id":999,"name":"Mcgrath Hyundai Of Dubuque","dealerSlug":"mcgrath+hyundai+of+dubuque","city_state_slug":"Dubuque.IA","brand":"Hyundai","website":"www.mcgrathhyundaiofdubuque.com","address":"2075 Holliday Drive","city":"Dubuque","state":"IA","zip":52002,"latitude":42.5118962,"longitude":-90.7435409,"phone_number_service":"5635874300","phone_number_main":"","service_hours":"","utc_offset":"","gplace_id":0,"gplace_url":"","dealerID":60853,"trusted":false,"image_id":"v1597283959/hyundai_RM.png","phone":"5635874300","cityStateSlug":"dubuque.ia","slug":"Dubuque.IA/mcgrath+hyundai+of+dubuque","location":"42.5118962,-90.7435409","brandsList":["hyundai"]},{"id":17685,"crm_id":999,"name":"Thys Motor Company","dealerSlug":"thys+motor+company","city_state_slug":"Belle-Plaine.IA","brand":"Chrysler,Dodge,Jeep,RAM","website":"www.thysmotorco.com","address":"210 7th Ave","city":"Belle Plaine","state":"IA","zip":52208,"latitude":41.88544,"longitude":-92.278186,"phone_number_service":"3194442163","phone_number_main":"","service_hours":"Mo-Th 08:00 - 18:00 | Fr 08:00 - 17:00 | Sa 08:00 - 24:00 | Su Closed","utc_offset":"","gplace_id":0,"gplace_url":"","dealerID":60859,"trusted":false,"image_id":"v1597283975/chrysler_RM.png","phone":"3194442163","cityStateSlug":"belle-plaine.ia","slug":"Belle-Plaine.IA/thys+motor+company","location":"41.88544,-92.278186","brandsList":["chrysler","dodge","jeep","ram"]},{"id":17881,"crm_id":999,"name":"Woodhouse Chrysler Dodge Jeep RAM And FIAT of Sioux City","dealerSlug":"woodhouse+chrysler+dodge+jeep+ram+and+fiat+of+sioux+city","city_state_slug":"Sioux-City.IA","brand":"Chrysler,Dodge,Jeep,RAM,Fiat","website":"www.woodhousechryslerdodgejeepram.com","address":"2101 E. Sixth St.","city":"Sioux City","state":"IA","zip":51101,"latitude":42.494745,"longitude":-96.399356,"phone_number_service":"7122773221","phone_number_main":"","service_hours":"Mo-Tu 08:00 - 20:00 | We 08:00 - 18:00 | Th 08:00 - 20:00 | Fr 08:00 - 18:00 | Sa 08:00 - 17:00 | Su Closed","utc_offset":"","gplace_id":0,"gplace_url":"","dealerID":60867,"trusted":false,"image_id":"v1597283975/chrysler_RM.png","phone":"7122773221","cityStateSlug":"sioux-city.ia","slug":"Sioux-City.IA/woodhouse+chrysler+dodge+jeep+ram+and+fiat+of+sioux+city","location":"42.494745,-96.399356","brandsList":["chrysler","dodge","jeep","ram","fiat"]},{"id":15849,"crm_id":999,"name":"Asher Motor Company","dealerSlug":"asher+motor+company","city_state_slug":"Spencer.IA","brand":"Chrysler,Dodge,Jeep,RAM","website":"www.ashermotor.net","address":"228 11th Street Southeast Plaza","city":"Spencer","state":"IA","zip":51301,"latitude":43.126012,"longitude":-95.14117,"phone_number_service":"7122625730","phone_number_main":"","service_hours":"Mo-Fr 08:00 - 17:00 | Sa 08:00 - 24:00 | Su Closed","utc_offset":"","gplace_id":0,"gplace_url":"","dealerID":60923,"trusted":false,"image_id":"v1597283975/chrysler_RM.png","phone":"7122625730","cityStateSlug":"spencer.ia","slug":"Spencer.IA/asher+motor+company","location":"43.126012,-95.14117","brandsList":["chrysler","dodge","jeep","ram"]},{"id":16836,"crm_id":999,"name":"Krueger Auto-Truck Villa","dealerSlug":"krueger+auto+truck+villa","city_state_slug":"Waverly.IA","brand":"Chrysler,Dodge,Jeep,RAM","website":"www.kruegerautotruckvilla.com","address":"2320 5th Ave NW","city":"Waverly","state":"IA","zip":50677,"latitude":42.730335,"longitude":-92.500853,"phone_number_service":"3193529000","phone_number_main":"","service_hours":"Mo 08:00 - 20:00 | Tu-We 08:00 - 18:00 | Th 08:00 - 20:00 | Fr 08:00 - 18:00 | Sa 08:00 - 16:00 | Su Closed","utc_offset":"","gplace_id":0,"gplace_url":"","dealerID":60939,"trusted":false,"image_id":"v1597283975/chrysler_RM.png","phone":"3193529000","cityStateSlug":"waverly.ia","slug":"Waverly.IA/krueger+auto+truck+villa","location":"42.730335,-92.500853","brandsList":["chrysler","dodge","jeep","ram"]},{"id":15977,"crm_id":999,"name":"Billion Honda","dealerSlug":"billion+honda","city_state_slug":"Iowa-City.IA","brand":"Honda","website":"www.billionhonda.com/","address":"2641 Mormon Trek Blvd","city":"Iowa City","state":"IA","zip":52240,"latitude":41.634865,"longitude":-91.564552,"phone_number_service":"3193376100","phone_number_main":"","service_hours":"","utc_offset":"","gplace_id":0,"gplace_url":"","dealerID":61009,"trusted":false,"image_id":"v1597284047/honda_ms.png","phone":"3193376100","cityStateSlug":"iowa-city.ia","slug":"Iowa-City.IA/billion+honda","location":"41.634865,-91.564552","brandsList":["honda"]},{"id":16745,"crm_id":999,"name":"Jensen Ford Lincoln","dealerSlug":"jensen+ford+lincoln","city_state_slug":"Marshalltown.IA","brand":"Ford","website":"www.jenfordlincoln.com","address":"2805 South Center St","city":"Marshalltown","state":"IA","zip":50158,"latitude":42.0123,"longitude":-92.912761,"phone_number_service":"6417535501","phone_number_main":"","service_hours":"Mo 08:00 - 20:00 | Tu-Fr 08:00 - 17:30 | Sa 08:00 - 15:30 | Su Closed","utc_offset":"","gplace_id":0,"gplace_url":"","dealerID":61033,"trusted":false,"image_id":"v1597283967/ford_RM.png","phone":"6417535501","cityStateSlug":"marshalltown.ia","slug":"Marshalltown.IA/jensen+ford+lincoln","location":"42.0123,-92.912761","brandsList":["ford"]},{"id":15976,"crm_id":999,"name":"Billion Ford","dealerSlug":"billion+ford","city_state_slug":"Clear-Lake.IA","brand":"Ford","website":"www.billionfordclearlake.com","address":"3101 Willow Creek Court","city":"Clear Lake","state":"IA","zip":50428,"latitude":43.146623,"longitude":-93.350114,"phone_number_service":"6413232728","phone_number_main":"","service_hours":"Mo-Th 08:00 - 19:00 | Fr 08:00 - 18:00 | Sa 08:30 - 17:00 | Su Closed","utc_offset":"","gplace_id":0,"gplace_url":"","dealerID":61114,"trusted":false,"image_id":"v1597283967/ford_RM.png","phone":"6413232728","cityStateSlug":"clear-lake.ia","slug":"Clear-Lake.IA/billion+ford","location":"43.146623,-93.350114","brandsList":["ford"]},{"id":16210,"crm_id":999,"name":"Courtesy Ford Trucks","dealerSlug":"courtesy+ford+trucks","city_state_slug":"Davenport.IA","brand":"Ford","website":"www.courtesyfordqc.com","address":"3921 West River Drive","city":"Davenport","state":"IA","zip":52802,"latitude":41.50329,"longitude":-90.637722,"phone_number_service":"5633264011","phone_number_main":"","service_hours":"Mo-Th 08:30 - 20:00 | Fr 08:30 - 18:00 | Sa 08:30 - 17:00 | Su Closed","utc_offset":"","gplace_id":0,"gplace_url":"","dealerID":61224,"trusted":false,"image_id":"v1597283967/ford_RM.png","phone":"5633264011","cityStateSlug":"davenport.ia","slug":"Davenport.IA/courtesy+ford+trucks","location":"41.50329,-90.637722","brandsList":["ford"]},{"id":16042,"crm_id":999,"name":"Brad Deery Honda","dealerSlug":"brad+deery+honda","city_state_slug":"West-Burlington.IA","brand":"Honda","website":"www.braddeeryhonda.com/","address":"501 W Agency Rd","city":"West Burlington","state":"IA","zip":52655,"latitude":40.812607,"longitude":-91.161163,"phone_number_service":"3197546000","phone_number_main":"","service_hours":"Mo-Th 08:30 - 20:00 | Fr-Sa 08:30 - 18:00 | Su Closed","utc_offset":"","gplace_id":0,"gplace_url":"","dealerID":61353,"trusted":false,"image_id":"v1597284047/honda_ms.png","phone":"3197546000","cityStateSlug":"west-burlington.ia","slug":"West-Burlington.IA/brad+deery+honda","location":"40.812607,-91.161163","brandsList":["honda"]},{"id":17833,"crm_id":999,"name":"Wayne Hall Chry-Jeep-Dodge","dealerSlug":"wayne+hall+chry+jeep+dodge","city_state_slug":"Anamosa.IA","brand":"Chrysler,Dodge,Jeep","website":"www.waynehallchryslerjeepdodge.com","address":"507 508 East Main","city":"Anamosa","state":"IA","zip":52205,"latitude":42.108191,"longitude":-91.279926,"phone_number_service":"3194624351","phone_number_main":"","service_hours":"Mo-Fr 08:00 - 18:00 | Sa 08:00 - 24:00 | Su Closed","utc_offset":"","gplace_id":0,"gplace_url":"","dealerID":61362,"trusted":false,"image_id":"v1597283975/chrysler_RM.png","phone":"3194624351","cityStateSlug":"anamosa.ia","slug":"Anamosa.IA/wayne+hall+chry+jeep+dodge","location":"42.108191,-91.279926","brandsList":["chrysler","dodge","jeep"]},{"id":16428,"crm_id":999,"name":"Forest City Ford","dealerSlug":"forest+city+ford","city_state_slug":"Forest-City.IA","brand":"Ford","website":"www.forestcityford.com","address":"745 North Highway 69","city":"Forest City","state":"IA","zip":50436,"latitude":43.269964,"longitude":-93.633294,"phone_number_service":"6415855555","phone_number_main":"","service_hours":"Mo-Fr 08:30 - 17:30 | Sa 08:30 - 12:00 | Su Closed","utc_offset":"","gplace_id":0,"gplace_url":"","dealerID":61550,"trusted":false,"image_id":"v1597283967/ford_RM.png","phone":"6415855555","cityStateSlug":"forest-city.ia","slug":"Forest-City.IA/forest+city+ford","location":"43.269964,-93.633294","brandsList":["ford"]},{"id":16235,"crm_id":999,"name":"Cs Hyundai","dealerSlug":"cs+hyundai","city_state_slug":"Waterloo.IA","brand":"Hyundai","website":"www.candshyundai.com","address":"812 Washington Street","city":"Waterloo","state":"IA","zip":50702,"latitude":42.490523,"longitude":-92.3401808,"phone_number_service":"3192917321","phone_number_main":"","service_hours":"Mo-Fr 07:30 - 17:00 | Sa 08:00 - 12:00","utc_offset":"","gplace_id":0,"gplace_url":"","dealerID":61606,"trusted":false,"image_id":"v1597283959/hyundai_RM.png","phone":"3192917321","cityStateSlug":"waterloo.ia","slug":"Waterloo.IA/cs+hyundai","location":"42.490523,-92.3401808","brandsList":["hyundai"]},{"id":17707,"crm_id":999,"name":"Torkelson-Waukon","dealerSlug":"torkelson+waukon","city_state_slug":"Waukon.IA","brand":"Chrysler,Dodge,Jeep,RAM","website":"www.torkelsonwaukon.com","address":"818 9th Street NW","city":"Waukon","state":"IA","zip":52172,"latitude":43.281409,"longitude":-91.491213,"phone_number_service":"5635684587","phone_number_main":"","service_hours":"Mo-Fr 08:00 - 17:30 | Sa 08:00 - 15:00 | Su Closed","utc_offset":"","gplace_id":0,"gplace_url":"","dealerID":61611,"trusted":false,"image_id":"v1597283975/chrysler_RM.png","phone":"5635684587","cityStateSlug":"waukon.ia","slug":"Waukon.IA/torkelson+waukon","location":"43.281409,-91.491213","brandsList":["chrysler","dodge","jeep","ram"]},{"id":16592,"crm_id":999,"name":"Herb Green Ford","dealerSlug":"herb+green+ford","city_state_slug":"Cascade.IA","brand":"Ford","website":"www.herbgreenford.com","address":"900 Johnson St. NW","city":"Cascade","state":"IA","zip":52033,"latitude":42.304174,"longitude":-91.021074,"phone_number_service":"8006693211","phone_number_main":"","service_hours":"Mo-Fr 07:30 - 17:00 | Sa 07:30 - 12:00 | Su Closed","utc_offset":"","gplace_id":0,"gplace_url":"","dealerID":61658,"trusted":false,"image_id":"v1597283967/ford_RM.png","phone":"8006693211","cityStateSlug":"cascade.ia","slug":"Cascade.IA/herb+green+ford","location":"42.304174,-91.021074","brandsList":["ford"]},{"id":16374,"crm_id":999,"name":"Emmetsburg Ford","dealerSlug":"emmetsburg+ford","city_state_slug":"Emmetsburg.IA","brand":"Ford","website":"www.emmetsburgford.net","address":"906 Grand Ave","city":"Emmetsburg","state":"IA","zip":50536,"latitude":43.111863,"longitude":-94.675982,"phone_number_service":"7128522544","phone_number_main":"","service_hours":"Mo-Fr 07:30 - 17:30 | Sa 07:30 - 12:00 | Su Closed","utc_offset":"","gplace_id":0,"gplace_url":"","dealerID":61671,"trusted":false,"image_id":"v1597283967/ford_RM.png","phone":"7128522544","cityStateSlug":"emmetsburg.ia","slug":"Emmetsburg.IA/emmetsburg+ford","location":"43.111863,-94.675982","brandsList":["ford"]},{"id":16359,"crm_id":999,"name":"Edwards Nissan","dealerSlug":"edwards+nissan","city_state_slug":"Council-Bluffs.IA","brand":"Nissan","website":"www.edwardsnissan.com","address":"920 32ND AVE","city":"Council Bluffs","state":"IA","zip":51501,"latitude":41.228257,"longitude":-95.8576,"phone_number_service":"7123669481","phone_number_main":"","service_hours":"Mo-Fr 09:00 - 20:00\n | Sa 09:00 - 19:00\n | Su Closed","utc_offset":"","gplace_id":0,"gplace_url":"","dealerID":61680,"trusted":false,"image_id":"v1597283926/nissan_RM.png","phone":"7123669481","cityStateSlug":"council-bluffs.ia","slug":"Council-Bluffs.IA/edwards+nissan","location":"41.228257,-95.8576","brandsList":["nissan"]},{"id":17331,"crm_id":999,"name":"Pritchard Auto Company","dealerSlug":"pritchard+auto+company","city_state_slug":"Britt.IA","brand":"Ford","website":"www.pritchardauto.com","address":"980 Highway 18 East","city":"Britt","state":"IA","zip":50423,"latitude":43.102187,"longitude":-93.797182,"phone_number_service":"6418433871","phone_number_main":"","service_hours":"Mo-Fr 08:00 - 17:30 | Sa 08:00 - 12:00 | Su Closed","utc_offset":"","gplace_id":0,"gplace_url":"","dealerID":61704,"trusted":false,"image_id":"v1597283967/ford_RM.png","phone":"6418433871","cityStateSlug":"britt.ia","slug":"Britt.IA/pritchard+auto+company","location":"43.102187,-93.797182","brandsList":["ford"]},{"id":15918,"crm_id":999,"name":"Barry Motor Company","dealerSlug":"barry+motor+company","city_state_slug":"Danbury.IA","brand":"Ford","website":"www.barryford.com","address":"Highway 175","city":"Danbury","state":"IA","zip":51019,"latitude":42.233864,"longitude":-95.720966,"phone_number_service":"7128832421","phone_number_main":"","service_hours":"Mo-Fr 07:30 - 18:00 | Sa 07:30 - 16:00 | Su Closed","utc_offset":"","gplace_id":0,"gplace_url":"","dealerID":61722,"trusted":false,"image_id":"v1597283967/ford_RM.png","phone":"7128832421","cityStateSlug":"danbury.ia","slug":"Danbury.IA/barry+motor+company","location":"42.233864,-95.720966","brandsList":["ford"]},{"id":17214,"crm_id":999,"name":"Northland Auto Chrysler Dodge Jeep RAM","dealerSlug":"northland+auto+chrysler+dodge+jeep+ram","city_state_slug":"Humboldt.IA","brand":"Chrysler,Dodge,Jeep,RAM","website":"www.northland-auto.com","address":"Highway 3 West","city":"Humboldt","state":"IA","zip":50548,"latitude":42.731503,"longitude":-94.17827,"phone_number_service":"5153324331","phone_number_main":"","service_hours":"Mo-Fr 08:00 - 17:00 | Sa 08:00 - 24:00 | Su Closed","utc_offset":"","gplace_id":0,"gplace_url":"","dealerID":61724,"trusted":false,"image_id":"v1597283975/chrysler_RM.png","phone":"5153324331","cityStateSlug":"humboldt.ia","slug":"Humboldt.IA/northland+auto+chrysler+dodge+jeep+ram","location":"42.731503,-94.17827","brandsList":["chrysler","dodge","jeep","ram"]},{"id":17780,"crm_id":999,"name":"Vern Laures Auto Center","dealerSlug":"vern+laures+auto+center","city_state_slug":"New-Hampton.IA","brand":"Chrysler,Dodge,Jeep,RAM,Fiat","website":"www.vernlauresautocenter.net","address":"Highway 63 North","city":"New Hampton","state":"IA","zip":50659,"latitude":43.126695,"longitude":-92.29793,"phone_number_service":"6413943025","phone_number_main":"","service_hours":"Mo-Fr 10:00 - 16:00 | Sa-Su Closed","utc_offset":"","gplace_id":0,"gplace_url":"","dealerID":61726,"trusted":false,"image_id":"v1597283975/chrysler_RM.png","phone":"6413943025","cityStateSlug":"new-hampton.ia","slug":"New-Hampton.IA/vern+laures+auto+center","location":"43.126695,-92.29793","brandsList":["chrysler","dodge","jeep","ram","fiat"]},{"id":16748,"crm_id":999,"name":"Jim Baier","dealerSlug":"jim+baier","city_state_slug":"Fort-Madison.IA","brand":"Chrysler,Dodge,Jeep,RAM","website":"www.jimbaier.net","address":"Hwy 61 West","city":"Fort Madison","state":"IA","zip":52627,"latitude":40.645866,"longitude":-91.294057,"phone_number_service":"3193721012","phone_number_main":"","service_hours":"Mo-Fr 09:00 - 16:00 | Sa-Su Closed","utc_offset":"","gplace_id":0,"gplace_url":"","dealerID":61731,"trusted":false,"image_id":"v1597283975/chrysler_RM.png","phone":"3193721012","cityStateSlug":"fort-madison.ia","slug":"Fort-Madison.IA/jim+baier","location":"40.645866,-91.294057","brandsList":["chrysler","dodge","jeep","ram"]},{"id":1660,"crm_id":51564901,"name":"BMW of Des Moines","dealerSlug":"bmw+of+des+moines","city_state_slug":"Urbandale.IA","brand":"BMW","website":"www.bmwdesmoines.com","address":"9631 Hickman Rd","city":"Urbandale","state":"IA","zip":50322,"latitude":41.615899,"longitude":-93.753512,"phone_number_service":"5154612724","phone_number_main":"5154463660","service_hours":"Mo-Th 09:00 - 19:00 | Fr-Sa 09:00 - 18:00","utc_offset":"-300","gplace_id":null,"gplace_url":"https://maps.google.com/?cid=7329217977428459589","dealerID":50176,"trusted":true,"image_id":"v1597283982/bmw_RM.png","phone":"5154612724","cityStateSlug":"urbandale.ia","slug":"Urbandale.IA/bmw+of+des+moines","location":"41.615899,-93.753512","brandsList":["bmw"]},{"id":8833,"crm_id":51925276,"name":"Lindquist Ford","dealerSlug":"lindquist+ford","city_state_slug":"Bettendorf.IA","brand":"Ford","website":"www.lindquistford.com","address":"3950 Middle Rd","city":"Bettendorf","state":"IA","zip":52722,"latitude":41.5564285,"longitude":-90.4780332,"phone_number_service":"5632652227","phone_number_main":"5634499001","service_hours":"Mo-Fr 07:30 - 17:00 | Sa 08:00 - 16:00","utc_offset":"-300","gplace_id":null,"gplace_url":"https://maps.google.com/?cid=8521389184525687522","dealerID":61936,"trusted":false,"image_id":"v1597283967/ford_RM.png","phone":"5632652227","cityStateSlug":"bettendorf.ia","slug":"Bettendorf.IA/lindquist+ford","location":"41.5564285,-90.4780332","brandsList":["ford"]},{"id":12747,"crm_id":51925894,"name":"Rydell Chevrolet","dealerSlug":"rydell+chevrolet","city_state_slug":"Waterloo.IA","brand":"Chevrolet","website":"www.rydellauto.com","address":"1325 E San Marnan Dr","city":"Waterloo","state":"IA","zip":50702,"latitude":42.4637614,"longitude":-92.3287876,"phone_number_service":"8003834601","phone_number_main":"3192344601","service_hours":"Mo-Fr 07:00 - 18:00 | Sa 08:00 - 12:00","utc_offset":"-300","gplace_id":null,"gplace_url":"https://maps.google.com/?cid=17548170307600705978","dealerID":62051,"trusted":false,"image_id":"v1597284079/chevy_ms.png","phone":"8003834601","cityStateSlug":"waterloo.ia","slug":"Waterloo.IA/rydell+chevrolet","location":"42.4637614,-92.3287876","brandsList":["chevrolet"]},{"id":7661,"crm_id":51926095,"name":"Junge Center Point Chrysler Dodge Jeep RAM","dealerSlug":"junge+center+point+chrysler+dodge+jeep+ram","city_state_slug":"Center-Point.IA","brand":"Chrysler,Dodge,Jeep,RAM","website":"www.jungecenterpoint.com","address":"1001 Ford Ln","city":"Center Point","state":"IA","zip":52213,"latitude":42.1782608,"longitude":-91.7759628,"phone_number_service":"3193596669","phone_number_main":"3198492022","service_hours":"Mo-Fr 07:00-17:30 | Sa 08:00-14:00","utc_offset":"-300","gplace_id":null,"gplace_url":"https://maps.google.com/?cid=174798463108428407","dealerID":62083,"trusted":false,"image_id":"v1597283975/chrysler_RM.png","phone":"3193596669","cityStateSlug":"center-point.ia","slug":"Center-Point.IA/junge+center+point+chrysler+dodge+jeep+ram","location":"42.1782608,-91.7759628","brandsList":["chrysler","dodge","jeep","ram"]},{"id":4455,"crm_id":51926665,"name":"Edwards Hyundai","dealerSlug":"edwards+hyundai","city_state_slug":"Council-Bluffs.IA","brand":"Hyundai","website":"www.edwardshyundai.com/","address":"1029 32nd Ave","city":"Council Bluffs","state":"IA","zip":51501,"latitude":41.2610138,"longitude":-95.8520409,"phone_number_service":"8888561084","phone_number_main":"7123669411","service_hours":"Mo-Fr 07:00 - 18:00 | Sa 08:00 - 15:00","utc_offset":"-300","gplace_id":null,"gplace_url":"https://maps.google.com/?cid=3921926727957483373","dealerID":62155,"trusted":false,"image_id":"v1597283959/hyundai_RM.png","phone":"8888561084","cityStateSlug":"council-bluffs.ia","slug":"Council-Bluffs.IA/edwards+hyundai","location":"41.2610138,-95.8520409","brandsList":["hyundai"]},{"id":13180,"crm_id":55238995,"name":"Shottenkirk Ford","dealerSlug":"shottenkirk+ford","city_state_slug":"Indianola.IA","brand":"Ford","website":"www.shottenkirkford.com","address":"2406 N Jefferson Way","city":"Indianola","state":"IA","zip":50125,"latitude":41.388271,"longitude":-93.556584,"phone_number_service":"8667965342","phone_number_main":"5159618151","service_hours":"Mo-Fr 07:00 - 18:00","utc_offset":"-300","gplace_id":null,"gplace_url":"https://maps.google.com/?cid=16032859999507139805","dealerID":62299,"trusted":false,"image_id":"v1597283967/ford_RM.png","phone":"8667965342","cityStateSlug":"indianola.ia","slug":"Indianola.IA/shottenkirk+ford","location":"41.388271,-93.556584","brandsList":["ford"]},{"id":5849,"crm_id":55666705,"name":"Gregg Young Buick GMC","dealerSlug":"gregg+young+buick+gmc","city_state_slug":"Indianola.IA","brand":"Buick,GMC","website":"www.gybuickgmc.com","address":"3001 N Jefferson Way","city":"Indianola","state":"IA","zip":50125,"latitude":41.3983105,"longitude":-93.5599982,"phone_number_service":"5159617461","phone_number_main":"5159617461","service_hours":"Mo-Fr 07:30 - 17:30 | Sa 08:00 - 15:00","utc_offset":"-300","gplace_id":null,"gplace_url":"https://maps.google.com/?cid=14236631173695932340","dealerID":62310,"trusted":false,"image_id":"v1597283981/buick_RM.png","phone":"5159617461","cityStateSlug":"indianola.ia","slug":"Indianola.IA/gregg+young+buick+gmc","location":"41.3983105,-93.5599982","brandsList":["buick","gmc"]},{"id":3886,"crm_id":65903623,"name":"Deery Brothers Chevrolet","dealerSlug":"deery+brothers+chevrolet","city_state_slug":"Pleasant-Hill.IA","brand":"Chevrolet","website":"www.godeery.com","address":"6000 E University Ave","city":"Pleasant Hill","state":"IA","zip":50327,"latitude":41.5997123,"longitude":-93.4904937,"phone_number_service":"5152851000","phone_number_main":"5152851000","service_hours":"Mo-Fr 07:00 - 18:00 | Sa 08:00 - 17:00","utc_offset":"-300","gplace_id":null,"gplace_url":"https://maps.google.com/?cid=5746035446028872929","dealerID":50393,"trusted":true,"image_id":"v1597284079/chevy_ms.png","phone":"5152851000","cityStateSlug":"pleasant-hill.ia","slug":"Pleasant-Hill.IA/deery+brothers+chevrolet","location":"41.5997123,-93.4904937","brandsList":["chevrolet"]},{"id":4070,"crm_id":67032172,"name":"Domino Motors","dealerSlug":"domino+motors","city_state_slug":"Sac-City.IA","brand":"Buick,Chevrolet,GMC","website":"www.dominomtrs.com","address":"3137 255th St","city":"Sac City","state":"IA","zip":50583,"latitude":42.4218292,"longitude":-94.9651336,"phone_number_service":"8772808824","phone_number_main":"7129866510","service_hours":"Mo-Fr 07:30 - 17:30 | Sa 07:30 - 12:00","utc_offset":"-300","gplace_id":null,"gplace_url":"https://maps.google.com/?cid=4772758759026255990","dealerID":62805,"trusted":false,"image_id":"v1597283981/buick_RM.png","phone":"8772808824","cityStateSlug":"sac-city.ia","slug":"Sac-City.IA/domino+motors","location":"42.4218292,-94.9651336","brandsList":["buick","chevrolet","gmc"]},{"id":2698,"crm_id":67032187,"name":"Cedar Rapids Toyota","dealerSlug":"cedar+rapids+toyota","city_state_slug":"Hiawatha.IA","brand":"Toyota","website":"www.cedarrapidstoyota.com","address":"1190 Boyson Rd","city":"Hiawatha","state":"IA","zip":52233,"latitude":42.0453411,"longitude":-91.6882445,"phone_number_service":"3193784400","phone_number_main":"3193784400","service_hours":"Mo-Fr 07:30 - 17:00 | Sa 08:00 - 13:00","utc_offset":"-300","gplace_id":null,"gplace_url":"https://maps.google.com/?cid=15122788256224454882","dealerID":62810,"trusted":false,"image_id":"v1597284039/toyota_ms.png","phone":"3193784400","cityStateSlug":"hiawatha.ia","slug":"Hiawatha.IA/cedar+rapids+toyota","location":"42.0453411,-91.6882445","brandsList":["toyota"]},{"id":8037,"crm_id":67033114,"name":"Knoepfler Chevrolet","dealerSlug":"knoepfler+chevrolet","city_state_slug":"Sioux-City.IA","brand":"Chevrolet","website":"www.kchev.com","address":"100 Jackson St","city":"Sioux City","state":"IA","zip":51101,"latitude":42.491463,"longitude":-96.4007413,"phone_number_service":"8884189257","phone_number_main":"7125604945","service_hours":"Mo-Fr 07:00 - 17:30 | Sa 08:00 - 12:00","utc_offset":"-300","gplace_id":null,"gplace_url":"https://maps.google.com/?cid=9967914262066923358","dealerID":63070,"trusted":false,"image_id":"v1597284079/chevy_ms.png","phone":"8884189257","cityStateSlug":"sioux-city.ia","slug":"Sioux-City.IA/knoepfler+chevrolet","location":"42.491463,-96.4007413","brandsList":["chevrolet"]},{"id":575,"crm_id":67033249,"name":"Audi Iowa City","dealerSlug":"audi+iowa+city","city_state_slug":"Iowa-City.IA","brand":"Audi","website":"www.carouseliowacityaudi.com","address":"809 Hwy 1 W","city":"Iowa City","state":"IA","zip":52246,"latitude":41.6460999,"longitude":-91.5508,"phone_number_service":"8887158396","phone_number_main":"8889059262","service_hours":"Mo-Fr 07:30 - 18:00","utc_offset":"-300","gplace_id":null,"gplace_url":"https://maps.google.com/?cid=13051540953038526604","dealerID":63106,"trusted":false,"image_id":"v1597283985/audi_RM.png","phone":"8887158396","cityStateSlug":"iowa-city.ia","slug":"Iowa-City.IA/audi+iowa+city","location":"41.6460999,-91.5508","brandsList":["audi"]},{"id":4459,"crm_id":67033312,"name":"Edwards of Storm Lake","dealerSlug":"edwards+of+storm+lake","city_state_slug":"Storm-Lake.IA","brand":"Chrysler,Dodge,Jeep,RAM","website":"www.edwardsstormlake.com","address":"1301 Lake Avenue","city":"Storm Lake","state":"IA","zip":51588,"latitude":42.6543408,"longitude":-95.2004181,"phone_number_service":"8882356410","phone_number_main":"7122913567","service_hours":"Mo-Fr 08:00 - 17:00 | Sa 08:00 - 12:00","utc_offset":"-300","gplace_id":null,"gplace_url":"https://maps.google.com/?cid=8136254625228619748","dealerID":63122,"trusted":false,"image_id":"v1597283975/chrysler_RM.png","phone":"8882356410","cityStateSlug":"storm-lake.ia","slug":"Storm-Lake.IA/edwards+of+storm+lake","location":"42.6543408,-95.2004181","brandsList":["chrysler","dodge","jeep","ram"]},{"id":7314,"crm_id":67033693,"name":"Jensen LeMars Ford","dealerSlug":"jensen+lemars+ford","city_state_slug":"Le-Mars.IA","brand":"Ford","website":"www.lemars-ford.com","address":"1258 Lincoln St SW","city":"Le Mars","state":"IA","zip":51031,"latitude":42.7773911,"longitude":-96.1857643,"phone_number_service":"8885321463","phone_number_main":"8667990811","service_hours":"Mo-Fr 07:00 - 18:00 | Sa 07:00 - 12:00","utc_offset":"-300","gplace_id":null,"gplace_url":"https://maps.google.com/?cid=10817786154621332751","dealerID":63228,"trusted":false,"image_id":"v1597283967/ford_RM.png","phone":"8885321463","cityStateSlug":"le-mars.ia","slug":"Le-Mars.IA/jensen+lemars+ford","location":"42.7773911,-96.1857643","brandsList":["ford"]},{"id":15532,"crm_id":67033894,"name":"Willis Chevrolet Of Granger","dealerSlug":"willis+chevrolet+of+granger","city_state_slug":"Granger.IA","brand":"Chevrolet","website":"www.willischevy.com","address":"3333 Highway 141","city":"Granger","state":"IA","zip":50109,"latitude":41.7584291,"longitude":-93.8284717,"phone_number_service":"8885953164","phone_number_main":"8885530960","service_hours":"Mo-Fr  08:00 - 17:00 | Sa 09:00 - 14:00","utc_offset":"-300","gplace_id":null,"gplace_url":"https://maps.google.com/?cid=4752153138663447318","dealerID":63283,"trusted":false,"image_id":"v1597284079/chevy_ms.png","phone":"8885953164","cityStateSlug":"granger.ia","slug":"Granger.IA/willis+chevrolet+of+granger","location":"41.7584291,-93.8284717","brandsList":["chevrolet"]},{"id":4250,"crm_id":67033999,"name":"Dubuque BMW","dealerSlug":"dubuque+bmw","city_state_slug":"Dubuque.IA","brand":"BMW","website":"dubuquebmw.com","address":"600 Century Dr","city":"Dubuque","state":"IA","zip":52002,"latitude":42.4930256,"longitude":-90.725812,"phone_number_service":"8883286542","phone_number_main":"8883165098","service_hours":"Mo-Fr 07:30 - 18:00 | Sa 08:00 - 13:00","utc_offset":"-300","gplace_id":null,"gplace_url":"https://maps.google.com/?cid=8624932413936859097","dealerID":63314,"trusted":false,"image_id":"v1597283982/bmw_RM.png","phone":"8883286542","cityStateSlug":"dubuque.ia","slug":"Dubuque.IA/dubuque+bmw","location":"42.4930256,-90.725812","brandsList":["bmw"]},{"id":3890,"crm_id":67034095,"name":"Deery Brothers Gm","dealerSlug":"deery+brothers+gm","city_state_slug":"West-Burlington.IA","brand":"Buick,Cadillac,Chevrolet,GMC","website":"www.deerybrothers.com","address":"200 S Gear Ave","city":"West Burlington","state":"IA","zip":52655,"latitude":40.824748,"longitude":-91.1682629,"phone_number_service":"8663239958","phone_number_main":"3197526000","service_hours":"Mo-Fr 07:00 - 18:00 | Sa 07:00 - 17:00","utc_offset":"-300","gplace_id":null,"gplace_url":"https://maps.google.com/?cid=1506571924195033640","dealerID":63340,"trusted":false,"image_id":"v1597283981/buick_RM.png","phone":"8663239958","cityStateSlug":"west-burlington.ia","slug":"West-Burlington.IA/deery+brothers+gm","location":"40.824748,-91.1682629","brandsList":["buick","cadillac","chevrolet","gmc"]},{"id":15354,"crm_id":67034107,"name":"West Branch Ford","dealerSlug":"west+branch+ford","city_state_slug":"West-Branch.IA","brand":"Ford","website":"www.westbranchford.net","address":"346 W Main St","city":"West Branch","state":"IA","zip":52358,"latitude":41.6709701,"longitude":-91.3533667,"phone_number_service":"8886901416","phone_number_main":"3196432123","service_hours":"Mo-Fr 07:30 - 17:30 | Sa 07:30-12:00","utc_offset":"-300","gplace_id":null,"gplace_url":"https://maps.google.com/?cid=16628198296629190177","dealerID":63344,"trusted":false,"image_id":"v1597283967/ford_RM.png","phone":"8886901416","cityStateSlug":"west-branch.ia","slug":"West-Branch.IA/west+branch+ford","location":"41.6709701,-91.3533667","brandsList":["ford"]},{"id":3674,"crm_id":67034569,"name":"Dan Deery Motor Company","dealerSlug":"dan+deery+motor+company","city_state_slug":"Waterloo.IA","brand":"Chrysler,Dodge,Jeep,RAM,Fiat","website":"www.dandeerymotors.com","address":"3900 Alexandra Dr","city":"Waterloo","state":"IA","zip":50702,"latitude":42.4580711,"longitude":-92.3356762,"phone_number_service":"3192292147","phone_number_main":"3192774500","service_hours":"Mo-Fr 07:00 - 18:00 | Sa 07:00 - 18:00","utc_offset":"-300","gplace_id":null,"gplace_url":"https://maps.google.com/?cid=8536733872557903017","dealerID":63473,"trusted":false,"image_id":"v1597283975/chrysler_RM.png","phone":"3192292147","cityStateSlug":"waterloo.ia","slug":"Waterloo.IA/dan+deery+motor+company","location":"42.4580711,-92.3356762","brandsList":["chrysler","dodge","jeep","ram","fiat"]},{"id":6765,"crm_id":67034815,"name":"Humboldt Motor Sales","dealerSlug":"humboldt+motor+sales","city_state_slug":"Humboldt.IA","brand":"Buick,Chevrolet,GMC","website":"www.humboldtgm.com","address":"2225 220th St","city":"Humboldt","state":"IA","zip":50548,"latitude":42.7323365,"longitude":-94.2037467,"phone_number_service":"8665348320","phone_number_main":"5156048021","service_hours":"Mo-Fr 07:30 - 17:30","utc_offset":"-300","gplace_id":null,"gplace_url":"https://maps.google.com/?cid=8015687713872294641","dealerID":63542,"trusted":false,"image_id":"v1597283981/buick_RM.png","phone":"8665348320","cityStateSlug":"humboldt.ia","slug":"Humboldt.IA/humboldt+motor+sales","location":"42.7323365,-94.2037467","brandsList":["buick","chevrolet","gmc"]},{"id":13163,"crm_id":67034824,"name":"Shimkat Motor Co","dealerSlug":"shimkat+motor+co","city_state_slug":"Fort-Dodge.IA","brand":"Chrysler,Dodge,Jeep,RAM","website":"www.shimkatmotor.net","address":"3126 5th Ave S","city":"Fort Dodge","state":"IA","zip":50501,"latitude":42.5027943,"longitude":-94.1512237,"phone_number_service":"5157580888","phone_number_main":"5155737164","service_hours":"Mo-Fr 07:30 - 17:30 | Sa 07:15-15:30","utc_offset":"-300","gplace_id":null,"gplace_url":"https://maps.google.com/?cid=17789383021012905105","dealerID":63545,"trusted":false,"image_id":"v1597283975/chrysler_RM.png","phone":"5157580888","cityStateSlug":"fort-dodge.ia","slug":"Fort-Dodge.IA/shimkat+motor+co","location":"42.5027943,-94.1512237","brandsList":["chrysler","dodge","jeep","ram"]},{"id":7768,"crm_id":67035127,"name":"Kemna Auto Of Fort Dodge","dealerSlug":"kemna+auto+of+fort+dodge","city_state_slug":"Fort-Dodge.IA","brand":"Buick,Chevrolet,GMC","website":"www.kemnafortdodge.com","address":"10 S 25th St","city":"Fort Dodge","state":"IA","zip":50501,"latitude":42.5057343,"longitude":-94.1648941,"phone_number_service":"8665609318","phone_number_main":"5152002496","service_hours":"Mo-Fr 07:00 - 17:30 | Sa 07:00 - 12:00","utc_offset":"-300","gplace_id":null,"gplace_url":"https://maps.google.com/?cid=6506624552770077310","dealerID":63618,"trusted":false,"image_id":"v1597283981/buick_RM.png","phone":"8665609318","cityStateSlug":"fort-dodge.ia","slug":"Fort-Dodge.IA/kemna+auto+of+fort+dodge","location":"42.5057343,-94.1648941","brandsList":["buick","chevrolet","gmc"]},{"id":7682,"crm_id":67035172,"name":"Karl Chevrolet","dealerSlug":"karl+chevrolet","city_state_slug":"Ankeny.IA","brand":"Chevrolet","website":"www.karlchevrolet.com","address":"1101 SE Oralabor Rd","city":"Ankeny","state":"IA","zip":50021,"latitude":41.7007231,"longitude":-93.5793245,"phone_number_service":"8662940782","phone_number_main":"5153443627","service_hours":"Mo-Th 06:30 - 19:00 | Fr 06:30 - 18:00 | Sa 07:30 - 16:00","utc_offset":"-300","gplace_id":null,"gplace_url":"https://maps.google.com/?cid=5698507920004069205","dealerID":63633,"trusted":false,"image_id":"v1597284079/chevy_ms.png","phone":"8662940782","cityStateSlug":"ankeny.ia","slug":"Ankeny.IA/karl+chevrolet","location":"41.7007231,-93.5793245","brandsList":["chevrolet"]},{"id":15587,"crm_id":67035376,"name":"Witham Kia","dealerSlug":"witham+kia","city_state_slug":"Waterloo.IA","brand":"Kia","website":"www.withamkia.com","address":"2033 La Porte Rd","city":"Waterloo","state":"IA","zip":50702,"latitude":42.4658919,"longitude":-92.3182337,"phone_number_service":"3192423824","phone_number_main":"3192143788","service_hours":"Mo-Fr 07:30 - 17:30","utc_offset":"-300","gplace_id":null,"gplace_url":"https://maps.google.com/?cid=10361116799396570865","dealerID":63690,"trusted":false,"image_id":"v1597283948/kia_RM.png","phone":"3192423824","cityStateSlug":"waterloo.ia","slug":"Waterloo.IA/witham+kia","location":"42.4658919,-92.3182337","brandsList":["kia"]},{"id":14716,"crm_id":67035427,"name":"Ulrich Ford Lincoln","dealerSlug":"ulrich+ford+lincoln","city_state_slug":"Pella.IA","brand":"Ford,Lincoln","website":"www.ulrichford.com","address":"1130 W 16th St","city":"Pella","state":"IA","zip":50219,"latitude":41.4118569,"longitude":-92.9528079,"phone_number_service":"6416666411","phone_number_main":"6416282184","service_hours":"Mo-Fr 07:00 - 18:00 | Sa 08:00 - 12:00","utc_offset":"-300","gplace_id":null,"gplace_url":"https://maps.google.com/?cid=17148879473155887693","dealerID":63705,"trusted":false,"image_id":"v1597283967/ford_RM.png","phone":"6416666411","cityStateSlug":"pella.ia","slug":"Pella.IA/ulrich+ford+lincoln","location":"41.4118569,-92.9528079","brandsList":["ford","lincoln"]},{"id":2529,"crm_id":67035475,"name":"Capper Chrysler, Dodge, Jeep, RAM","dealerSlug":"capper+chrysler+dodge+jeep+ram","city_state_slug":"Washington.IA","brand":"Chrysler,Dodge,Jeep,RAM","website":"www.capperautogroup.com","address":"1738 E Washington St","city":"Washington","state":"IA","zip":52353,"latitude":41.790162,"longitude":-92.069021,"phone_number_service":"8666533480","phone_number_main":"3196425525","service_hours":"","utc_offset":"-300","gplace_id":null,"gplace_url":"https://maps.google.com/?cid=9180126922235144042","dealerID":63718,"trusted":false,"image_id":"v1597283975/chrysler_RM.png","phone":"8666533480","cityStateSlug":"washington.ia","slug":"Washington.IA/capper+chrysler+dodge+jeep+ram","location":"41.790162,-92.069021","brandsList":["chrysler","dodge","jeep","ram"]},{"id":12686,"crm_id":67035685,"name":"Runde Ford","dealerSlug":"runde+ford","city_state_slug":"Manchester.IA","brand":"Ford","website":"www.rundeford.net","address":"1221 W Main St","city":"Manchester","state":"IA","zip":52057,"latitude":42.4846672,"longitude":-91.4781427,"phone_number_service":"5635946326","phone_number_main":"5635946327","service_hours":"Mo-Fr 07:30 - 17:00 | Sa 07:30-12:00","utc_offset":"-300","gplace_id":null,"gplace_url":"https://maps.google.com/?cid=17631617411732712427","dealerID":63779,"trusted":false,"image_id":"v1597283967/ford_RM.png","phone":"5635946326","cityStateSlug":"manchester.ia","slug":"Manchester.IA/runde+ford","location":"42.4846672,-91.4781427","brandsList":["ford"]},{"id":3986,"crm_id":67035865,"name":"Dewey Chrysler Dodge Jeep RAM","dealerSlug":"dewey+chrysler+dodge+jeep+ram","city_state_slug":"Ankeny.IA","brand":"Chrysler,Dodge,Jeep,RAM","website":"www.deweydodgejeep.com","address":"3175 SE Delaware Ave","city":"Ankeny","state":"IA","zip":50021,"latitude":41.6977493,"longitude":-93.5788437,"phone_number_service":"5153444513","phone_number_main":"8553670915","service_hours":"Mo-Fr 07:00 - 18:00 | Sa 07:00 - 14:00","utc_offset":"-300","gplace_id":null,"gplace_url":"https://maps.google.com/?cid=311529102264035434","dealerID":63826,"trusted":false,"image_id":"v1597283975/chrysler_RM.png","phone":"5153444513","cityStateSlug":"ankeny.ia","slug":"Ankeny.IA/dewey+chrysler+dodge+jeep+ram","location":"41.6977493,-93.5788437","brandsList":["chrysler","dodge","jeep","ram"]},{"id":3067,"crm_id":67036339,"name":"Clemons Chevrolet","dealerSlug":"clemons+chevrolet","city_state_slug":"Marshalltown.IA","brand":"Chevrolet","website":"www.clemonsinc.com","address":"2909 S Center St","city":"Marshalltown","state":"IA","zip":50158,"latitude":42.0107858,"longitude":-92.9134604,"phone_number_service":"8778516186","phone_number_main":"6413522390","service_hours":"Mo-Fr 08:00 - 17:30","utc_offset":"-300","gplace_id":null,"gplace_url":"https://maps.google.com/?cid=4783886980387542654","dealerID":63950,"trusted":false,"image_id":"v1597284079/chevy_ms.png","phone":"8778516186","cityStateSlug":"marshalltown.ia","slug":"Marshalltown.IA/clemons+chevrolet","location":"42.0107858,-92.9134604","brandsList":["chevrolet"]},{"id":7328,"crm_id":67036393,"name":"Jerry Roling Motors","dealerSlug":"jerry+roling+motors","city_state_slug":"Waverly.IA","brand":"Buick,Chevrolet","website":"www.jerryroling.com","address":"1775 4th St SW","city":"Waverly","state":"IA","zip":50677,"latitude":42.7082103,"longitude":-92.474829,"phone_number_service":"8667186650","phone_number_main":"3195961084","service_hours":"Mo-Fr 07:30 - 17:00","utc_offset":"-300","gplace_id":null,"gplace_url":"https://maps.google.com/?cid=18267936643535861181","dealerID":63966,"trusted":false,"image_id":"v1597283981/buick_RM.png","phone":"8667186650","cityStateSlug":"waverly.ia","slug":"Waverly.IA/jerry+roling+motors","location":"42.7082103,-92.474829","brandsList":["buick","chevrolet"]},{"id":12539,"crm_id":67036444,"name":"Ron Alpen Ford","dealerSlug":"ron+alpen+ford","city_state_slug":"Durant.IA","brand":"Ford","website":"www.ronalpenford.net","address":"303 5th St","city":"Durant","state":"IA","zip":52747,"latitude":41.6012128,"longitude":-90.915727,"phone_number_service":"8882314962","phone_number_main":"5637854466","service_hours":"Mo-Fr 07:00 - 17:00","utc_offset":"-300","gplace_id":null,"gplace_url":"https://maps.google.com/?cid=6361601719085968697","dealerID":63981,"trusted":false,"image_id":"v1597283967/ford_RM.png","phone":"8882314962","cityStateSlug":"durant.ia","slug":"Durant.IA/ron+alpen+ford","location":"41.6012128,-90.915727","brandsList":["ford"]},{"id":3675,"crm_id":67036684,"name":"Dan Deery Toyota","dealerSlug":"dan+deery+toyota","city_state_slug":"Cedar-Falls.IA","brand":"Toyota,Scion","website":"www.dandeerytoyota.com","address":"7404 University Ave","city":"Cedar Falls","state":"IA","zip":50613,"latitude":42.51432,"longitude":-92.447102,"phone_number_service":"3192423120","phone_number_main":"3192774500","service_hours":"Mo-Fr 07:00 - 18:00 | Sa 07:00 - 18:00","utc_offset":"-300","gplace_id":null,"gplace_url":"https://maps.google.com/?cid=8536733872557903017","dealerID":64049,"trusted":false,"image_id":"v1597284039/toyota_ms.png","phone":"3192423120","cityStateSlug":"cedar-falls.ia","slug":"Cedar-Falls.IA/dan+deery+toyota","location":"42.51432,-92.447102","brandsList":["toyota","scion"]},{"id":10416,"crm_id":67036699,"name":"Mount Pleasant Chevrolet Buick GMC","dealerSlug":"mount+pleasant+chevrolet+buick+gmc","city_state_slug":"Mt-Pleasant.IA","brand":"Buick,Chevrolet,GMC","website":"www.mountpleasantgm.com","address":"2301 E Washington St","city":"Mt Pleasant","state":"IA","zip":52641,"latitude":40.9613589,"longitude":-91.5198049,"phone_number_service":"3193852261","phone_number_main":"3193852261","service_hours":"Mo-Fr 07:30- 17:30 | Sa 08:00 - 12:00","utc_offset":"-300","gplace_id":null,"gplace_url":"https://maps.google.com/?cid=9219831206535884628","dealerID":64053,"trusted":false,"image_id":"v1597283981/buick_RM.png","phone":"3193852261","cityStateSlug":"mt-pleasant.ia","slug":"Mt-Pleasant.IA/mount+pleasant+chevrolet+buick+gmc","location":"40.9613589,-91.5198049","brandsList":["buick","chevrolet","gmc"]},{"id":13683,"crm_id":67036723,"name":"Stew Hansen Dodge RAM Chrysler Jeep FIAT","dealerSlug":"stew+hansen+dodge+ram+chrysler+jeep+fiat","city_state_slug":"Urbandale.IA","brand":"Chrysler,Dodge,Jeep,RAM,Fiat","website":"www.stewhansens.com","address":"12103 Hickman Rd","city":"Urbandale","state":"IA","zip":50323,"latitude":41.615767,"longitude":-93.7859471,"phone_number_service":"5152511430","phone_number_main":"8778414585","service_hours":"Mo-Fr 07:00 - 18:00 | Sa 07:00 - 14:00","utc_offset":"-300","gplace_id":null,"gplace_url":"https://maps.google.com/?cid=11901870900536383215","dealerID":64061,"trusted":false,"image_id":"v1597283975/chrysler_RM.png","phone":"5152511430","cityStateSlug":"urbandale.ia","slug":"Urbandale.IA/stew+hansen+dodge+ram+chrysler+jeep+fiat","location":"41.615767,-93.7859471","brandsList":["chrysler","dodge","jeep","ram","fiat"]},{"id":9087,"crm_id":67036801,"name":"Lynch Ford Chevrolet","dealerSlug":"lynch+ford+chevrolet","city_state_slug":"Mount-Vernon.IA","brand":"Chevrolet,Ford","website":"www.lynchfordchevrolet.com","address":"410 Business 30 SW","city":"Mount Vernon","state":"IA","zip":52314,"latitude":41.9157106,"longitude":-91.4297323,"phone_number_service":"8887267207","phone_number_main":"8773108354","service_hours":"Mo-Fr 07:00 - 17:00","utc_offset":"-300","gplace_id":null,"gplace_url":"https://maps.google.com/?cid=15312700141805361138","dealerID":64081,"trusted":false,"image_id":"v1597284079/chevy_ms.png","phone":"8887267207","cityStateSlug":"mount-vernon.ia","slug":"Mount-Vernon.IA/lynch+ford+chevrolet","location":"41.9157106,-91.4297323","brandsList":["chevrolet","ford"]},{"id":3972,"crm_id":67037089,"name":"Deter Motor Company","dealerSlug":"deter+motor+company","city_state_slug":"Atlantic.IA","brand":"Buick,Chevrolet,GMC","website":"www.determotorcompany.com","address":"100 E 2nd St","city":"Atlantic","state":"IA","zip":50022,"latitude":41.4092532,"longitude":-95.0106366,"phone_number_service":"7122144588","phone_number_main":"8884925658","service_hours":"Mo-Fr 07:30 - 17:00 | Sa 07:30 - 12:00","utc_offset":"-300","gplace_id":null,"gplace_url":"https://maps.google.com/?cid=15354664098833004922","dealerID":64160,"trusted":false,"image_id":"v1597283981/buick_RM.png","phone":"7122144588","cityStateSlug":"atlantic.ia","slug":"Atlantic.IA/deter+motor+company","location":"41.4092532,-95.0106366","brandsList":["buick","chevrolet","gmc"]},{"id":3971,"crm_id":67037092,"name":"Deter CDJR","dealerSlug":"deter+cdjr","city_state_slug":"Atlantic.IA","brand":"Chrysler,Dodge,Jeep,RAM","website":"www.deterchryslerdodgejeepram.com","address":"214 Walnut Street","city":"Atlantic","state":"IA","zip":50022,"latitude":41.4084125,"longitude":-95.0133708,"phone_number_service":"7123145099","phone_number_main":"8884925658","service_hours":"Mo-We 07:30 - 17:00 | Th 07:30 - 19:30 | Fr 07:30 - 17:00 | Sa 07:30 - 12:00","utc_offset":"-300","gplace_id":null,"gplace_url":"https://maps.google.com/?cid=15354664098833004922","dealerID":64161,"trusted":false,"image_id":"v1597283975/chrysler_RM.png","phone":"7123145099","cityStateSlug":"atlantic.ia","slug":"Atlantic.IA/deter+cdjr","location":"41.4084125,-95.0133708","brandsList":["chrysler","dodge","jeep","ram"]},{"id":326,"crm_id":67037158,"name":"Anderson-Weber Toyota","dealerSlug":"anderson+weber+toyota","city_state_slug":"Dubuque.IA","brand":"Toyota","website":"www.andersonwebertoyota.com","address":"3450 Center Grove Dr","city":"Dubuque","state":"IA","zip":52003,"latitude":42.4897889,"longitude":-90.720433,"phone_number_service":"8887325357","phone_number_main":"8777905499","service_hours":"Mo-Fr 07:00 - 17:30 | Sa 07:00 - 13:00","utc_offset":"-300","gplace_id":null,"gplace_url":"https://maps.google.com/?cid=5543297599201736015","dealerID":64180,"trusted":false,"image_id":"v1597284039/toyota_ms.png","phone":"8887325357","cityStateSlug":"dubuque.ia","slug":"Dubuque.IA/anderson+weber+toyota","location":"42.4897889,-90.720433","brandsList":["toyota"]},{"id":9540,"crm_id":67037185,"name":"McGrath Chevyland","dealerSlug":"mcgrath+chevyland","city_state_slug":"Cedar-Rapids.IA","brand":"Chevrolet","website":"www.patmcgrathchevyland.com","address":"1600 51st St NE","city":"Cedar Rapids","state":"IA","zip":52402,"latitude":42.030757,"longitude":-91.661005,"phone_number_service":"3197745816","phone_number_main":"3193936300","service_hours":"Mo-Fr 07:00 - 17:30 | Sa 07:30 - 17:00","utc_offset":"-300","gplace_id":null,"gplace_url":"https://maps.google.com/?cid=6356376223061452164","dealerID":64189,"trusted":false,"image_id":"v1597284079/chevy_ms.png","phone":"3197745816","cityStateSlug":"cedar-rapids.ia","slug":"Cedar-Rapids.IA/mcgrath+chevyland","location":"42.030757,-91.661005","brandsList":["chevrolet"]},{"id":9125,"crm_id":67037233,"name":"Macke Motors","dealerSlug":"macke+motors","city_state_slug":"Lake-City.IA","brand":"Buick,Chevrolet","website":"www.mackemotors.com","address":"1201 W Main St","city":"Lake City","state":"IA","zip":51449,"latitude":42.2667418,"longitude":-94.7470366,"phone_number_service":"8667731068","phone_number_main":"7122212775","service_hours":"Mo-Fr 07:30 - 17:00 | Sa 07:30 - 12:00","utc_offset":"-300","gplace_id":null,"gplace_url":"https://maps.google.com/?cid=3104727446977876337","dealerID":64202,"trusted":false,"image_id":"v1597283981/buick_RM.png","phone":"8667731068","cityStateSlug":"lake-city.ia","slug":"Lake-City.IA/macke+motors","location":"42.2667418,-94.7470366","brandsList":["buick","chevrolet"]},{"id":10098,"crm_id":67037500,"name":"Mills Chevy","dealerSlug":"mills+chevy","city_state_slug":"Davenport.IA","brand":"Chevrolet","website":"www.millschevy.com","address":"6600 Elmore Avenue","city":"Davenport","state":"IA","zip":52807,"latitude":41.5886154,"longitude":-90.5301056,"phone_number_service":"3094814327","phone_number_main":"3098072242","service_hours":"Mo 07:00 - 20:00 | Tu 07:00 - 18:00 | We 07:00 - 18:00 | Th 07:00 - 20:00 | Fr 07:00 - 18:00 | Sa 08:00 - 17:00","utc_offset":"-300","gplace_id":null,"gplace_url":"https://maps.google.com/?cid=6975183022825841919","dealerID":64279,"trusted":false,"image_id":"v1597284079/chevy_ms.png","phone":"3094814327","cityStateSlug":"davenport.ia","slug":"Davenport.IA/mills+chevy","location":"41.5886154,-90.5301056","brandsList":["chevrolet"]},{"id":7683,"crm_id":67037800,"name":"Karl Chevrolet of Stuart","dealerSlug":"karl+chevrolet+of+stuart","city_state_slug":"Stuart.IA","brand":"Chevrolet","website":"www.karlchevroletstuart.com","address":"324 SW 8th St","city":"Stuart","state":"IA","zip":50250,"latitude":41.4945988,"longitude":-94.3229957,"phone_number_service":"8447172727","phone_number_main":"5155231201","service_hours":"Mo-Fr 07:00 - 18:00 | Sa 07:00 - 16:00","utc_offset":"-300","gplace_id":null,"gplace_url":"https://maps.google.com/?cid=14609197521748946114","dealerID":64362,"trusted":false,"image_id":"v1597284079/chevy_ms.png","phone":"8447172727","cityStateSlug":"stuart.ia","slug":"Stuart.IA/karl+chevrolet+of+stuart","location":"41.4945988,-94.3229957","brandsList":["chevrolet"]},{"id":5783,"crm_id":67038958,"name":"Green Buick GMC","dealerSlug":"green+buick+gmc","city_state_slug":"Davenport.IA","brand":"Buick,GMC","website":"www.greenbuickgmc.com","address":"3210 E Kimberly Rd","city":"Davenport","state":"IA","zip":52807,"latitude":41.55338,"longitude":-90.5242591,"phone_number_service":"8775317881","phone_number_main":"5634413400","service_hours":"Mo-Th 07:00 - 19:00 | Fr 07:00 - 17:30 | Sa 08:00 - 13:00","utc_offset":"-300","gplace_id":null,"gplace_url":"https://maps.google.com/?cid=16161900988332286589","dealerID":64682,"trusted":false,"image_id":"v1597283981/buick_RM.png","phone":"8775317881","cityStateSlug":"davenport.ia","slug":"Davenport.IA/green+buick+gmc","location":"41.55338,-90.5242591","brandsList":["buick","gmc"]},{"id":6429,"crm_id":67039432,"name":"Hi-way Chevrolet Buick","dealerSlug":"hi+way+chevrolet+buick","city_state_slug":"Rock-Valley.IA","brand":"Buick,Chevrolet","website":"www.hiwaychevbuick.com","address":"1427 10th St","city":"Rock Valley","state":"IA","zip":51247,"latitude":43.2001225,"longitude":-96.296319,"phone_number_service":"8772324345","phone_number_main":"7124765309","service_hours":"Mo-Fr 07:30 - 17:00 | Sa 07:30 - 11:30","utc_offset":"-300","gplace_id":null,"gplace_url":"https://maps.google.com/?cid=15361619798971584837","dealerID":64807,"trusted":false,"image_id":"v1597283981/buick_RM.png","phone":"8772324345","cityStateSlug":"rock-valley.ia","slug":"Rock-Valley.IA/hi+way+chevrolet+buick","location":"43.2001225,-96.296319","brandsList":["buick","chevrolet"]},{"id":10645,"crm_id":67041571,"name":"New Way Ford","dealerSlug":"new+way+ford","city_state_slug":"Coon-Rapids.IA","brand":"Ford","website":"www.newwayford.net","address":"30711 IA-141","city":"Coon Rapids","state":"IA","zip":50058,"latitude":41.8728583,"longitude":-94.6906178,"phone_number_service":"8008617268","phone_number_main":"8008617268","service_hours":"Mo-Fr 08:00 - 17:00","utc_offset":"-300","gplace_id":null,"gplace_url":"https://maps.google.com/?cid=8319747003589102879","dealerID":65371,"trusted":false,"image_id":"v1597283967/ford_RM.png","phone":"8008617268","cityStateSlug":"coon-rapids.ia","slug":"Coon-Rapids.IA/new+way+ford","location":"41.8728583,-94.6906178","brandsList":["ford"]},{"id":10386,"crm_id":67041709,"name":"Motor Inn Of Algona","dealerSlug":"motor+inn+of+algona","city_state_slug":"Algona.IA","brand":"Chrysler,Dodge,Jeep,RAM","website":"www.motorinnofalgona.com","address":"1107 N Main St","city":"Algona","state":"IA","zip":50511,"latitude":43.0785108,"longitude":-94.2184943,"phone_number_service":"8442499594","phone_number_main":"5152952497","service_hours":"Mo-Fr 07:30 - 17:00| Sa 07:30 - 12:00","utc_offset":"-300","gplace_id":null,"gplace_url":"https://maps.google.com/?cid=3177901518615110561","dealerID":65410,"trusted":false,"image_id":"v1597283975/chrysler_RM.png","phone":"8442499594","cityStateSlug":"algona.ia","slug":"Algona.IA/motor+inn+of+algona","location":"43.0785108,-94.2184943","brandsList":["chrysler","dodge","jeep","ram"]},{"id":12347,"crm_id":67042006,"name":"Riley Subaru","dealerSlug":"riley+subaru","city_state_slug":"Dubuque.IA","brand":"Subaru","website":"www.rileysubaru.net","address":"4455 Dodge St","city":"Dubuque","state":"IA","zip":52003,"latitude":42.488743,"longitude":-90.741957,"phone_number_service":"8887068426","phone_number_main":"5635882326","service_hours":"Mo-Fr 08:00 - 18:00 | Sa 08:30 - 14:00","utc_offset":"-300","gplace_id":null,"gplace_url":"https://maps.google.com/?cid=3451585489273916301","dealerID":65481,"trusted":false,"image_id":"v1597283982/subaru_ms.png","phone":"8887068426","cityStateSlug":"dubuque.ia","slug":"Dubuque.IA/riley+subaru","location":"42.488743,-90.741957","brandsList":["subaru"]},{"id":2213,"crm_id":67042138,"name":"Brown's Sales and Leasing","dealerSlug":"browns+sales+and+leasing","city_state_slug":"Elkader.IA","brand":"Buick,Chevrolet,GMC","website":"www.4brownsgm.com","address":"109 Gunder Rd","city":"Elkader","state":"IA","zip":52043,"latitude":42.8660014,"longitude":-91.399318,"phone_number_service":"8665305174","phone_number_main":"8888568179","service_hours":"Mo-Fr 07:30 - 17:00 | Sa 07:30 - 11:30","utc_offset":"-300","gplace_id":null,"gplace_url":"https://maps.google.com/?cid=25632039652981413","dealerID":65518,"trusted":false,"image_id":"v1597283981/buick_RM.png","phone":"8665305174","cityStateSlug":"elkader.ia","slug":"Elkader.IA/browns+sales+and+leasing","location":"42.8660014,-91.399318","brandsList":["buick","chevrolet","gmc"]},{"id":14507,"crm_id":67042690,"name":"Toyota of Muscatine","dealerSlug":"toyota+of+muscatine","city_state_slug":"Muscatine.IA","brand":"Toyota","website":"www.toyotaofmuscatine.com","address":"3000 N Highway 38","city":"Muscatine","state":"IA","zip":52761,"latitude":41.4565756,"longitude":-91.0316698,"phone_number_service":"8884845504","phone_number_main":"8883023323","service_hours":"Mo-Fr 07:30 - 17:30 | Sa 08:00-12:00","utc_offset":"-300","gplace_id":null,"gplace_url":"https://maps.google.com/?cid=9602237439079824062","dealerID":65677,"trusted":false,"image_id":"v1597284039/toyota_ms.png","phone":"8884845504","cityStateSlug":"muscatine.ia","slug":"Muscatine.IA/toyota+of+muscatine","location":"41.4565756,-91.0316698","brandsList":["toyota"]},{"id":6695,"crm_id":67042789,"name":"Hosmer Toyota","dealerSlug":"hosmer+toyota","city_state_slug":"Mason-City.IA","brand":"Toyota","website":"www.hosmertoyota.com","address":"3851 4th St SW","city":"Mason City","state":"IA","zip":50401,"latitude":43.1468642,"longitude":-93.2595344,"phone_number_service":"6412106131","phone_number_main":"6412434814","service_hours":"Mo-Fr 08:00 - 17:00 | Sa 07:00 - 12:00","utc_offset":"-300","gplace_id":null,"gplace_url":"https://maps.google.com/?cid=1055944018900055735","dealerID":65703,"trusted":false,"image_id":"v1597284039/toyota_ms.png","phone":"6412106131","cityStateSlug":"mason-city.ia","slug":"Mason-City.IA/hosmer+toyota","location":"43.1468642,-93.2595344","brandsList":["toyota"]},{"id":15327,"crm_id":67042963,"name":"Weis Buick GMC","dealerSlug":"weis+buick+gmc","city_state_slug":"Decorah.IA","brand":"Buick,GMC","website":"www.weisbuickgmc.com","address":"131 College Dr","city":"Decorah","state":"IA","zip":52101,"latitude":43.3051011,"longitude":-91.7948219,"phone_number_service":"8775773445","phone_number_main":"5633828474","service_hours":"Mo-Fr 08:00 - 17:00","utc_offset":"-300","gplace_id":null,"gplace_url":"https://maps.google.com/?cid=11872909188068556460","dealerID":65751,"trusted":false,"image_id":"v1597283981/buick_RM.png","phone":"8775773445","cityStateSlug":"decorah.ia","slug":"Decorah.IA/weis+buick+gmc","location":"43.3051011,-91.7948219","brandsList":["buick","gmc"]},{"id":7524,"crm_id":67044907,"name":"John Deery Mitsubishi","dealerSlug":"john+deery+mitsubishi","city_state_slug":"Cedar-Falls.IA","brand":"Mitsubishi","website":"www.deerymitsubishi.com","address":"6823 University Ave","city":"Cedar Falls","state":"IA","zip":50613,"latitude":42.5124218,"longitude":-92.440407,"phone_number_service":"3192496014","phone_number_main":"3192776200","service_hours":"Mo-Fr 07:30 - 18:00 | Sa 08:00 - 12:00","utc_offset":"-300","gplace_id":null,"gplace_url":"https://maps.google.com/?cid=1330612555167079727","dealerID":66284,"trusted":false,"image_id":"v1597283928/mitsubishi.png","phone":"3192496014","cityStateSlug":"cedar-falls.ia","slug":"Cedar-Falls.IA/john+deery+mitsubishi","location":"42.5124218,-92.440407","brandsList":["mitsubishi"]},{"id":7965,"crm_id":67045027,"name":"Kimberly BMW of Davenport","dealerSlug":"kimberly+bmw+of+davenport","city_state_slug":"Davenport.IA","brand":"BMW","website":"www.bmwofdavenport.com","address":"625 W Kimberly Rd","city":"Davenport","state":"IA","zip":52806,"latitude":41.559496,"longitude":-90.58185,"phone_number_service":"5632396178","phone_number_main":"5633918300","service_hours":"Mo-Fr 07:00 - 17:30 | Sa 07:30 - 15:00","utc_offset":"-300","gplace_id":null,"gplace_url":"https://maps.google.com/?cid=1131737094559808219","dealerID":66319,"trusted":false,"image_id":"v1597283982/bmw_RM.png","phone":"5632396178","cityStateSlug":"davenport.ia","slug":"Davenport.IA/kimberly+bmw+of+davenport","location":"41.559496,-90.58185","brandsList":["bmw"]},{"id":3774,"crm_id":67045054,"name":"Dave Wright Honda","dealerSlug":"dave+wright+honda","city_state_slug":"Marshalltown.IA","brand":"Honda","website":"www.davewrighthonda.com","address":"1000 N 3rd Ave","city":"Marshalltown","state":"IA","zip":50158,"latitude":42.0628023,"longitude":-92.9092855,"phone_number_service":"8558632944","phone_number_main":"6417527103","service_hours":"Mo-Fr 08:00 - 17:00 | Sa 08:00 - 12:00","utc_offset":"-300","gplace_id":null,"gplace_url":"https://maps.google.com/?cid=16554269099168570368","dealerID":66324,"trusted":false,"image_id":"v1597284047/honda_ms.png","phone":"8558632944","cityStateSlug":"marshalltown.ia","slug":"Marshalltown.IA/dave+wright+honda","location":"42.0628023,-92.9092855","brandsList":["honda"]},{"id":5674,"crm_id":67045396,"name":"Gookin Ford Sales","dealerSlug":"gookin+ford+sales","city_state_slug":"Story-City.IA","brand":"Ford","website":"gookinford.net","address":"510 Factory Outlet Dr","city":"Story City","state":"IA","zip":50248,"latitude":42.1856242,"longitude":-93.5735688,"phone_number_service":"8886602818","phone_number_main":"5157334364","service_hours":"Mo-Fr 07:30 - 17:30 | Sa 07:30 - 12:00","utc_offset":"-300","gplace_id":null,"gplace_url":"https://maps.google.com/?cid=9510410957706332496","dealerID":66415,"trusted":false,"image_id":"v1597283967/ford_RM.png","phone":"8886602818","cityStateSlug":"story-city.ia","slug":"Story-City.IA/gookin+ford+sales","location":"42.1856242,-93.5735688","brandsList":["ford"]},{"id":3243,"crm_id":67045930,"name":"Community Motors","dealerSlug":"community+motors","city_state_slug":"Cedar-Falls.IA","brand":"Chevrolet","website":"www.communitymotorscf.com","address":"4521 University Ave","city":"Cedar Falls","state":"IA","zip":50613,"latitude":42.5061157,"longitude":-92.4124573,"phone_number_service":"8883168124","phone_number_main":"8666435610","service_hours":"Mo-Fr 07:00 - 17:00","utc_offset":"-300","gplace_id":null,"gplace_url":"https://maps.google.com/?cid=13363088435891241809","dealerID":66554,"trusted":false,"image_id":"v1597284079/chevy_ms.png","phone":"8883168124","cityStateSlug":"cedar-falls.ia","slug":"Cedar-Falls.IA/community+motors","location":"42.5061157,-92.4124573","brandsList":["chevrolet"]},{"id":9715,"crm_id":67046461,"name":"Mercedes-Benz of Des Moines","dealerSlug":"mercedes+benz+of+des+moines","city_state_slug":"Urbandale.IA","brand":"Mercedes-Benz","website":"www.mercedesbenzdesmoines.com","address":"9993 Hickman Rd","city":"Urbandale","state":"IA","zip":50322,"latitude":41.6158009,"longitude":-93.7546414,"phone_number_service":"8338855861","phone_number_main":"5154463587","service_hours":"Mo-Fr 07:30 - 17:30 | Sa 08:00 - 16:00","utc_offset":"-300","gplace_id":null,"gplace_url":"https://maps.google.com/?cid=3218755857057746196","dealerID":66683,"trusted":false,"image_id":"v1597283934/mercedes_RM.png","phone":"8338855861","cityStateSlug":"urbandale.ia","slug":"Urbandale.IA/mercedes+benz+of+des+moines","location":"41.6158009,-93.7546414","brandsList":["mercedes-benz"]},{"id":12086,"crm_id":67046581,"name":"Randy Kuehl Honda","dealerSlug":"randy+kuehl+honda","city_state_slug":"Rapids.IA","brand":"Honda","website":"www.randykuehl.com","address":"4835 Edgewood Road NE Cedar","city":"Rapids","state":"IA","zip":52411,"latitude":42.0276265,"longitude":-91.7061778,"phone_number_service":"3193935700","phone_number_main":"3193935700","service_hours":"Mo-Fr 07:30 - 17:00| Sa 07:30 - 14:00","utc_offset":"-300","gplace_id":null,"gplace_url":"https://maps.google.com/?cid=7310334954568982883","dealerID":66717,"trusted":false,"image_id":"v1597284047/honda_ms.png","phone":"3193935700","cityStateSlug":"rapids.ia","slug":"Rapids.IA/randy+kuehl+honda","location":"42.0276265,-91.7061778","brandsList":["honda"]},{"id":1555,"crm_id":67046587,"name":"Birdnow Chevrolet Monona","dealerSlug":"birdnow+chevrolet+monona","city_state_slug":"Monona.IA","brand":"Chevrolet","website":"www.birdnowmonona.com","address":"12634 Falcon Ave","city":"Monona","state":"IA","zip":52159,"latitude":43.0426986,"longitude":-91.3888719,"phone_number_service":"5635392061","phone_number_main":"5635392061","service_hours":"Mo-Fr 07:00 - 17:00 | Sa 07:00 - 12:00","utc_offset":"-300","gplace_id":null,"gplace_url":"https://maps.google.com/?cid=8720006920934789596","dealerID":66719,"trusted":false,"image_id":"v1597284079/chevy_ms.png","phone":"5635392061","cityStateSlug":"monona.ia","slug":"Monona.IA/birdnow+chevrolet+monona","location":"43.0426986,-91.3888719","brandsList":["chevrolet"]},{"id":14896,"crm_id":67047142,"name":"Ver Hoef GM","dealerSlug":"ver+hoef+gm","city_state_slug":"Sioux-Center.IA","brand":"Buick,Chevrolet","website":"www.verhoefgm.com/","address":"110 20th St NE","city":"Sioux Center","state":"IA","zip":51250,"latitude":43.0997148,"longitude":-96.1734963,"phone_number_service":"8666133361","phone_number_main":"7127220143","service_hours":"Mo-Fr 08:00 - 17:00 | Sa 08:00 - 12:00","utc_offset":"-300","gplace_id":null,"gplace_url":"https://maps.google.com/?cid=9512645018789166692","dealerID":66868,"trusted":false,"image_id":"v1597283981/buick_RM.png","phone":"8666133361","cityStateSlug":"sioux-center.ia","slug":"Sioux-Center.IA/ver+hoef+gm","location":"43.0997148,-96.1734963","brandsList":["buick","chevrolet"]},{"id":2601,"crm_id":67047301,"name":"Carousel Nissan","dealerSlug":"carousel+nissan","city_state_slug":"Iowa-City.IA","brand":"Nissan","website":"www.carouselnissan.com","address":"817 Hwy 1 W","city":"Iowa City","state":"IA","zip":52246,"latitude":41.6459773,"longitude":-91.5515725,"phone_number_service":"3192143739","phone_number_main":"3193375000","service_hours":"Mo-Fr 07:30 - 17:30 | Sa 07:30 - 12:00","utc_offset":"-300","gplace_id":null,"gplace_url":"https://maps.google.com/?cid=5054758612317966303","dealerID":66911,"trusted":false,"image_id":"v1597283926/nissan_RM.png","phone":"3192143739","cityStateSlug":"iowa-city.ia","slug":"Iowa-City.IA/carousel+nissan","location":"41.6459773,-91.5515725","brandsList":["nissan"]},{"id":3923,"crm_id":67047496,"name":"Delzell Brothers","dealerSlug":"delzell+brothers","city_state_slug":"Wapello.IA","brand":"Chrysler,Dodge,Jeep,RAM","website":"www.delzellbrothers.com","address":"13409 State Highway 78","city":"Wapello","state":"IA","zip":52653,"latitude":41.0871071,"longitude":-91.1848811,"phone_number_service":"3198048225","phone_number_main":"3198687563","service_hours":"Mo-Fr 08:00 - 17:00 | Sa 08:00 - 12:00","utc_offset":"-300","gplace_id":null,"gplace_url":"https://maps.google.com/?cid=6345154915036560686","dealerID":66973,"trusted":false,"image_id":"v1597283975/chrysler_RM.png","phone":"3198048225","cityStateSlug":"wapello.ia","slug":"Wapello.IA/delzell+brothers","location":"41.0871071,-91.1848811","brandsList":["chrysler","dodge","jeep","ram"]},{"id":15347,"crm_id":67047532,"name":"Wes Finch Auto Plaza","dealerSlug":"wes+finch+auto+plaza","city_state_slug":"Grinnell.IA","brand":"Buick,Chevrolet,GMC","website":"www.wesfinchauto.com","address":"410 W St S","city":"Grinnell","state":"IA","zip":50112,"latitude":41.7263316,"longitude":-92.7261014,"phone_number_service":"8669241809","phone_number_main":"6418540406","service_hours":"Mo-Fr 07:30 - 17:30 | Sa 08:00 - 12:00","utc_offset":"-300","gplace_id":null,"gplace_url":"https://maps.google.com/?cid=12548899701150267076","dealerID":66983,"trusted":false,"image_id":"v1597283981/buick_RM.png","phone":"8669241809","cityStateSlug":"grinnell.ia","slug":"Grinnell.IA/wes+finch+auto+plaza","location":"41.7263316,-92.7261014","brandsList":["buick","chevrolet","gmc"]},{"id":15594,"crm_id":67047673,"name":"Wittrock Motor Company","dealerSlug":"wittrock+motor+company","city_state_slug":"Carroll.IA","brand":"Chrysler,Dodge,Jeep,RAM","website":"www.wittrockmotor.com","address":"1019 W US Highway 30","city":"Carroll","state":"IA","zip":51401,"latitude":42.0726344,"longitude":-94.8803714,"phone_number_service":"8442895311","phone_number_main":"7127929234","service_hours":"Mo-Fr 07:00 - 17:30 | Sa 07:00 - 13:30","utc_offset":"-300","gplace_id":null,"gplace_url":"https://maps.google.com/?cid=8075589426164062560","dealerID":67017,"trusted":false,"image_id":"v1597283975/chrysler_RM.png","phone":"8442895311","cityStateSlug":"carroll.ia","slug":"Carroll.IA/wittrock+motor+company","location":"42.0726344,-94.8803714","brandsList":["chrysler","dodge","jeep","ram"]},{"id":13176,"crm_id":67048687,"name":"Shottenkirk Chevrolet","dealerSlug":"shottenkirk+chevrolet","city_state_slug":"Waukee.IA","brand":"Chevrolet","website":"www.shottenkirkchevy.net","address":"755 Hickman Rd","city":"Waukee","state":"IA","zip":50263,"latitude":41.6161359,"longitude":-93.887371,"phone_number_service":"8773790660","phone_number_main":"5156505434","service_hours":"Mo-Fr 07:30 - 17:30 | Sa 07:30 - 12:00","utc_offset":"-300","gplace_id":null,"gplace_url":"https://maps.google.com/?cid=16776423235349070906","dealerID":67282,"trusted":false,"image_id":"v1597284079/chevy_ms.png","phone":"8773790660","cityStateSlug":"waukee.ia","slug":"Waukee.IA/shottenkirk+chevrolet","location":"41.6161359,-93.887371","brandsList":["chevrolet"]},{"id":9548,"crm_id":67048858,"name":"McGrath Kia","dealerSlug":"mcgrath+kia","city_state_slug":"Hiawatha.IA","brand":"Kia","website":"www.mcgrathkia.com","address":"1020 N Center Point Rd","city":"Hiawatha","state":"IA","zip":52233,"latitude":42.047323,"longitude":-91.685039,"phone_number_service":"3193837842","phone_number_main":"3192496019","service_hours":"Mo-Fr 07:00 - 17:30","utc_offset":"-300","gplace_id":null,"gplace_url":"https://maps.google.com/?cid=12608169196413283332","dealerID":67331,"trusted":false,"image_id":"v1597283948/kia_RM.png","phone":"3193837842","cityStateSlug":"hiawatha.ia","slug":"Hiawatha.IA/mcgrath+kia","location":"42.047323,-91.685039","brandsList":["kia"]},{"id":5621,"crm_id":67049179,"name":"Glendenning Motor Company","dealerSlug":"glendenning+motor+company","city_state_slug":"Mt-Ayr.IA","brand":"Buick,Chevrolet,GMC","website":"www.glendenningmtr.com/","address":"1100 E South St","city":"Mt Ayr","state":"IA","zip":50854,"latitude":40.7114517,"longitude":-94.2250088,"phone_number_service":"8667794715","phone_number_main":"6418122049","service_hours":"Mo-Fr 08:00 - 17:00","utc_offset":"-300","gplace_id":null,"gplace_url":"https://maps.google.com/?cid=15877040994561881222","dealerID":67419,"trusted":false,"image_id":"v1597283981/buick_RM.png","phone":"8667794715","cityStateSlug":"mt-ayr.ia","slug":"Mt-Ayr.IA/glendenning+motor+company","location":"40.7114517,-94.2250088","brandsList":["buick","chevrolet","gmc"]},{"id":3776,"crm_id":67049239,"name":"Dave Wright Subaru","dealerSlug":"dave+wright+subaru","city_state_slug":"Hiawatha.IA","brand":"Subaru","website":"www.davewrightsubaru.com","address":"999 Boyson Rd","city":"Hiawatha","state":"IA","zip":52233,"latitude":42.0471544,"longitude":-91.6812524,"phone_number_service":"8777308498","phone_number_main":"8882748189","service_hours":"Mo-Fr 07:30 - 17:00 | Sa 08:00 - 13:00","utc_offset":"-300","gplace_id":null,"gplace_url":"https://maps.google.com/?cid=7666127018827760274","dealerID":67438,"trusted":false,"image_id":"v1597283982/subaru_ms.png","phone":"8777308498","cityStateSlug":"hiawatha.ia","slug":"Hiawatha.IA/dave+wright+subaru","location":"42.0471544,-91.6812524","brandsList":["subaru"]},{"id":3775,"crm_id":67049275,"name":"Dave Wright Nissan","dealerSlug":"dave+wright+nissan","city_state_slug":"Hiawatha.IA","brand":"Nissan","website":"www.davewrightnissan.com","address":"999 Boyson Rd","city":"Hiawatha","state":"IA","zip":52233,"latitude":42.0470738,"longitude":-91.6808331,"phone_number_service":"8556192889","phone_number_main":"8556615757","service_hours":"Mo-Fr 07:30 - 17:00 | Sa 08:00 - 13:00","utc_offset":"-300","gplace_id":null,"gplace_url":"https://maps.google.com/?cid=17727759731915952067","dealerID":67448,"trusted":false,"image_id":"v1597283926/nissan_RM.png","phone":"8556192889","cityStateSlug":"hiawatha.ia","slug":"Hiawatha.IA/dave+wright+nissan","location":"42.0470738,-91.6808331","brandsList":["nissan"]},{"id":13289,"crm_id":67050436,"name":"Smart Honda","dealerSlug":"smart+honda","city_state_slug":"Des-Moines.IA","brand":"Honda","website":"www.smarthondadesmoines.com","address":"11206 Hickman Rd","city":"Des Moines","state":"IA","zip":50325,"latitude":41.61398,"longitude":-93.7730324,"phone_number_service":"5152533014","phone_number_main":"5152533040","service_hours":"Mo-Th 07:00 - 19:00 | Fr 07:00 - 18:00 | Sa 07:00 - 17:00","utc_offset":"-300","gplace_id":null,"gplace_url":"https://maps.google.com/?cid=2769791063003118726","dealerID":67773,"trusted":false,"image_id":"v1597284047/honda_ms.png","phone":"5152533014","cityStateSlug":"des-moines.ia","slug":"Des-Moines.IA/smart+honda","location":"41.61398,-93.7730324","brandsList":["honda"]},{"id":6582,"crm_id":67051393,"name":"Honda of Ames","dealerSlug":"honda+of+ames","city_state_slug":"Ames.IA","brand":"Honda","website":"www.ameshonda.com","address":"220 Kitty Hawk Dr","city":"Ames","state":"IA","zip":50010,"latitude":41.9968414,"longitude":-93.6123581,"phone_number_service":"8889603971","phone_number_main":"5158171713","service_hours":"Mo-Fr 07:30 - 17:00 | Sa 07:30 - 16:00","utc_offset":"-300","gplace_id":null,"gplace_url":"https://maps.google.com/?cid=687795494402567627","dealerID":68031,"trusted":false,"image_id":"v1597284047/honda_ms.png","phone":"8889603971","cityStateSlug":"ames.ia","slug":"Ames.IA/honda+of+ames","location":"41.9968414,-93.6123581","brandsList":["honda"]},{"id":10028,"crm_id":67051567,"name":"Mike Molstead Motors","dealerSlug":"mike+molstead+motors","city_state_slug":"Charles-City.IA","brand":"Jeep,RAM","website":"www.mikemolsteadmotors.com","address":"1501 S Grand Ave","city":"Charles City","state":"IA","zip":50616,"latitude":43.0478184,"longitude":-92.6735384,"phone_number_service":"8448196091","phone_number_main":"6412287220","service_hours":"Mo-Fr 07:30 - 17:00","utc_offset":"-300","gplace_id":null,"gplace_url":"https://maps.google.com/?cid=8415179386012275785","dealerID":68077,"trusted":false,"image_id":"v1597284085/jeep_ms.png","phone":"8448196091","cityStateSlug":"charles-city.ia","slug":"Charles-City.IA/mike+molstead+motors","location":"43.0478184,-92.6735384","brandsList":["jeep","ram"]},{"id":4822,"crm_id":67051801,"name":"Finnin Ford","dealerSlug":"finnin+ford","city_state_slug":"Dubuque.IA","brand":"Ford","website":"www.finninford.com","address":"3600 Dodge Street","city":"Dubuque","state":"IA","zip":52003,"latitude":42.4904803,"longitude":-90.7281128,"phone_number_service":"5635561010","phone_number_main":"5635561010","service_hours":"Mo-Fr 07:00 - 17:00 | Sa 08:00 - 12:00","utc_offset":"-300","gplace_id":null,"gplace_url":"https://maps.google.com/?cid=4865018878737348467","dealerID":68140,"trusted":false,"image_id":"v1597283967/ford_RM.png","phone":"5635561010","cityStateSlug":"dubuque.ia","slug":"Dubuque.IA/finnin+ford","location":"42.4904803,-90.7281128","brandsList":["ford"]},{"id":13178,"crm_id":67051978,"name":"Shottenkirk Chrysler Dodge Jeep RAM","dealerSlug":"shottenkirk+chrysler+dodge+jeep+ram","city_state_slug":"West-Burlington.IA","brand":"Chrysler,Dodge,Jeep,RAM","website":"www.shottenkirkchryslerramdodgejeep.com","address":"309 S Gear Ave","city":"West Burlington","state":"IA","zip":52655,"latitude":40.8233568,"longitude":-91.1720273,"phone_number_service":"3192080544","phone_number_main":"3193597050","service_hours":"Mo-Fr 07:30 - 17:30 | Sa 07:30 - 12:00","utc_offset":"-300","gplace_id":null,"gplace_url":"https://maps.google.com/?cid=5459114440185132902","dealerID":68194,"trusted":false,"image_id":"v1597283975/chrysler_RM.png","phone":"3192080544","cityStateSlug":"west-burlington.ia","slug":"West-Burlington.IA/shottenkirk+chrysler+dodge+jeep+ram","location":"40.8233568,-91.1720273","brandsList":["chrysler","dodge","jeep","ram"]},{"id":3889,"crm_id":67053253,"name":"Deery Brothers Ford Lincoln","dealerSlug":"deery+brothers+ford+lincoln","city_state_slug":"Iowa-City.IA","brand":"Ford,Lincoln","website":"www.deeryford.com","address":"2343 Mormon Trek Blvd","city":"Iowa City","state":"IA","zip":52246,"latitude":41.6361269,"longitude":-91.5664945,"phone_number_service":"8448137623","phone_number_main":"3193374600","service_hours":"Mo-Fr 07:00 - 17:30 | Sa 08:00 - 12:00","utc_offset":"-300","gplace_id":null,"gplace_url":"https://maps.google.com/?cid=8136926378506739365","dealerID":68542,"trusted":false,"image_id":"v1597283967/ford_RM.png","phone":"8448137623","cityStateSlug":"iowa-city.ia","slug":"Iowa-City.IA/deery+brothers+ford+lincoln","location":"41.6361269,-91.5664945","brandsList":["ford","lincoln"]},{"id":6767,"crm_id":67053682,"name":"Hummel's Nissan","dealerSlug":"hummels+nissan","city_state_slug":"Des-Moines.IA","brand":"Nissan","website":"www.hummelsnissan.com","address":"4770 Merle Hay Rd","city":"Des Moines","state":"IA","zip":50322,"latitude":41.6477668,"longitude":-93.6990832,"phone_number_service":"8884009698","phone_number_main":"8884913822","service_hours":"Mo-Th 07:00 - 18:00 | Fr 07:00 - 17:00 | Sa 07:30 - 13:00","utc_offset":"-300","gplace_id":null,"gplace_url":"https://maps.google.com/?cid=14527330750714217304","dealerID":68659,"trusted":false,"image_id":"v1597283926/nissan_RM.png","phone":"8884009698","cityStateSlug":"des-moines.ia","slug":"Des-Moines.IA/hummels+nissan","location":"41.6477668,-93.6990832","brandsList":["nissan"]},{"id":15534,"crm_id":67054690,"name":"Willis Lexus","dealerSlug":"willis+lexus","city_state_slug":"Des-Moines.IA","brand":"Lexus","website":"www.willislexus.com","address":"Service 2131 NW 100th St","city":"Des Moines","state":"IA","zip":50325,"latitude":41.609472,"longitude":-93.7551891,"phone_number_service":"8556382238","phone_number_main":"8556382238","service_hours":"Mo-Fr 07:00 - 18:00 | Sa 09:00 - 13:00","utc_offset":"-300","gplace_id":null,"gplace_url":"https://maps.google.com/?cid=6670048956574963320","dealerID":68940,"trusted":false,"image_id":"v1597284042/lexus_ms.png","phone":"8556382238","cityStateSlug":"des-moines.ia","slug":"Des-Moines.IA/willis+lexus","location":"41.609472,-93.7551891","brandsList":["lexus"]},{"id":540,"crm_id":67054750,"name":"Audi Des Moines","dealerSlug":"audi+des+moines","city_state_slug":"Johnston.IA","brand":"Audi","website":"www.audiofdesmoines.com","address":"5190 Merle Hay Rd","city":"Johnston","state":"IA","zip":50131,"latitude":41.6548,"longitude":-93.6987,"phone_number_service":"8775533239","phone_number_main":"5154463583","service_hours":"Mo-Fr 07:00 - 17:00 | Sa 07:30 - 15:00","utc_offset":"-300","gplace_id":null,"gplace_url":"https://maps.google.com/?cid=15605437404253709260","dealerID":68958,"trusted":false,"image_id":"v1597283985/audi_RM.png","phone":"8775533239","cityStateSlug":"johnston.ia","slug":"Johnston.IA/audi+des+moines","location":"41.6548,-93.6987","brandsList":["audi"]},{"id":12312,"crm_id":67055116,"name":"Rick Collins Toyota","dealerSlug":"rick+collins+toyota","city_state_slug":"Sioux-City.IA","brand":"Toyota","website":"www.rickcollinstoyota.com","address":"3131 Singing Hills Blvd","city":"Sioux City","state":"IA","zip":51106,"latitude":42.4368603,"longitude":-96.3673212,"phone_number_service":"8884409186","phone_number_main":"7122774271","service_hours":"Mo-Fr 07:00 - 18:00 | Sa 08:00 - 16: 00","utc_offset":"-300","gplace_id":null,"gplace_url":"https://maps.google.com/?cid=4758043051891600733","dealerID":69056,"trusted":false,"image_id":"v1597284039/toyota_ms.png","phone":"8884409186","cityStateSlug":"sioux-city.ia","slug":"Sioux-City.IA/rick+collins+toyota","location":"42.4368603,-96.3673212","brandsList":["toyota"]},{"id":13246,"crm_id":67055488,"name":"Sioux City Ford Lincoln","dealerSlug":"sioux+city+ford+lincoln","city_state_slug":"Sioux-City.IA","brand":"Ford,Lincoln","website":"www.siouxcityford.com","address":"3601 Singing Hills Blvd","city":"Sioux City","state":"IA","zip":51106,"latitude":42.4389812,"longitude":-96.3621208,"phone_number_service":"8662750399","phone_number_main":"7122778420","service_hours":"Mo-Fr 07:00 - 18:00 | Sa 08:00 - 17:00","utc_offset":"-300","gplace_id":null,"gplace_url":"https://maps.google.com/?cid=716388551717764058","dealerID":69164,"trusted":false,"image_id":"v1597283967/ford_RM.png","phone":"8662750399","cityStateSlug":"sioux-city.ia","slug":"Sioux-City.IA/sioux+city+ford+lincoln","location":"42.4389812,-96.3621208","brandsList":["ford","lincoln"]},{"id":3887,"crm_id":67056568,"name":"Deery Brothers Chrysler Dodge Jeep RAM","dealerSlug":"deery+brothers+chrysler+dodge+jeep+ram","city_state_slug":"Waukee.IA","brand":"Chrysler,Dodge,Jeep,RAM","website":"www.deerywaukee.com","address":"1000 West Hickman","city":"Waukee","state":"IA","zip":50263,"latitude":42.0357031,"longitude":-93.2810337,"phone_number_service":"515650208","phone_number_main":"5155005758","service_hours":"Mo-Fr 07:00 - 18:00 | Sa 08:00 - 16:00","utc_offset":"-300","gplace_id":null,"gplace_url":"https://maps.google.com/?cid=6475107874873218786","dealerID":69444,"trusted":false,"image_id":"v1597283975/chrysler_RM.png","phone":"515650208","cityStateSlug":"waukee.ia","slug":"Waukee.IA/deery+brothers+chrysler+dodge+jeep+ram","location":"42.0357031,-93.2810337","brandsList":["chrysler","dodge","jeep","ram"]},{"id":14454,"crm_id":67056742,"name":"Toyota of Des Moines","dealerSlug":"toyota+of+des+moines","city_state_slug":"Grimes.IA","brand":"Toyota","website":"www.toyotadm.com","address":"1650 SE 37th St","city":"Grimes","state":"IA","zip":50111,"latitude":41.656965,"longitude":-93.776591,"phone_number_service":"5152182259","phone_number_main":"5152764911","service_hours":"Mo-Fr 07:00 - 18:00 | Sa 07:00 - 16:30","utc_offset":"-300","gplace_id":null,"gplace_url":"https://maps.google.com/?cid=14112420413373901361","dealerID":69495,"trusted":false,"image_id":"v1597284039/toyota_ms.png","phone":"5152182259","cityStateSlug":"grimes.ia","slug":"Grimes.IA/toyota+of+des+moines","location":"41.656965,-93.776591","brandsList":["toyota"]},{"id":15555,"crm_id":67057201,"name":"Wilson Toyota of Ames","dealerSlug":"wilson+toyota+of+ames","city_state_slug":"Ames.IA","brand":"Toyota","website":"www.wilsonofamestoyota.com","address":"2212 S Duff Ave","city":"Ames","state":"IA","zip":50010,"latitude":42.0024268,"longitude":-93.6082861,"phone_number_service":"8885661203","phone_number_main":"8884855650","service_hours":"Mo-Fr 07:00 - 18:00 | Sa 07:00 - 17:00","utc_offset":"-300","gplace_id":null,"gplace_url":"https://maps.google.com/?cid=17166140178007263127","dealerID":69619,"trusted":false,"image_id":"v1597284039/toyota_ms.png","phone":"8885661203","cityStateSlug":"ames.ia","slug":"Ames.IA/wilson+toyota+of+ames","location":"42.0024268,-93.6082861","brandsList":["toyota"]},{"id":10245,"crm_id":67057999,"name":"Moffitt's Ford Lincoln","dealerSlug":"moffitts+ford+lincoln","city_state_slug":"Boone.IA","brand":"Ford,Lincoln","website":"www.moffittsford.com","address":"1819 SE Marshall St","city":"Boone","state":"IA","zip":50036,"latitude":42.0359344,"longitude":-93.8649735,"phone_number_service":"8883755692","phone_number_main":"5154326336","service_hours":"Mo-Fr 07:30 - 17:00 | Sa 07:30 - 12:00","utc_offset":"-300","gplace_id":null,"gplace_url":"https://maps.google.com/?cid=15530903996007761562","dealerID":69833,"trusted":false,"image_id":"v1597283967/ford_RM.png","phone":"8883755692","cityStateSlug":"boone.ia","slug":"Boone.IA/moffitts+ford+lincoln","location":"42.0359344,-93.8649735","brandsList":["ford","lincoln"]},{"id":7722,"crm_id":67058296,"name":"Keast Auto Center","dealerSlug":"keast+auto+center","city_state_slug":"Harlan.IA","brand":"Ford","website":"www.keastford.com","address":"2101 23rd St","city":"Harlan","state":"IA","zip":51537,"latitude":41.6477929,"longitude":-95.3407265,"phone_number_service":"8886117102","phone_number_main":"7127552116","service_hours":"Mo-Fr 07:30 - 17:30 | Sa 07:30 - 12:00","utc_offset":"-300","gplace_id":null,"gplace_url":"https://maps.google.com/?cid=16691210320084381798","dealerID":69924,"trusted":false,"image_id":"v1597283967/ford_RM.png","phone":"8886117102","cityStateSlug":"harlan.ia","slug":"Harlan.IA/keast+auto+center","location":"41.6477929,-95.3407265","brandsList":["ford"]},{"id":15066,"crm_id":67058749,"name":"Vollmar Motors","dealerSlug":"vollmar+motors","city_state_slug":"Holstein.IA","brand":"Buick,Chevrolet","website":"www.vollmarmotors.com","address":"117 W Second","city":"Holstein","state":"IA","zip":51025,"latitude":42.4890891,"longitude":-95.5458182,"phone_number_service":"8776357344","phone_number_main":"7123684614","service_hours":"Mo-Fr 07:30 - 17:30 | Sa 07:30 - 12:00","utc_offset":"-300","gplace_id":null,"gplace_url":"https://maps.google.com/?cid=1525647040985190662","dealerID":70057,"trusted":false,"image_id":"v1597283981/buick_RM.png","phone":"8776357344","cityStateSlug":"holstein.ia","slug":"Holstein.IA/vollmar+motors","location":"42.4890891,-95.5458182","brandsList":["buick","chevrolet"]},{"id":1565,"crm_id":67058779,"name":"Decorah Auto Center","dealerSlug":"decorah+auto+center","city_state_slug":"Decorah.IA","brand":"Ford","website":"www.karautogroup.com","address":"2072 Highway 9 West","city":"Decorah","state":"IA","zip":52101,"latitude":43.2923305,"longitude":-91.8093265,"phone_number_service":"5633823919","phone_number_main":"6083268400","service_hours":"","utc_offset":"-300","gplace_id":null,"gplace_url":"https://maps.google.com/?cid=13621004016358258440","dealerID":70065,"trusted":false,"image_id":"v1597283967/ford_RM.png","phone":"5633823919","cityStateSlug":"decorah.ia","slug":"Decorah.IA/decorah+auto+center","location":"43.2923305,-91.8093265","brandsList":["ford"]},{"id":13530,"crm_id":67058788,"name":"Stalker Chevrolet","dealerSlug":"stalker+chevrolet","city_state_slug":"Creston.IA","brand":"Chevrolet","website":"www.stalkergm.com","address":"601 S Sumner Ave","city":"Creston","state":"IA","zip":50801,"latitude":41.0503079,"longitude":-94.3710469,"phone_number_service":"8665610528","phone_number_main":"5156501168","service_hours":"Mo-Fr 08:00 - 17:00","utc_offset":"-300","gplace_id":null,"gplace_url":"https://maps.google.com/?cid=3840686659758557083","dealerID":70068,"trusted":false,"image_id":"v1597284079/chevy_ms.png","phone":"8665610528","cityStateSlug":"creston.ia","slug":"Creston.IA/stalker+chevrolet","location":"41.0503079,-94.3710469","brandsList":["chevrolet"]},{"id":5742,"crm_id":67059400,"name":"Granger Motors","dealerSlug":"granger+motors","city_state_slug":"Granger.IA","brand":"Chrysler,Dodge,Jeep,RAM","website":"www.grangermotors.com","address":"1708 Sycamore St","city":"Granger","state":"IA","zip":50109,"latitude":41.7572023,"longitude":-93.8232867,"phone_number_service":"8445758368","phone_number_main":"5159992224","service_hours":"Mo-Th 07:30 - 19:00 | Fr 07:30 - 17:30 | Sa 07:30 - 14:00","utc_offset":"-300","gplace_id":null,"gplace_url":"https://maps.google.com/?cid=17317291557711421320","dealerID":70233,"trusted":false,"image_id":"v1597283975/chrysler_RM.png","phone":"8445758368","cityStateSlug":"granger.ia","slug":"Granger.IA/granger+motors","location":"41.7572023,-93.8232867","brandsList":["chrysler","dodge","jeep","ram"]},{"id":5741,"crm_id":67059406,"name":"Granger Ford","dealerSlug":"granger+ford","city_state_slug":"Granger.IA","brand":"Ford","website":"www.grangerford.com/","address":"1704 Sycamore St.","city":"Granger","state":"IA","zip":50109,"latitude":41.7579464,"longitude":-93.826592,"phone_number_service":"8884858408","phone_number_main":"5159992224","service_hours":"Mo-Th 07:30 - 19:00 | Fr 07:30 - 17:30 | Sa 07:30 - 14:00","utc_offset":"-300","gplace_id":null,"gplace_url":"https://maps.google.com/?cid=17317291557711421320","dealerID":70235,"trusted":false,"image_id":"v1597283967/ford_RM.png","phone":"8884858408","cityStateSlug":"granger.ia","slug":"Granger.IA/granger+ford","location":"41.7579464,-93.826592","brandsList":["ford"]},{"id":13293,"crm_id":67059592,"name":"Smart Lexus of Quad Cities","dealerSlug":"smart+lexus+of+quad+cities","city_state_slug":"Davenport.IA","brand":"Lexus","website":"www.smartlexusofquadcities.com/","address":"101 W Kimberly Rd SUITE 2","city":"Davenport","state":"IA","zip":52806,"latitude":41.5597412,"longitude":-90.5731453,"phone_number_service":"5634454890","phone_number_main":"5634454890","service_hours":"Mo-Fr 07:00 - 18:00 | Sa 08:00 - 17:00","utc_offset":"-300","gplace_id":null,"gplace_url":"https://maps.google.com/?cid=4467103565555110464","dealerID":70283,"trusted":false,"image_id":"v1597284042/lexus_ms.png","phone":"5634454890","cityStateSlug":"davenport.ia","slug":"Davenport.IA/smart+lexus+of+quad+cities","location":"41.5597412,-90.5731453","brandsList":["lexus"]},{"id":3773,"crm_id":67060054,"name":"Dave Wright Chrysler Dodge Jeep RAM","dealerSlug":"dave+wright+chrysler+dodge+jeep+ram","city_state_slug":"Marshalltown.IA","brand":"Chrysler,Dodge,Jeep,RAM","website":"www.davewrightcdjr.com","address":"908 N 3rd Ave","city":"Marshalltown","state":"IA","zip":50158,"latitude":42.0616334,"longitude":-92.9089649,"phone_number_service":"6413517292","phone_number_main":"6417523636","service_hours":"Mo 08:30 - 19:00 | Tu 08:30 - 18:00 | We 08:30 - 18:00 | Th 08:30 - 19:00 | Fr 08:30 - 18:00 | Sa 08:30 - 16:00","utc_offset":"-300","gplace_id":null,"gplace_url":"https://maps.google.com/?cid=10230445044619881053","dealerID":70413,"trusted":false,"image_id":"v1597283975/chrysler_RM.png","phone":"6413517292","cityStateSlug":"marshalltown.ia","slug":"Marshalltown.IA/dave+wright+chrysler+dodge+jeep+ram","location":"42.0616334,-92.9089649","brandsList":["chrysler","dodge","jeep","ram"]},{"id":77,"crm_id":67060294,"name":"Acura of Johnston","dealerSlug":"acura+of+johnston","city_state_slug":"Johnston.IA","brand":"Acura","website":"www.acuraofjohnston.com","address":"5138 Merle Hay Rd","city":"Johnston","state":"IA","zip":50131,"latitude":41.6538275,"longitude":-93.6986587,"phone_number_service":"8889602870","phone_number_main":"5154463581","service_hours":"Mo-Fr 07:00 - 17:00 | Sa 08:00 - 15:00","utc_offset":"-300","gplace_id":null,"gplace_url":"https://maps.google.com/?cid=14267549248444381631","dealerID":70479,"trusted":false,"image_id":"v1597283988/acura.png","phone":"8889602870","cityStateSlug":"johnston.ia","slug":"Johnston.IA/acura+of+johnston","location":"41.6538275,-93.6986587","brandsList":["acura"]},{"id":4262,"crm_id":67060486,"name":"Dunlap Motors","dealerSlug":"dunlap+motors","city_state_slug":"Independence.IA","brand":"Buick,Chevrolet,GMC","website":"www.dunlapmotorsindy.com","address":"520 1st St E","city":"Independence","state":"IA","zip":50644,"latitude":42.468932,"longitude":-91.888414,"phone_number_service":"8886307816","phone_number_main":"3193347103","service_hours":"Mo 08:00 - 19:00 | Tu-Fr 08:00 - 18:00 | Sa 08:00 - 15:00","utc_offset":"-300","gplace_id":null,"gplace_url":"https://maps.google.com/?cid=7202298767379781361","dealerID":70528,"trusted":false,"image_id":"v1597283981/buick_RM.png","phone":"8886307816","cityStateSlug":"independence.ia","slug":"Independence.IA/dunlap+motors","location":"42.468932,-91.888414","brandsList":["buick","chevrolet","gmc"]},{"id":13185,"crm_id":67060687,"name":"Shottenkirk Superstore West Burlington","dealerSlug":"shottenkirk+superstore+west+burlington","city_state_slug":"West-Burlington.IA","brand":"Ford","website":"www.shottenkirksuperstore.com","address":"309 S Gear Ave","city":"West Burlington","state":"IA","zip":52655,"latitude":40.8233914,"longitude":-91.1719918,"phone_number_service":"3194096408","phone_number_main":"3198200329","service_hours":"Mo-Fr 07:30 - 17:30 | Sa 08:00-12:00","utc_offset":"-300","gplace_id":null,"gplace_url":"https://maps.google.com/?cid=6355995189401089972","dealerID":70585,"trusted":false,"image_id":"v1597283967/ford_RM.png","phone":"3194096408","cityStateSlug":"west-burlington.ia","slug":"West-Burlington.IA/shottenkirk+superstore+west+burlington","location":"40.8233914,-91.1719918","brandsList":["ford"]},{"id":15621,"crm_id":67060726,"name":"Woodhouse Chevy Buick","dealerSlug":"woodhouse+chevy+buick","city_state_slug":"Missouri-Valley.IA","brand":"Buick,Chevrolet","website":"www.woodhousegm.com","address":"1951 Highway 30","city":"Missouri Valley","state":"IA","zip":51555,"latitude":41.5509515,"longitude":-95.9254894,"phone_number_service":"8666063418","phone_number_main":"7126424131","service_hours":"Mo-Fr 07:30 - 17:30 | Sa 08:00 - 13:00","utc_offset":"-300","gplace_id":null,"gplace_url":"https://maps.google.com/?cid=13491292577105395138","dealerID":70596,"trusted":false,"image_id":"v1597283981/buick_RM.png","phone":"8666063418","cityStateSlug":"missouri-valley.ia","slug":"Missouri-Valley.IA/woodhouse+chevy+buick","location":"41.5509515,-95.9254894","brandsList":["buick","chevrolet"]},{"id":3648,"crm_id":67060942,"name":"Dahl Ford","dealerSlug":"dahl+ford","city_state_slug":"Davenport.IA","brand":"Ford","website":"www.dahlford.com","address":"1310 E Kimberly Rd","city":"Davenport","state":"IA","zip":52807,"latitude":41.557513,"longitude":-90.555942,"phone_number_service":"5633912600","phone_number_main":"5633912600","service_hours":"Mo-Fr 07:30 - 17:30 | Sa 07:30 - 14:00","utc_offset":"-300","gplace_id":null,"gplace_url":"https://maps.google.com/?cid=4824129592799816118","dealerID":70656,"trusted":false,"image_id":"v1597283967/ford_RM.png","phone":"5633912600","cityStateSlug":"davenport.ia","slug":"Davenport.IA/dahl+ford","location":"41.557513,-90.555942","brandsList":["ford"]},{"id":295,"crm_id":67066420,"name":"Ames Ford Lincoln","dealerSlug":"ames+ford+lincoln","city_state_slug":"Ames.IA","brand":"Ford,Lincoln","website":"www.amesford.com","address":"123 Airport Rd","city":"Ames","state":"IA","zip":50010,"latitude":42.002239,"longitude":-93.6111,"phone_number_service":"5152331916","phone_number_main":"5152331913","service_hours":"Mo-Fr 07:00 - 18:00 | Sa 07:30 - 17:00","utc_offset":"-300","gplace_id":null,"gplace_url":"https://maps.google.com/?cid=1973592211730749650","dealerID":72124,"trusted":false,"image_id":"v1597283967/ford_RM.png","phone":"5152331916","cityStateSlug":"ames.ia","slug":"Ames.IA/ames+ford+lincoln","location":"42.002239,-93.6111","brandsList":["ford","lincoln"]},{"id":5500,"crm_id":67066423,"name":"George White Chevrolet","dealerSlug":"george+white+chevrolet","city_state_slug":"Ames.IA","brand":"Chevrolet","website":"www.georgewhiteames.com","address":"1719 S. High Ave (Corner of New Hwy 30 & 69)","city":"Ames","state":"IA","zip":50010,"latitude":42.006383,"longitude":-93.607928,"phone_number_service":"8667209522","phone_number_main":"5155984970","service_hours":"Mo-Fr 07:00 - 17:00 | Sa 07:30 - 12:00","utc_offset":"-300","gplace_id":null,"gplace_url":"https://maps.google.com/?cid=17870465636044163007","dealerID":72125,"trusted":false,"image_id":"v1597284079/chevy_ms.png","phone":"8667209522","cityStateSlug":"ames.ia","slug":"Ames.IA/george+white+chevrolet","location":"42.006383,-93.607928","brandsList":["chevrolet"]},{"id":1831,"crm_id":67066426,"name":"Bob Brown Buick GMC","dealerSlug":"bob+brown+buick+gmc","city_state_slug":"Ankeny.IA","brand":"Buick,GMC","website":"www.bobbrownbuickgmc.com","address":"1405 SE Oralabor Rd","city":"Ankeny","state":"IA","zip":50021,"latitude":41.701832,"longitude":-93.573634,"phone_number_service":"8885360356","phone_number_main":"5152895900","service_hours":"Mo-Fr 07:00 - 18:00 | Sa 08:00 - 13:00","utc_offset":"-300","gplace_id":null,"gplace_url":"https://maps.google.com/?cid=15420959995292996528","dealerID":72126,"trusted":false,"image_id":"v1597283981/buick_RM.png","phone":"8885360356","cityStateSlug":"ankeny.ia","slug":"Ankeny.IA/bob+brown+buick+gmc","location":"41.701832,-93.573634","brandsList":["buick","gmc"]},{"id":3987,"crm_id":67066429,"name":"Dewey Ford","dealerSlug":"dewey+ford","city_state_slug":"Ankeny.IA","brand":"Ford","website":"www.deweyford.com","address":"3055 SE Delaware Ave","city":"Ankeny","state":"IA","zip":50021,"latitude":41.698464,"longitude":-93.5782341,"phone_number_service":"5152598630","phone_number_main":"5152894949","service_hours":"Mo-Fr 07:00 - 18:00 | Sa 07:00 - 14:00","utc_offset":"-300","gplace_id":null,"gplace_url":"https://maps.google.com/?cid=14294837607869137408","dealerID":72127,"trusted":false,"image_id":"v1597283967/ford_RM.png","phone":"5152598630","cityStateSlug":"ankeny.ia","slug":"Ankeny.IA/dewey+ford","location":"41.698464,-93.5782341","brandsList":["ford"]},{"id":2916,"crm_id":67066432,"name":"Christiansen Motors","dealerSlug":"christiansen+motors","city_state_slug":"Audubon.IA","brand":"Buick,Chevrolet","website":"www.christiansenmotors.com","address":"349 N Market St","city":"Audubon","state":"IA","zip":50025,"latitude":41.7295553,"longitude":-94.9381988,"phone_number_service":"8772478286","phone_number_main":"7125634241","service_hours":"Mo-Fr 07:30 - 17:30 | Sa 07:30 - 12:00","utc_offset":"-300","gplace_id":null,"gplace_url":"https://maps.google.com/?cid=12923468001116340848","dealerID":72128,"trusted":false,"image_id":"v1597283981/buick_RM.png","phone":"8772478286","cityStateSlug":"audubon.ia","slug":"Audubon.IA/christiansen+motors","location":"41.7295553,-94.9381988","brandsList":["buick","chevrolet"]},{"id":13639,"crm_id":67066438,"name":"Steve Link Ford Lincoln","dealerSlug":"steve+link+ford+lincoln","city_state_slug":"Grinnell.IA","brand":"Ford,Lincoln","website":"www.steve-link.com","address":"916 West St","city":"Grinnell","state":"IA","zip":50112,"latitude":41.7442116,"longitude":-92.7268727,"phone_number_service":"8665293875","phone_number_main":"6412363172","service_hours":"Mo-Fr  08:00 - 17:00","utc_offset":"-300","gplace_id":null,"gplace_url":"https://maps.google.com/?cid=8640383208779899370","dealerID":72129,"trusted":false,"image_id":"v1597283967/ford_RM.png","phone":"8665293875","cityStateSlug":"grinnell.ia","slug":"Grinnell.IA/steve+link+ford+lincoln","location":"41.7442116,-92.7268727","brandsList":["ford","lincoln"]},{"id":13428,"crm_id":67066441,"name":"Southtown Chrysler Dodge Jeep RAM","dealerSlug":"southtown+chrysler+dodge+jeep+ram","city_state_slug":"Indianola.IA","brand":"Chrysler,Dodge,Jeep,RAM","website":"www.southtowncdj.com","address":"2412 N Jefferson Way","city":"Indianola","state":"IA","zip":50125,"latitude":41.3893141,"longitude":-93.557425,"phone_number_service":"8558917736","phone_number_main":"8553669452","service_hours":"Mo-Fr 07:00 - 18:00 | Sa 07:00 - 12:00","utc_offset":"-300","gplace_id":null,"gplace_url":"https://maps.google.com/?cid=14968229312918912759","dealerID":72130,"trusted":false,"image_id":"v1597283975/chrysler_RM.png","phone":"8558917736","cityStateSlug":"indianola.ia","slug":"Indianola.IA/southtown+chrysler+dodge+jeep+ram","location":"41.3893141,-93.557425","brandsList":["chrysler","dodge","jeep","ram"]},{"id":3661,"crm_id":67066444,"name":"Dale Howard Chrysler Dodge Jeep RAM","dealerSlug":"dale+howard+chrysler+dodge+jeep+ram","city_state_slug":"Iowa-Falls.IA","brand":"Chrysler,Dodge,Jeep,RAM","website":"www.dalehowardchryslerdodgejeep.com","address":"600 Brooks Rd","city":"Iowa Falls","state":"IA","zip":50126,"latitude":42.5074488,"longitude":-93.2642747,"phone_number_service":"6416484695","phone_number_main":"6416484691","service_hours":"Mo-Fr 08:00 - 17:30 | Fr 08:00 - 17:00","utc_offset":"-300","gplace_id":null,"gplace_url":"https://maps.google.com/?cid=1607286905877084383","dealerID":72131,"trusted":false,"image_id":"v1597283975/chrysler_RM.png","phone":"6416484695","cityStateSlug":"iowa-falls.ia","slug":"Iowa-Falls.IA/dale+howard+chrysler+dodge+jeep+ram","location":"42.5074488,-93.2642747","brandsList":["chrysler","dodge","jeep","ram"]},{"id":3660,"crm_id":67066447,"name":"Dale Howard Auto Center","dealerSlug":"dale+howard+auto+center","city_state_slug":"Iowa-Falls.IA","brand":"Ford","website":"www.dalehoward.com","address":"600 Brooks Rd","city":"Iowa Falls","state":"IA","zip":50126,"latitude":42.5075072,"longitude":-93.2644217,"phone_number_service":"6416484695","phone_number_main":"6416484691","service_hours":"Mo-Fr 07:30 - 17:30 | Fr 07:30 - 12:00","utc_offset":"-300","gplace_id":null,"gplace_url":"https://maps.google.com/?cid=16402475077682544891","dealerID":72132,"trusted":false,"image_id":"v1597283967/ford_RM.png","phone":"6416484695","cityStateSlug":"iowa-falls.ia","slug":"Iowa-Falls.IA/dale+howard+auto+center","location":"42.5075072,-93.2644217","brandsList":["ford"]},{"id":10387,"crm_id":67066450,"name":"Motor Inn of Knoxville","dealerSlug":"motor+inn+of+knoxville","city_state_slug":"Knoxville.IA","brand":"Chrysler,Dodge,Jeep,RAM","website":"www.motorinnchryslerdodgejeep.com/","address":"1705 N Lincoln St","city":"Knoxville","state":"IA","zip":50138,"latitude":41.3339156,"longitude":-93.1107781,"phone_number_service":"8443513768","phone_number_main":"8656901611","service_hours":"Mo-Fr 07:30-17:30 | Sa 08:00-12:00","utc_offset":"-240","gplace_id":null,"gplace_url":"https://maps.google.com/?cid=8196315055384507207","dealerID":72133,"trusted":false,"image_id":"v1597283975/chrysler_RM.png","phone":"8443513768","cityStateSlug":"knoxville.ia","slug":"Knoxville.IA/motor+inn+of+knoxville","location":"41.3339156,-93.1107781","brandsList":["chrysler","dodge","jeep","ram"]},{"id":14871,"crm_id":67066453,"name":"Vannoy Chevrolet Co.","dealerSlug":"vannoy+chevrolet+co","city_state_slug":"Montezuma.IA","brand":"Chevrolet","website":"www.vannoychevrolet.com","address":"119 4th Street","city":"Montezuma","state":"IA","zip":50171,"latitude":41.5845891,"longitude":-92.5231827,"phone_number_service":"6416232177","phone_number_main":"6416232177","service_hours":"Mo-Fr 07:00 - 17:00","utc_offset":"-300","gplace_id":null,"gplace_url":"https://maps.google.com/?cid=12494953262571295297","dealerID":72134,"trusted":false,"image_id":"v1597284079/chevy_ms.png","phone":"6416232177","cityStateSlug":"montezuma.ia","slug":"Montezuma.IA/vannoy+chevrolet+co","location":"41.5845891,-92.5231827","brandsList":["chevrolet"]},{"id":5850,"crm_id":67066456,"name":"Gregg Young Chevrolet Newton","dealerSlug":"gregg+young+chevrolet+newton","city_state_slug":"Newton.IA","brand":"Chevrolet","website":"www.gychevynewton.com","address":"2020 W 20th St S","city":"Newton","state":"IA","zip":50208,"latitude":41.680561,"longitude":-93.0793008,"phone_number_service":"6417879990","phone_number_main":"6416386619","service_hours":"Mo-Fr 07:00 - 18:00 | Sa 08:00 - 15:00","utc_offset":"-300","gplace_id":null,"gplace_url":"https://maps.google.com/?cid=17930029573058782471","dealerID":72135,"trusted":false,"image_id":"v1597284079/chevy_ms.png","phone":"6417879990","cityStateSlug":"newton.ia","slug":"Newton.IA/gregg+young+chevrolet+newton","location":"41.680561,-93.0793008","brandsList":["chevrolet"]},{"id":4889,"crm_id":67066462,"name":"Fleetside Ford","dealerSlug":"fleetside+ford","city_state_slug":"Osceola.IA","brand":"Ford","website":"www.fleetsideford.net/","address":"1120 Jeffreys Dr","city":"Osceola","state":"IA","zip":50213,"latitude":41.0287783,"longitude":-93.7811726,"phone_number_service":"8443389832","phone_number_main":"","service_hours":"Mo-Fr 08:00 - 17:30 | Sa 08:00 - 14:00","utc_offset":"-300","gplace_id":null,"gplace_url":"https://maps.google.com/?cid=10550787228704322831","dealerID":72136,"trusted":false,"image_id":"v1597283967/ford_RM.png","phone":"8443389832","cityStateSlug":"osceola.ia","slug":"Osceola.IA/fleetside+ford","location":"41.0287783,-93.7811726","brandsList":["ford"]},{"id":11367,"crm_id":67066465,"name":"Pella Motors","dealerSlug":"pella+motors","city_state_slug":"Pella.IA","brand":"Buick,Chevrolet,GMC","website":"www.pellachevy.com","address":"604 E Oskaloosa St","city":"Pella","state":"IA","zip":50219,"latitude":41.3973169,"longitude":-92.8980531,"phone_number_service":"8665598448","phone_number_main":"6416284124","service_hours":"Mo-Fr 07:30 - 17:30","utc_offset":"-300","gplace_id":null,"gplace_url":"https://maps.google.com/?cid=3271118532032226545","dealerID":72137,"trusted":false,"image_id":"v1597283981/buick_RM.png","phone":"8665598448","cityStateSlug":"pella.ia","slug":"Pella.IA/pella+motors","location":"41.3973169,-92.8980531","brandsList":["buick","chevrolet","gmc"]},{"id":11366,"crm_id":67066468,"name":"Pella Motors","dealerSlug":"pella+motors","city_state_slug":"Pella.IA","brand":"Chrysler,Dodge,Jeep,RAM","website":"www.pellamotors.net","address":"604 E Oskaloosa St","city":"Pella","state":"IA","zip":50219,"latitude":41.3973169,"longitude":-92.8980531,"phone_number_service":"8773811452","phone_number_main":"6416284124","service_hours":"Mo-Fr 07:30 - 17:30","utc_offset":"-300","gplace_id":null,"gplace_url":"https://maps.google.com/?cid=3271118532032226545","dealerID":72138,"trusted":false,"image_id":"v1597283975/chrysler_RM.png","phone":"8773811452","cityStateSlug":"pella.ia","slug":"Pella.IA/pella+motors","location":"41.3973169,-92.8980531","brandsList":["chrysler","dodge","jeep","ram"]},{"id":13701,"crm_id":67066471,"name":"Stivers Ford Lincoln","dealerSlug":"stivers+ford+lincoln","city_state_slug":"Waukee.IA","brand":"Ford,Lincoln","website":"stiversfordia.com","address":"1450 E Hickman Rd","city":"Waukee","state":"IA","zip":50263,"latitude":41.6137592,"longitude":-93.8445371,"phone_number_service":"8007472744","phone_number_main":"8007472744","service_hours":"Mo-Fr 07:00 - 24:00","utc_offset":"-300","gplace_id":null,"gplace_url":"https://maps.google.com/?cid=12269784879971354605","dealerID":72139,"trusted":false,"image_id":"v1597283967/ford_RM.png","phone":"8007472744","cityStateSlug":"waukee.ia","slug":"Waukee.IA/stivers+ford+lincoln","location":"41.6137592,-93.8445371","brandsList":["ford","lincoln"]},{"id":3961,"crm_id":67066474,"name":"Des Moines Mitsubishi","dealerSlug":"des+moines+mitsubishi","city_state_slug":"Des-Moines.IA","brand":"Mitsubishi","website":"www.dsmmitsu.com","address":"4475 Merle Hay Rd","city":"Des Moines","state":"IA","zip":50310,"latitude":41.6416654,"longitude":-93.6962349,"phone_number_service":"5152700706","phone_number_main":"5152708100","service_hours":"Mo-Fr 08:00 - 17:00 | Sa 07:30 - 16:30","utc_offset":"-300","gplace_id":null,"gplace_url":"https://maps.google.com/?cid=13297244373953232610","dealerID":72140,"trusted":false,"image_id":"v1597283928/mitsubishi.png","phone":"5152700706","cityStateSlug":"des-moines.ia","slug":"Des-Moines.IA/des+moines+mitsubishi","location":"41.6416654,-93.6962349","brandsList":["mitsubishi"]},{"id":2819,"crm_id":67066477,"name":"Charles Gabus Ford","dealerSlug":"charles+gabus+ford","city_state_slug":"Des-Moines.IA","brand":"Ford","website":"www.charlesgabusford.com","address":"4545 Merle Hay Rd","city":"Des Moines","state":"IA","zip":50310,"latitude":41.6430662,"longitude":-93.6957653,"phone_number_service":"5152709092","phone_number_main":"5152700707","service_hours":"Mo-Fr 07:00 - 18:00 | Sa 08:00 - 16:30","utc_offset":"-300","gplace_id":null,"gplace_url":"https://maps.google.com/?cid=1127396494949130247","dealerID":72141,"trusted":false,"image_id":"v1597283967/ford_RM.png","phone":"5152709092","cityStateSlug":"des-moines.ia","slug":"Des-Moines.IA/charles+gabus+ford","location":"41.6430662,-93.6957653","brandsList":["ford"]},{"id":1832,"crm_id":67066480,"name":"Bob Brown Chevrolet","dealerSlug":"bob+brown+chevrolet","city_state_slug":"Urbandale.IA","brand":"Chevrolet","website":"www.bobbrownchevy.com","address":"3600 111th St","city":"Urbandale","state":"IA","zip":50322,"latitude":41.6269997,"longitude":-93.7736694,"phone_number_service":"8668913053","phone_number_main":"5153443786","service_hours":"Mo-Fr 07:00 - 18:00 | Sa 08:00 - 13:00","utc_offset":"-300","gplace_id":null,"gplace_url":"https://maps.google.com/?cid=12173761736333616346","dealerID":72142,"trusted":false,"image_id":"v1597284079/chevy_ms.png","phone":"8668913053","cityStateSlug":"urbandale.ia","slug":"Urbandale.IA/bob+brown+chevrolet","location":"41.6269997,-93.7736694","brandsList":["chevrolet"]},{"id":13684,"crm_id":67066483,"name":"Stew Hansen Hyundai","dealerSlug":"stew+hansen+hyundai","city_state_slug":"Clive.IA","brand":"Hyundai","website":"www.stewhansenhyundai.com","address":"11344 Hickman Rd","city":"Clive","state":"IA","zip":50325,"latitude":41.6136444,"longitude":-93.7750191,"phone_number_service":"8884266567","phone_number_main":"8884266567","service_hours":"Mo-Fr 07:00 - 18:00 | Sa 07:00 - 14:00","utc_offset":"-300","gplace_id":null,"gplace_url":"https://maps.google.com/?cid=10410397574206838725","dealerID":72143,"trusted":false,"image_id":"v1597283959/hyundai_RM.png","phone":"8884266567","cityStateSlug":"clive.ia","slug":"Clive.IA/stew+hansen+hyundai","location":"41.6136444,-93.7750191","brandsList":["hyundai"]},{"id":13682,"crm_id":67066492,"name":"Stew Hansen Buick GMC","dealerSlug":"stew+hansen+buick+gmc","city_state_slug":"Clive.IA","brand":"Buick,GMC","website":"www.stewhansenbuickgmc.com/HoursAndDirections","address":"9060 Hickman Rd","city":"Clive","state":"IA","zip":50325,"latitude":41.614112,"longitude":-93.743062,"phone_number_service":"5152173630","phone_number_main":"5152173590","service_hours":"Mo-Fr 07:00 - 18:00 | Sa 07:00 - 14:00","utc_offset":"-300","gplace_id":null,"gplace_url":"https://maps.google.com/?cid=16526478284720877097","dealerID":72144,"trusted":false,"image_id":"v1597283981/buick_RM.png","phone":"5152173630","cityStateSlug":"clive.ia","slug":"Clive.IA/stew+hansen+buick+gmc","location":"41.614112,-93.743062","brandsList":["buick","gmc"]},{"id":7109,"crm_id":67066501,"name":"Jaguar Des Moines","dealerSlug":"jaguar+des+moines","city_state_slug":"Des-Moines.IA","brand":"Jaguar","website":"www.jaguardesmoines.com","address":"9800 Hickman Rd","city":"Des Moines","state":"IA","zip":50325,"latitude":41.6142136,"longitude":-93.7520212,"phone_number_service":"8556382290","phone_number_main":"8777521082","service_hours":"Mo-Fr 07:30 - 17:30","utc_offset":"-300","gplace_id":null,"gplace_url":"https://maps.google.com/?cid=8408875073672362613","dealerID":72145,"trusted":false,"image_id":"v1597283954/jaguar_RM.png","phone":"8556382290","cityStateSlug":"des-moines.ia","slug":"Des-Moines.IA/jaguar+des+moines","location":"41.6142136,-93.7520212","brandsList":["jaguar"]},{"id":8269,"crm_id":67066504,"name":"Land Rover Des Moines","dealerSlug":"land+rover+des+moines","city_state_slug":"Clive.IA","brand":"Land Rover","website":"www.landroverdesmoines.com","address":"9800 Hickman Rd","city":"Clive","state":"IA","zip":50325,"latitude":41.6141429,"longitude":-93.7522414,"phone_number_service":"8556382285","phone_number_main":"8556382282","service_hours":"Mo-Fr 07:30 - 17:30","utc_offset":"-300","gplace_id":null,"gplace_url":"https://maps.google.com/?cid=6341233035942833987","dealerID":72146,"trusted":false,"image_id":"v1597283945/landrover_RM.png","phone":"8556382285","cityStateSlug":"clive.ia","slug":"Clive.IA/land+rover+des+moines","location":"41.6141429,-93.7522414","brandsList":["land rover"]},{"id":9344,"crm_id":67066507,"name":"Mason City Ford Lincoln","dealerSlug":"mason+city+ford+lincoln","city_state_slug":"Mason-City.IA","brand":"Ford,Lincoln","website":"www.masoncityfordlincoln.com","address":"215 15th St SW","city":"Mason City","state":"IA","zip":50401,"latitude":43.1367,"longitude":-93.205841,"phone_number_service":"8884605488","phone_number_main":"6414248550","service_hours":"Mo-Fr 08:00 - 17:00 | Sa 09:00 - 14:00","utc_offset":"-300","gplace_id":null,"gplace_url":"https://maps.google.com/?cid=3599601186600322513","dealerID":72147,"trusted":false,"image_id":"v1597283967/ford_RM.png","phone":"8884605488","cityStateSlug":"mason-city.ia","slug":"Mason-City.IA/mason+city+ford+lincoln","location":"43.1367,-93.205841","brandsList":["ford","lincoln"]},{"id":9343,"crm_id":67066510,"name":"Mason City Chrysler","dealerSlug":"mason+city+chrysler","city_state_slug":"Mason-City.IA","brand":"Chrysler,Dodge,Jeep,RAM","website":"www.masoncitychrysler.com","address":"215 15th St SW","city":"Mason City","state":"IA","zip":50401,"latitude":43.1366815,"longitude":-93.2056658,"phone_number_service":"6419032588","phone_number_main":"6419032590","service_hours":"Mo-Fr 07:00 - 17:30 | Sa 08:45 - 14:30","utc_offset":"-300","gplace_id":null,"gplace_url":"https://maps.google.com/?cid=1792932334693652893","dealerID":72148,"trusted":false,"image_id":"v1597283975/chrysler_RM.png","phone":"6419032588","cityStateSlug":"mason-city.ia","slug":"Mason-City.IA/mason+city+chrysler","location":"43.1366815,-93.2056658","brandsList":["chrysler","dodge","jeep","ram"]},{"id":9345,"crm_id":67066513,"name":"Mason City Nissan","dealerSlug":"mason+city+nissan","city_state_slug":"Mason-City.IA","brand":"Nissan","website":"www.nissanofmasoncity.com","address":"4600 4th St SW","city":"Mason City","state":"IA","zip":50401,"latitude":43.1493916,"longitude":-93.272509,"phone_number_service":"6413162571","phone_number_main":"6414244034","service_hours":"Mo-Fr 08:00 - 17:00 | Sa 08:00 - 12:00","utc_offset":"-300","gplace_id":null,"gplace_url":"https://maps.google.com/?cid=16955755895435466414","dealerID":72149,"trusted":false,"image_id":"v1597283926/nissan_RM.png","phone":"6413162571","cityStateSlug":"mason-city.ia","slug":"Mason-City.IA/mason+city+nissan","location":"43.1493916,-93.272509","brandsList":["nissan"]},{"id":12946,"crm_id":67066516,"name":"Schukei Chevrolet","dealerSlug":"schukei+chevrolet","city_state_slug":"Mason-City.IA","brand":"Chevrolet","website":"www.schukeichevy.com","address":"721 South Monroe","city":"Mason City","state":"IA","zip":50401,"latitude":43.1441767,"longitude":-93.2081776,"phone_number_service":"8772880063","phone_number_main":"6412434018","service_hours":"Mo-Fr 09:00 - 15:00","utc_offset":"-300","gplace_id":null,"gplace_url":"https://maps.google.com/?cid=6842945356846287921","dealerID":72150,"trusted":false,"image_id":"v1597284079/chevy_ms.png","phone":"8772880063","cityStateSlug":"mason-city.ia","slug":"Mason-City.IA/schukei+chevrolet","location":"43.1441767,-93.2081776","brandsList":["chevrolet"]},{"id":9080,"crm_id":67066519,"name":"Lyle's Ford","dealerSlug":"lyles+ford","city_state_slug":"Eagle-Grove.IA","brand":"Ford","website":"www.lylesford.com","address":"1000 S Commercial Ave","city":"Eagle Grove","state":"IA","zip":50533,"latitude":42.6543548,"longitude":-93.9033237,"phone_number_service":"5154485171","phone_number_main":"8003976319","service_hours":"Mo-Fr 08:00 - 17:30 | Sa 08:00 - 16:00","utc_offset":"-300","gplace_id":null,"gplace_url":"https://maps.google.com/?cid=17673717779855245209","dealerID":72151,"trusted":false,"image_id":"v1597283967/ford_RM.png","phone":"5154485171","cityStateSlug":"eagle-grove.ia","slug":"Eagle-Grove.IA/lyles+ford","location":"42.6543548,-93.9033237","brandsList":["ford"]},{"id":5022,"crm_id":67066534,"name":"Fort Dodge Ford Lincoln Toyota","dealerSlug":"fort+dodge+ford+lincoln+toyota","city_state_slug":"Fort-Dodge.IA","brand":"Toyota","website":"www.fdford.com","address":"2723 5th Ave S","city":"Fort Dodge","state":"IA","zip":50501,"latitude":42.4994029,"longitude":-94.1599418,"phone_number_service":"5155766115","phone_number_main":"5155767505","service_hours":"Mo-Th 07:00 - 19:00 | Fr 07:00 - 18:00 | Sa 08:00 - 17:00","utc_offset":"-300","gplace_id":null,"gplace_url":"https://maps.google.com/?cid=13375867210680964477","dealerID":72152,"trusted":false,"image_id":"v1597284039/toyota_ms.png","phone":"5155766115","cityStateSlug":"fort-dodge.ia","slug":"Fort-Dodge.IA/fort+dodge+ford+lincoln+toyota","location":"42.4994029,-94.1599418","brandsList":["toyota"]},{"id":7767,"crm_id":67066537,"name":"Kemna Auto Center","dealerSlug":"kemna+auto+center","city_state_slug":"Algona.IA","brand":"Buick,Chevrolet,GMC","website":"www.kemnagm.com","address":"617 US-18","city":"Algona","state":"IA","zip":50511,"latitude":43.0816894,"longitude":-94.24465,"phone_number_service":"8664255321","phone_number_main":"5152002514","service_hours":"Mo-Fr 07:00 - 17:00 | Sa 07:00 - 12:00","utc_offset":"-300","gplace_id":null,"gplace_url":"https://maps.google.com/?cid=4228460938433217810","dealerID":72153,"trusted":false,"image_id":"v1597283981/buick_RM.png","phone":"8664255321","cityStateSlug":"algona.ia","slug":"Algona.IA/kemna+auto+center","location":"43.0816894,-94.24465","brandsList":["buick","chevrolet","gmc"]},{"id":12609,"crm_id":67066540,"name":"Rost Motor","dealerSlug":"rost+motor","city_state_slug":"Manson.IA","brand":"Ford","website":"rostmotor.com","address":"1109 10th Ave","city":"Manson","state":"IA","zip":50563,"latitude":42.5287409,"longitude":-94.535112,"phone_number_service":"7124693383","phone_number_main":"7124693383","service_hours":"Mo-Fr 08:00 - 17:00 | Sa 08:00 - 12:00","utc_offset":"-300","gplace_id":null,"gplace_url":"https://maps.google.com/?cid=18323516506221707592","dealerID":72154,"trusted":false,"image_id":"v1597283967/ford_RM.png","phone":"7124693383","cityStateSlug":"manson.ia","slug":"Manson.IA/rost+motor","location":"42.5287409,-94.535112","brandsList":["ford"]},{"id":11610,"crm_id":67066543,"name":"Pocahontas Ford","dealerSlug":"pocahontas+ford","city_state_slug":"Pocahontas.IA","brand":"Ford","website":"www.pocahontasford.net","address":"115 N Main St","city":"Pocahontas","state":"IA","zip":50574,"latitude":42.7341665,"longitude":-94.6693265,"phone_number_service":"8887200681","phone_number_main":"7123353363","service_hours":"Mo-Fr 07:30 - 17:00 | Sa 08:00 - 12:00","utc_offset":"-300","gplace_id":null,"gplace_url":"https://maps.google.com/?cid=6170851620719523977","dealerID":72155,"trusted":false,"image_id":"v1597283967/ford_RM.png","phone":"8887200681","cityStateSlug":"pocahontas.ia","slug":"Pocahontas.IA/pocahontas+ford","location":"42.7341665,-94.6693265","brandsList":["ford"]},{"id":2768,"crm_id":67066546,"name":"Champion Chrysler Center","dealerSlug":"champion+chrysler+center","city_state_slug":"Rockwell-City.IA","brand":"Chrysler,Dodge,Jeep,RAM","website":"www.championchryslercenter.net","address":"527 Court St","city":"Rockwell City","state":"IA","zip":50579,"latitude":42.3942912,"longitude":-94.6358878,"phone_number_service":"7123208104","phone_number_main":"7122977537","service_hours":"Mo-Sa 08:00 - 17:00","utc_offset":"-300","gplace_id":null,"gplace_url":"https://maps.google.com/?cid=15573103198740073749","dealerID":72156,"trusted":false,"image_id":"v1597283975/chrysler_RM.png","phone":"7123208104","cityStateSlug":"rockwell-city.ia","slug":"Rockwell-City.IA/champion+chrysler+center","location":"42.3942912,-94.6358878","brandsList":["chrysler","dodge","jeep","ram"]},{"id":12102,"crm_id":67066549,"name":"Rasmussen Ford | Lincoln","dealerSlug":"rasmussen+ford+lincoln","city_state_slug":"Storm-Lake.IA","brand":"Ford,Lincoln","website":"www.rasmussenford.com","address":"1620 N Lake Ave","city":"Storm Lake","state":"IA","zip":50588,"latitude":42.6592145,"longitude":-95.2014394,"phone_number_service":"7127321310","phone_number_main":"7127321310","service_hours":"","utc_offset":"-300","gplace_id":null,"gplace_url":"https://maps.google.com/?cid=6462817094202290148","dealerID":72157,"trusted":false,"image_id":"v1597283967/ford_RM.png","phone":"7127321310","cityStateSlug":"storm-lake.ia","slug":"Storm-Lake.IA/rasmussen+ford+lincoln","location":"42.6592145,-95.2014394","brandsList":["ford","lincoln"]},{"id":15353,"crm_id":67066552,"name":"West Bend Ford","dealerSlug":"west+bend+ford","city_state_slug":"West-Bend.IA","brand":"Ford","website":"www.westbendford.com","address":"17 2nd St SE","city":"West Bend","state":"IA","zip":50597,"latitude":42.9590428,"longitude":-94.4442984,"phone_number_service":"8886946124","phone_number_main":"5158874181","service_hours":"Mo-Fr 07:30 - 17:30 | Sa 07:30 - 12:00","utc_offset":"-300","gplace_id":null,"gplace_url":"https://maps.google.com/?cid=15138960329398280379","dealerID":72158,"trusted":false,"image_id":"v1597283967/ford_RM.png","phone":"8886946124","cityStateSlug":"west-bend.ia","slug":"West-Bend.IA/west+bend+ford","location":"42.9590428,-94.4442984","brandsList":["ford"]},{"id":2091,"crm_id":67066555,"name":"Brass Highway 57 Ford","dealerSlug":"brass+highway+57+ford","city_state_slug":"Parkersburg.IA","brand":"Ford","website":"www.brasshighway57ford.com","address":"1308 IA-57","city":"Parkersburg","state":"IA","zip":50665,"latitude":42.5697868,"longitude":-92.7723415,"phone_number_service":"8338099039","phone_number_main":"6418472135","service_hours":"Mo-Fr 07:30 - 17:30 | Sa 08:00 - 12:00","utc_offset":"-300","gplace_id":null,"gplace_url":"https://maps.google.com/?cid=5040642927964079766","dealerID":72159,"trusted":false,"image_id":"v1597283967/ford_RM.png","phone":"8338099039","cityStateSlug":"parkersburg.ia","slug":"Parkersburg.IA/brass+highway+57+ford","location":"42.5697868,-92.7723415","brandsList":["ford"]},{"id":12628,"crm_id":67066570,"name":"Rouse Motor Company","dealerSlug":"rouse+motor+company","city_state_slug":"Grundy-Center.IA","brand":"Chrysler,Dodge,Jeep,RAM","website":"rousemotors.com","address":"320 G Ave","city":"Grundy Center","state":"IA","zip":50638,"latitude":42.3611873,"longitude":-92.7688309,"phone_number_service":"3199751913","phone_number_main":"3193830546","service_hours":"Mo-Fr 08:00 - 17:00 | Sa 08:00 - 12:00","utc_offset":"-300","gplace_id":null,"gplace_url":"https://maps.google.com/?cid=13513652762857347065","dealerID":72160,"trusted":false,"image_id":"v1597283975/chrysler_RM.png","phone":"3199751913","cityStateSlug":"grundy-center.ia","slug":"Grundy-Center.IA/rouse+motor+company","location":"42.3611873,-92.7688309","brandsList":["chrysler","dodge","jeep","ram"]},{"id":1431,"crm_id":67066573,"name":"Bill Colwell Ford","dealerSlug":"bill+colwell+ford","city_state_slug":"Hudson.IA","brand":"Ford","website":"www.billcolwellford.com","address":"238 Waterloo Rd","city":"Hudson","state":"IA","zip":50643,"latitude":42.4091586,"longitude":-92.4514352,"phone_number_service":"8884098153","phone_number_main":"8884098153","service_hours":"Mo-Fr  08:00 - 17:00","utc_offset":"-300","gplace_id":null,"gplace_url":"https://maps.google.com/?cid=10266969520405683796","dealerID":72161,"trusted":false,"image_id":"v1597283967/ford_RM.png","phone":"8884098153","cityStateSlug":"hudson.ia","slug":"Hudson.IA/bill+colwell+ford","location":"42.4091586,-92.4514352","brandsList":["ford"]},{"id":14906,"crm_id":67066591,"name":"Vern Laures Auto Center","dealerSlug":"vern+laures+auto+center","city_state_slug":"New-Hampton.IA","brand":"Buick,Chevrolet,GMC","website":"www.vernlaureschevy.com","address":"1950 North Linn Avenue, W Washington St","city":"New Hampton","state":"IA","zip":50659,"latitude":43.0757298,"longitude":-92.3164523,"phone_number_service":"8662390371","phone_number_main":"8665847709","service_hours":"Mo-Fr 08:00 - 17:00","utc_offset":"-300","gplace_id":null,"gplace_url":"https://maps.google.com/?cid=5302569346514535381","dealerID":72162,"trusted":false,"image_id":"v1597283981/buick_RM.png","phone":"8662390371","cityStateSlug":"new-hampton.ia","slug":"New-Hampton.IA/vern+laures+auto+center","location":"43.0757298,-92.3164523","brandsList":["buick","chevrolet","gmc"]},{"id":14905,"crm_id":67066594,"name":"Vern Laures Auto Center","dealerSlug":"vern+laures+auto+center","city_state_slug":"New-Hampton.IA","brand":"Chrysler,Dodge,Jeep,RAM","website":"www.vernlauresautocenter.com","address":"1950 N Linn Ave","city":"New Hampton","state":"IA","zip":50659,"latitude":43.0757267,"longitude":-92.3164446,"phone_number_service":"8003743025","phone_number_main":"6413943025","service_hours":"Mo-Fr 08:00 - 17:00","utc_offset":"-300","gplace_id":null,"gplace_url":"https://maps.google.com/?cid=8112094746820816067","dealerID":72163,"trusted":false,"image_id":"v1597283975/chrysler_RM.png","phone":"8003743025","cityStateSlug":"new-hampton.ia","slug":"New-Hampton.IA/vern+laures+auto+center","location":"43.0757267,-92.3164446","brandsList":["chrysler","dodge","jeep","ram"]},{"id":12516,"crm_id":67066597,"name":"Roling Ford","dealerSlug":"roling+ford","city_state_slug":"Shell-Rock.IA","brand":"Ford","website":"www.rolingford.com","address":"1105 Mason Way","city":"Shell Rock","state":"IA","zip":50670,"latitude":42.7143674,"longitude":-92.5655323,"phone_number_service":"3198854540","phone_number_main":"3198854540","service_hours":"Mo-Fr 07:30 - 17:30","utc_offset":"-300","gplace_id":null,"gplace_url":"https://maps.google.com/?cid=5588761781030490518","dealerID":72164,"trusted":false,"image_id":"v1597283967/ford_RM.png","phone":"3198854540","cityStateSlug":"shell-rock.ia","slug":"Shell-Rock.IA/roling+ford","location":"42.7143674,-92.5655323","brandsList":["ford"]},{"id":3481,"crm_id":67066615,"name":"Creston Automotive","dealerSlug":"creston+automotive","city_state_slug":"Creston.IA","brand":"Ford,Lincoln","website":"www.crestonautomotive.com","address":"410 W Adams St","city":"Creston","state":"IA","zip":50801,"latitude":41.0569294,"longitude":-94.3663892,"phone_number_service":"8664144650","phone_number_main":"6417822179","service_hours":"Mo-Fr 08:00 - 17:00 | Sa 08:00 - 12:00","utc_offset":"-300","gplace_id":null,"gplace_url":"https://maps.google.com/?cid=12143388911981535353","dealerID":72165,"trusted":false,"image_id":"v1597283967/ford_RM.png","phone":"8664144650","cityStateSlug":"creston.ia","slug":"Creston.IA/creston+automotive","location":"41.0569294,-94.3663892","brandsList":["ford","lincoln"]},{"id":9119,"crm_id":67066624,"name":"Mac's Chevrolet","dealerSlug":"macs+chevrolet","city_state_slug":"Mapleton.IA","brand":"Chevrolet","website":"www.macschev.com","address":"208 Main St","city":"Mapleton","state":"IA","zip":51034,"latitude":42.1656342,"longitude":-95.7951205,"phone_number_service":"8667573616","phone_number_main":"7122913636","service_hours":"Mo-Fr 08:00 - 17:00 | Sa 08:00 - 12:00","utc_offset":"-300","gplace_id":null,"gplace_url":"https://maps.google.com/?cid=47270499426901194","dealerID":72166,"trusted":false,"image_id":"v1597284079/chevy_ms.png","phone":"8667573616","cityStateSlug":"mapleton.ia","slug":"Mapleton.IA/macs+chevrolet","location":"42.1656342,-95.7951205","brandsList":["chevrolet"]},{"id":13248,"crm_id":67066627,"name":"Sioux City Kia","dealerSlug":"sioux+city+kia","city_state_slug":"Sioux-City.IA","brand":"Kia","website":"www.billionauto.com/sioux-city-kia","address":"3701 Singing Hills Blvd.","city":"Sioux City","state":"IA","zip":51106,"latitude":42.4391554,"longitude":-96.3626087,"phone_number_service":"8442844746","phone_number_main":"7125601125","service_hours":"Mo-Th 07:30 - 17:30 | Fr 07:30 - 17:00 | Sa 08:00 - 16:00","utc_offset":"-300","gplace_id":null,"gplace_url":"https://maps.google.com/?cid=1790505052074351565","dealerID":72167,"trusted":false,"image_id":"v1597283948/kia_RM.png","phone":"8442844746","cityStateSlug":"sioux-city.ia","slug":"Sioux-City.IA/sioux+city+kia","location":"42.4391554,-96.3626087","brandsList":["kia"]},{"id":1534,"crm_id":67066630,"name":"Billion Nissan Of Sioux City","dealerSlug":"billion+nissan+of+sioux+city","city_state_slug":"Sioux-City.IA","brand":"Nissan","website":"www.billionnissanofsiouxcity.com","address":"3715 Singing Hills Blvd","city":"Sioux City","state":"IA","zip":51106,"latitude":42.4398009,"longitude":-96.3593754,"phone_number_service":"8442844743","phone_number_main":"7122343500","service_hours":"Mo-Fr 07:30 - 18:00 | Sa 08:00 - 17:00","utc_offset":"-300","gplace_id":null,"gplace_url":"https://maps.google.com/?cid=15089017685491954462","dealerID":72168,"trusted":false,"image_id":"v1597283926/nissan_RM.png","phone":"8442844743","cityStateSlug":"sioux-city.ia","slug":"Sioux-City.IA/billion+nissan+of+sioux+city","location":"42.4398009,-96.3593754","brandsList":["nissan"]},{"id":7316,"crm_id":67066633,"name":"Jensen Subaru","dealerSlug":"jensen+subaru","city_state_slug":"Sioux-City.IA","brand":"Subaru","website":"www.jensensubaru.com/","address":"3909 Stadium Dr","city":"Sioux City","state":"IA","zip":51106,"latitude":42.4384141,"longitude":-96.365416,"phone_number_service":"8884853228","phone_number_main":"7122553000","service_hours":"Mo-Fr 08:00-18:00 | Sa 08:00-12:00","utc_offset":"-300","gplace_id":null,"gplace_url":"https://maps.google.com/?cid=9968883704409369482","dealerID":72169,"trusted":false,"image_id":"v1597283982/subaru_ms.png","phone":"8884853228","cityStateSlug":"sioux-city.ia","slug":"Sioux-City.IA/jensen+subaru","location":"42.4384141,-96.365416","brandsList":["subaru"]},{"id":13247,"crm_id":67066636,"name":"Sioux City GMC Cadillac","dealerSlug":"sioux+city+gmc+cadillac","city_state_slug":"Sioux-City.IA","brand":"Buick,Cadillac,GMC","website":"www.billionauto.com/sioux-city-gmc-cadillac-buick","address":"4300 Southgate Dr","city":"Sioux City","state":"IA","zip":51106,"latitude":42.433813,"longitude":-96.36686,"phone_number_service":"8442355189","phone_number_main":"7125601125","service_hours":"Mo-Fr 07:30 - 17:30 | Sa 08:00 - 16:00","utc_offset":"-300","gplace_id":null,"gplace_url":"https://maps.google.com/?cid=1790505052074351565","dealerID":72170,"trusted":false,"image_id":"v1597283981/buick_RM.png","phone":"8442355189","cityStateSlug":"sioux-city.ia","slug":"Sioux-City.IA/sioux+city+gmc+cadillac","location":"42.433813,-96.36686","brandsList":["buick","cadillac","gmc"]},{"id":14904,"crm_id":67066639,"name":"Vern Eide Honda Sioux City","dealerSlug":"vern+eide+honda+sioux+city","city_state_slug":"Sioux-City.IA","brand":"Honda","website":"www.verneidehondasiouxcity.com","address":"4625 Singing Hills Blvd","city":"Sioux City","state":"IA","zip":51106,"latitude":42.4381043,"longitude":-96.3483921,"phone_number_service":"7125879140","phone_number_main":"7125879141","service_hours":"Mo-Fr 07:30 - 17:30 | Sa 08:00 - 16:00","utc_offset":"-300","gplace_id":null,"gplace_url":"https://maps.google.com/?cid=14954775338862375564","dealerID":72171,"trusted":false,"image_id":"v1597284047/honda_ms.png","phone":"7125879140","cityStateSlug":"sioux-city.ia","slug":"Sioux-City.IA/vern+eide+honda+sioux+city","location":"42.4381043,-96.3483921","brandsList":["honda"]},{"id":11153,"crm_id":67066642,"name":"Papik Motors","dealerSlug":"papik+motors","city_state_slug":"Rock-Rapids.IA","brand":"Chrysler,Dodge,Jeep,RAM","website":"www.papik.com","address":"101 Main St","city":"Rock Rapids","state":"IA","zip":51246,"latitude":43.4320803,"longitude":-96.1658803,"phone_number_service":"7124722595","phone_number_main":"7124722595","service_hours":"Mo-Fr 07:30 - 16:30","utc_offset":"-300","gplace_id":null,"gplace_url":"https://maps.google.com/?cid=18302264227463276791","dealerID":72172,"trusted":false,"image_id":"v1597283975/chrysler_RM.png","phone":"7124722595","cityStateSlug":"rock-rapids.ia","slug":"Rock-Rapids.IA/papik+motors","location":"43.4320803,-96.1658803","brandsList":["chrysler","dodge","jeep","ram"]},{"id":7240,"crm_id":67066645,"name":"Jeddeloh","dealerSlug":"jeddeloh","city_state_slug":"Sibley.IA","brand":"Ford","website":"www.jeddelohinc.com","address":"1783 Opal Ave","city":"Sibley","state":"IA","zip":51249,"latitude":43.3919036,"longitude":-95.7539027,"phone_number_service":"8886908454","phone_number_main":"7127544651","service_hours":"Mo-Fr 08:00 - 17:00","utc_offset":"-300","gplace_id":null,"gplace_url":"https://maps.google.com/?cid=11620174085265179357","dealerID":72173,"trusted":false,"image_id":"v1597283967/ford_RM.png","phone":"8886908454","cityStateSlug":"sibley.ia","slug":"Sibley.IA/jeddeloh","location":"43.3919036,-95.7539027","brandsList":["ford"]},{"id":10422,"crm_id":67066648,"name":"Mouw Motor Company","dealerSlug":"mouw+motor+company","city_state_slug":"Sioux-Center.IA","brand":"Ford","website":"www.mouwmotor.com","address":"125 22nd St NE","city":"Sioux Center","state":"IA","zip":51250,"latitude":43.1013609,"longitude":-96.1738486,"phone_number_service":"8883797902","phone_number_main":"7127220085","service_hours":"Mo-Fr 07:30- 17:30 | Sa 07:30 - 12:00","utc_offset":"-300","gplace_id":null,"gplace_url":"https://maps.google.com/?cid=13429837849201737707","dealerID":72174,"trusted":false,"image_id":"v1597283967/ford_RM.png","phone":"8883797902","cityStateSlug":"sioux-center.ia","slug":"Sioux-Center.IA/mouw+motor+company","location":"43.1013609,-96.1738486","brandsList":["ford"]},{"id":14895,"crm_id":67066651,"name":"Ver Hoef CDJR","dealerSlug":"ver+hoef+cdjr","city_state_slug":"Sioux-Center.IA","brand":"Chrysler,Dodge,Jeep,RAM","website":"www.verhoefcdjr.com/","address":"110 20th St NE","city":"Sioux Center","state":"IA","zip":51250,"latitude":43.0997148,"longitude":-96.1734963,"phone_number_service":"8442887681","phone_number_main":"7127220143","service_hours":"Mo-Fr 07:30 - 17:00 | Sa 07:30 - 12:00","utc_offset":"-300","gplace_id":null,"gplace_url":"https://maps.google.com/?cid=9512645018789166692","dealerID":72175,"trusted":false,"image_id":"v1597283975/chrysler_RM.png","phone":"8442887681","cityStateSlug":"sioux-center.ia","slug":"Sioux-Center.IA/ver+hoef+cdjr","location":"43.0997148,-96.1734963","brandsList":["chrysler","dodge","jeep","ram"]},{"id":4135,"crm_id":67066654,"name":"Don Pierson Ford-Lincoln","dealerSlug":"don+pierson+ford+lincoln","city_state_slug":"Spencer.IA","brand":"Ford,Lincoln","website":"www.donpiersonford.net","address":"118 11th St SW Plaza","city":"Spencer","state":"IA","zip":51301,"latitude":43.125767,"longitude":-95.1461379,"phone_number_service":"8778171990","phone_number_main":"7122625750","service_hours":"Mo-Fr 07:30 - 17:00 | Sa 07:30 - 14:00","utc_offset":"-300","gplace_id":null,"gplace_url":"https://maps.google.com/?cid=18163807371084957946","dealerID":72176,"trusted":false,"image_id":"v1597283967/ford_RM.png","phone":"8778171990","cityStateSlug":"spencer.ia","slug":"Spencer.IA/don+pierson+ford+lincoln","location":"43.125767,-95.1461379","brandsList":["ford","lincoln"]},{"id":5962,"crm_id":67066657,"name":"H & N CHEVROLET BUICK","dealerSlug":"h+and+n+chevrolet+buick","city_state_slug":"Spencer.IA","brand":"Buick,Chevrolet","website":"www.hnchevy.com/","address":"713 N Grand Ave - New Vehicle Lot 512 S Grand Ave - PreOwned Vehicle Lot","city":"Spencer","state":"IA","zip":51301,"latitude":43.1328337,"longitude":-95.1437159,"phone_number_service":"8776231041","phone_number_main":"7122623230","service_hours":"Mo-Fr 08:00 - 15:00 | Sa 08:00 - 12:00","utc_offset":"-300","gplace_id":null,"gplace_url":"https://maps.google.com/?cid=5379230137772423566","dealerID":72177,"trusted":false,"image_id":"v1597283981/buick_RM.png","phone":"8776231041","cityStateSlug":"spencer.ia","slug":"Spencer.IA/h+and+n+chevrolet+buick","location":"43.1328337,-95.1437159","brandsList":["buick","chevrolet"]},{"id":10975,"crm_id":67066669,"name":"Okoboji Toyota","dealerSlug":"okoboji+toyota","city_state_slug":"Spirit-Lake.IA","brand":"Toyota","website":"www.okobojitoyota.com","address":"2720 17th St","city":"Spirit Lake","state":"IA","zip":51360,"latitude":43.423331,"longitude":-95.131045,"phone_number_service":"8554374214","phone_number_main":"7123361500","service_hours":"Mo-Fr 07:30 - 18:00 | Sa 08:00 - 17:00","utc_offset":"-300","gplace_id":null,"gplace_url":"https://maps.google.com/?cid=8714100418958239968","dealerID":72178,"trusted":false,"image_id":"v1597284039/toyota_ms.png","phone":"8554374214","cityStateSlug":"spirit-lake.ia","slug":"Spirit-Lake.IA/okoboji+toyota","location":"43.423331,-95.131045","brandsList":["toyota"]},{"id":10388,"crm_id":67066672,"name":"Motor Inn Toyota of Carroll","dealerSlug":"motor+inn+toyota+of+carroll","city_state_slug":"Carroll.IA","brand":"Toyota","website":"motorinntoyotaofcarroll.com","address":"1526 Le Clark Rd","city":"Carroll","state":"IA","zip":51401,"latitude":42.0791899,"longitude":-94.8857079,"phone_number_service":"8667721687","phone_number_main":"7127925000","service_hours":"Mo-Fr 07:30 - 17:00 | Sa 07:30 - 12:00","utc_offset":"-300","gplace_id":null,"gplace_url":"https://maps.google.com/?cid=9445609159222270316","dealerID":72179,"trusted":false,"image_id":"v1597284039/toyota_ms.png","phone":"8667721687","cityStateSlug":"carroll.ia","slug":"Carroll.IA/motor+inn+toyota+of+carroll","location":"42.0791899,-94.8857079","brandsList":["toyota"]},{"id":8417,"crm_id":67066678,"name":"Larry Beckman Motors","dealerSlug":"larry+beckman+motors","city_state_slug":"Odebolt.IA","brand":"Ford","website":"www.beckmanford.com","address":"600 IA-175","city":"Odebolt","state":"IA","zip":51458,"latitude":42.3120734,"longitude":-95.2340325,"phone_number_service":"8448988949","phone_number_main":"7126684896","service_hours":"Mo-Fr 08:00 - 17:30","utc_offset":"-300","gplace_id":null,"gplace_url":"https://maps.google.com/?cid=16483744932628325957","dealerID":72180,"trusted":false,"image_id":"v1597283967/ford_RM.png","phone":"8448988949","cityStateSlug":"odebolt.ia","slug":"Odebolt.IA/larry+beckman+motors","location":"42.3120734,-95.2340325","brandsList":["ford"]},{"id":9598,"crm_id":67066684,"name":"McMullen Ford","dealerSlug":"mcmullen+ford","city_state_slug":"Council-Bluffs.IA","brand":"Ford","website":"www.mcmullenford.com","address":"3401 S Expressway St","city":"Council Bluffs","state":"IA","zip":51501,"latitude":41.224645,"longitude":-95.849632,"phone_number_service":"8778902953","phone_number_main":"7123660531","service_hours":"Mo-Fr 07:00 - 18:00 | Sa 08:00 - 12:00","utc_offset":"-300","gplace_id":null,"gplace_url":"https://maps.google.com/?cid=13169532136822106653","dealerID":72181,"trusted":false,"image_id":"v1597283967/ford_RM.png","phone":"8778902953","cityStateSlug":"council-bluffs.ia","slug":"Council-Bluffs.IA/mcmullen+ford","location":"41.224645,-95.849632","brandsList":["ford"]},{"id":4456,"crm_id":67066687,"name":"Edwards Kia","dealerSlug":"edwards+kia","city_state_slug":"Council-Bluffs.IA","brand":"Kia","website":"www.edwardskia.net","address":"3134 S 9th St","city":"Council Bluffs","state":"IA","zip":51501,"latitude":41.2292049,"longitude":-95.8576644,"phone_number_service":"7122484840","phone_number_main":"7122019624","service_hours":"Mo-Fr 07:00 - 18:00 | Sa 08:00 - 15:00","utc_offset":"-300","gplace_id":null,"gplace_url":"https://maps.google.com/?cid=9086915990798030072","dealerID":72182,"trusted":false,"image_id":"v1597283948/kia_RM.png","phone":"7122484840","cityStateSlug":"council-bluffs.ia","slug":"Council-Bluffs.IA/edwards+kia","location":"41.2292049,-95.8576644","brandsList":["kia"]},{"id":12172,"crm_id":67066693,"name":"Red Oak Chrysler","dealerSlug":"red+oak+chrysler","city_state_slug":"Red-Oak.IA","brand":"Chrysler,Dodge,Jeep,RAM","website":"www.redoakchryslerdodgejeep.com","address":"1907 N Broadway St","city":"Red Oak","state":"IA","zip":51566,"latitude":41.0230843,"longitude":-95.2335347,"phone_number_service":"8442812097","phone_number_main":"7126239310","service_hours":"Mo-Fr 08:00 -17:00 | Sa 08:00 -13:00","utc_offset":"-300","gplace_id":null,"gplace_url":"https://maps.google.com/?cid=8386070796100101050","dealerID":72183,"trusted":false,"image_id":"v1597283975/chrysler_RM.png","phone":"8442812097","cityStateSlug":"red-oak.ia","slug":"Red-Oak.IA/red+oak+chrysler","location":"41.0230843,-95.2335347","brandsList":["chrysler","dodge","jeep","ram"]},{"id":6185,"crm_id":67066696,"name":"Hawkeye Ford","dealerSlug":"hawkeye+ford","city_state_slug":"Red-Oak.IA","brand":"Ford","website":"www.hawkeyeford.com","address":"Highway 34 East","city":"Red Oak","state":"IA","zip":51566,"latitude":41.0247545,"longitude":-95.191351,"phone_number_service":"8666075514","phone_number_main":"7126235147","service_hours":"Mo-Fr 08:00 - 17:30 | Sa 08:00 - 12:00","utc_offset":"-300","gplace_id":null,"gplace_url":"https://maps.google.com/?cid=14410476196929373825","dealerID":72184,"trusted":false,"image_id":"v1597283967/ford_RM.png","phone":"8666075514","cityStateSlug":"red-oak.ia","slug":"Red-Oak.IA/hawkeye+ford","location":"41.0247545,-95.191351","brandsList":["ford"]},{"id":13171,"crm_id":67066702,"name":"Shore Motor Company","dealerSlug":"shore+motor+company","city_state_slug":"Clarinda.IA","brand":"Buick,Chevrolet","website":"shoremotor.com","address":"222 S 16th St","city":"Clarinda","state":"IA","zip":51632,"latitude":40.7363817,"longitude":-95.0376371,"phone_number_service":"8667706581","phone_number_main":"7125426581","service_hours":"Mo-Fr 08:00 - 17:30 | Sa 08:00 - 12:00","utc_offset":"-300","gplace_id":null,"gplace_url":"https://maps.google.com/?cid=16419965657480472968","dealerID":72185,"trusted":false,"image_id":"v1597283981/buick_RM.png","phone":"8667706581","cityStateSlug":"clarinda.ia","slug":"Clarinda.IA/shore+motor+company","location":"40.7363817,-95.0376371","brandsList":["buick","chevrolet"]},{"id":9539,"crm_id":67066708,"name":"McGrath Chevrolet of Dubuque","dealerSlug":"mcgrath+chevrolet+of+dubuque","city_state_slug":"Dubuque.IA","brand":"Chevrolet","website":"www.mcgrathchevroletofdubuque.com","address":"3255 University Ave","city":"Dubuque","state":"IA","zip":52001,"latitude":42.493559,"longitude":-90.7141382,"phone_number_service":"5635144868","phone_number_main":"5635839121","service_hours":"Mo-Fr 07:00 - 17:30 | Sa 07:30 - 12:00","utc_offset":"-300","gplace_id":null,"gplace_url":"https://maps.google.com/?cid=2155023572299187942","dealerID":72186,"trusted":false,"image_id":"v1597284079/chevy_ms.png","phone":"5635144868","cityStateSlug":"dubuque.ia","slug":"Dubuque.IA/mcgrath+chevrolet+of+dubuque","location":"42.493559,-90.7141382","brandsList":["chevrolet"]},{"id":14667,"crm_id":67066711,"name":"Turpin Dodge Chrysler Jeep RAM","dealerSlug":"turpin+dodge+chrysler+jeep+ram","city_state_slug":"Dubuque.IA","brand":"Chrysler,Dodge,Jeep,RAM","website":"www.turpindodgeofdubuque.net","address":"90 John F Kennedy Rd","city":"Dubuque","state":"IA","zip":52002,"latitude":42.4940862,"longitude":-90.7156459,"phone_number_service":"5632312699","phone_number_main":"5636905069","service_hours":"Mo-Fr 07:30 - 17:00 | Sa 08:00 - 12:00","utc_offset":"-300","gplace_id":null,"gplace_url":"https://maps.google.com/?cid=6013868297018861908","dealerID":72187,"trusted":false,"image_id":"v1597283975/chrysler_RM.png","phone":"5632312699","cityStateSlug":"dubuque.ia","slug":"Dubuque.IA/turpin+dodge+chrysler+jeep+ram","location":"42.4940862,-90.7156459","brandsList":["chrysler","dodge","jeep","ram"]},{"id":14038,"crm_id":67066714,"name":"Tauke Motors","dealerSlug":"tauke+motors","city_state_slug":"Dyersville.IA","brand":"Chrysler,Dodge,Jeep,RAM","website":"www.taukemotors.net","address":"1000 9th St SE","city":"Dyersville","state":"IA","zip":52040,"latitude":42.4768374,"longitude":-91.1147305,"phone_number_service":"8774107114","phone_number_main":"5638757129","service_hours":"Mo-We 07:30 - 17:00 | Th 07:30 - 20:00 | Fr 07:30 - 17:00 | Sa 07:30 - 12:00","utc_offset":"-300","gplace_id":null,"gplace_url":"https://maps.google.com/?cid=11706039225803851550","dealerID":72188,"trusted":false,"image_id":"v1597283975/chrysler_RM.png","phone":"8774107114","cityStateSlug":"dyersville.ia","slug":"Dyersville.IA/tauke+motors","location":"42.4768374,-91.1147305","brandsList":["chrysler","dodge","jeep","ram"]},{"id":14932,"crm_id":67066717,"name":"Victory Ford","dealerSlug":"victory+ford","city_state_slug":"Dyersville.IA","brand":"Ford","website":"www.victoryfordonline.com","address":"30584 Olde Hawkeye Rd","city":"Dyersville","state":"IA","zip":52040,"latitude":42.4699407,"longitude":-91.084888,"phone_number_service":"8558752403","phone_number_main":"8773136824","service_hours":"Mo-Fr 07:00 - 17:00 | Sa 07:00 - 15:00","utc_offset":"-300","gplace_id":null,"gplace_url":"https://maps.google.com/?cid=4317131269475863135","dealerID":72189,"trusted":false,"image_id":"v1597283967/ford_RM.png","phone":"8558752403","cityStateSlug":"dyersville.ia","slug":"Dyersville.IA/victory+ford","location":"42.4699407,-91.084888","brandsList":["ford"]},{"id":4626,"crm_id":67066720,"name":"F E Welterlen Motors","dealerSlug":"f+e+welterlen+motors","city_state_slug":"Edgewood.IA","brand":"Ford","website":"www.fewelterlenmotors.com","address":"104 E Union St","city":"Edgewood","state":"IA","zip":52042,"latitude":42.6446326,"longitude":-91.4005661,"phone_number_service":"8888850768","phone_number_main":"5639286613","service_hours":"Mo-Fr 08:00 - 17:00 | Sa 08:00 - 12:00","utc_offset":"-300","gplace_id":null,"gplace_url":"https://maps.google.com/?cid=16503075702485773405","dealerID":72190,"trusted":false,"image_id":"v1597283967/ford_RM.png","phone":"8888850768","cityStateSlug":"edgewood.ia","slug":"Edgewood.IA/f+e+welterlen+motors","location":"42.6446326,-91.4005661","brandsList":["ford"]},{"id":2212,"crm_id":67066723,"name":"Brown's Sales & Leasing","dealerSlug":"browns+sales+and+leasing","city_state_slug":"Guttenberg.IA","brand":"Ford","website":"www.brownssl.com","address":"202 Highway 52 South","city":"Guttenberg","state":"IA","zip":52052,"latitude":42.7834573,"longitude":-91.1015077,"phone_number_service":"8885172717","phone_number_main":"8888568179","service_hours":"Mo-Fr 07:30 - 17:00 | Sa 07:30 - 11:30","utc_offset":"-300","gplace_id":null,"gplace_url":"https://maps.google.com/?cid=25632039652981413","dealerID":72191,"trusted":false,"image_id":"v1597283967/ford_RM.png","phone":"8885172717","cityStateSlug":"guttenberg.ia","slug":"Guttenberg.IA/browns+sales+and+leasing","location":"42.7834573,-91.1015077","brandsList":["ford"]},{"id":1922,"crm_id":67066726,"name":"Bob Stephen Motors","dealerSlug":"bob+stephen+motors","city_state_slug":"Manchester.IA","brand":"Buick,Chevrolet,GMC","website":"www.bobstephenmotors.com","address":"324 W Main St","city":"Manchester","state":"IA","zip":52057,"latitude":42.4836301,"longitude":-91.4617628,"phone_number_service":"8885192872","phone_number_main":"8884341050","service_hours":"Mo-Fr 07:00 - 17:00 | Sa 07:00 - 12:00","utc_offset":"-300","gplace_id":null,"gplace_url":"https://maps.google.com/?cid=4387296071567609266","dealerID":72192,"trusted":false,"image_id":"v1597283981/buick_RM.png","phone":"8885192872","cityStateSlug":"manchester.ia","slug":"Manchester.IA/bob+stephen+motors","location":"42.4836301,-91.4617628","brandsList":["buick","chevrolet","gmc"]},{"id":2054,"crm_id":67066729,"name":"Brad Deery Ford","dealerSlug":"brad+deery+ford","city_state_slug":"Maquoketa.IA","brand":"Ford","website":"braddeeryford.com","address":"1178 200th Ave","city":"Maquoketa","state":"IA","zip":52060,"latitude":42.0430332,"longitude":-90.6661072,"phone_number_service":"8886250430","phone_number_main":"8558124040","service_hours":"Mo-Fr 07:30 - 17:00 | Sa 07:30 - 12:00","utc_offset":"-300","gplace_id":null,"gplace_url":"https://maps.google.com/?cid=9442906556700836591","dealerID":72193,"trusted":false,"image_id":"v1597283967/ford_RM.png","phone":"8886250430","cityStateSlug":"maquoketa.ia","slug":"Maquoketa.IA/brad+deery+ford","location":"42.0430332,-90.6661072","brandsList":["ford"]},{"id":8026,"crm_id":67066738,"name":"Klimesh Motor Sales","dealerSlug":"klimesh+motor+sales","city_state_slug":"Calmar.IA","brand":"Ford,Lincoln","website":"www.klimeshmotors.com","address":"207 Main St","city":"Calmar","state":"IA","zip":52132,"latitude":43.1831559,"longitude":-91.866694,"phone_number_service":"5635623241","phone_number_main":"5635623241","service_hours":"Mo-Fr 08:00 - 17:00 | Sa 08:00 - 12:00","utc_offset":"-300","gplace_id":null,"gplace_url":"https://maps.google.com/?cid=16588919901553723884","dealerID":72194,"trusted":false,"image_id":"v1597283967/ford_RM.png","phone":"5635623241","cityStateSlug":"calmar.ia","slug":"Calmar.IA/klimesh+motor+sales","location":"43.1831559,-91.866694","brandsList":["ford","lincoln"]},{"id":5963,"crm_id":67066741,"name":"H & S Motors","dealerSlug":"h+and+s+motors","city_state_slug":"Cresco.IA","brand":"Buick,Chevrolet","website":"www.hsmotors.com","address":"710 2nd Ave SW","city":"Cresco","state":"IA","zip":52136,"latitude":43.371902,"longitude":-92.1278782,"phone_number_service":"5634122774","phone_number_main":"8558530366","service_hours":"Mo-Fr 07:30 - 17:00 | Sa 07:30 - 12:00","utc_offset":"-300","gplace_id":null,"gplace_url":"https://maps.google.com/?cid=8343860545952905701","dealerID":72195,"trusted":false,"image_id":"v1597283981/buick_RM.png","phone":"5634122774","cityStateSlug":"cresco.ia","slug":"Cresco.IA/h+and+s+motors","location":"43.371902,-92.1278782","brandsList":["buick","chevrolet"]},{"id":14379,"crm_id":67066744,"name":"Torkelson Motors","dealerSlug":"torkelson+motors","city_state_slug":"Elgin.IA","brand":"Chrysler,Dodge,Ford,GMC,Jeep,RAM","website":"torkelsonmotors.com","address":"216 Center St","city":"Elgin","state":"IA","zip":52141,"latitude":42.9577119,"longitude":-91.6288885,"phone_number_service":"5634265505","phone_number_main":"5634265505","service_hours":"Mo-Fr 08:00 - 17:00 | Sa 08:00 - 12:00","utc_offset":"-300","gplace_id":null,"gplace_url":"https://maps.google.com/?cid=17465790624708822741","dealerID":72196,"trusted":false,"image_id":"v1597283975/chrysler_RM.png","phone":"5634265505","cityStateSlug":"elgin.ia","slug":"Elgin.IA/torkelson+motors","location":"42.9577119,-91.6288885","brandsList":["chrysler","dodge","ford","gmc","jeep","ram"]},{"id":7533,"crm_id":67066750,"name":"John Grieder Motors","dealerSlug":"john+grieder+motors","city_state_slug":"Belle-Plaine.IA","brand":"Buick,Chevrolet","website":"www.johngriedermotors.com","address":"409 13th St","city":"Belle Plaine","state":"IA","zip":52208,"latitude":41.8965914,"longitude":-92.2812496,"phone_number_service":"8778496856","phone_number_main":"3194442259","service_hours":"Mo-Fr 08:00 - 17:00","utc_offset":"-300","gplace_id":null,"gplace_url":"https://maps.google.com/?cid=17377375925736205360","dealerID":72197,"trusted":false,"image_id":"v1597283981/buick_RM.png","phone":"8778496856","cityStateSlug":"belle-plaine.ia","slug":"Belle-Plaine.IA/john+grieder+motors","location":"41.8965914,-92.2812496","brandsList":["buick","chevrolet"]},{"id":14244,"crm_id":67066753,"name":"Thys Chevrolet-Blairstown","dealerSlug":"thys+chevrolet+blairstown","city_state_slug":"Blairstown.IA","brand":"Chevrolet","website":"www.thysblairstown.com","address":"507 Locust St SE NW","city":"Blairstown","state":"IA","zip":52209,"latitude":41.9105444,"longitude":-92.0853667,"phone_number_service":"8665496074","phone_number_main":"3194546413","service_hours":"Mo-Fr 08:00 - 17:00 | Sa 08:00 - 12:00","utc_offset":"-300","gplace_id":null,"gplace_url":"https://maps.google.com/?cid=5582876465273990855","dealerID":72198,"trusted":false,"image_id":"v1597284079/chevy_ms.png","phone":"8665496074","cityStateSlug":"blairstown.ia","slug":"Blairstown.IA/thys+chevrolet+blairstown","location":"41.9105444,-92.0853667","brandsList":["chevrolet"]},{"id":7665,"crm_id":67066762,"name":"Junge Mazda","dealerSlug":"junge+mazda","city_state_slug":"Hiawatha.IA","brand":"Mazda","website":"www.jungemazda.com","address":"1200 Boyson Rd","city":"Hiawatha","state":"IA","zip":52233,"latitude":42.0451247,"longitude":-91.6900582,"phone_number_service":"8884379456","phone_number_main":"3193936500","service_hours":"Mo-Fr 07:00-17:30 | Sa 08:00-13:00","utc_offset":"-300","gplace_id":null,"gplace_url":"https://maps.google.com/?cid=15148547551202363936","dealerID":72199,"trusted":false,"image_id":"v1597283937/mazda.png","phone":"8884379456","cityStateSlug":"hiawatha.ia","slug":"Hiawatha.IA/junge+mazda","location":"42.0451247,-91.6900582","brandsList":["mazda"]},{"id":7666,"crm_id":67066765,"name":"Junge Volvo Cars","dealerSlug":"junge+volvo+cars","city_state_slug":"Hiawatha.IA","brand":"Volvo","website":"www.jungevolvocars.com","address":"1200 Boyson Rd","city":"Hiawatha","state":"IA","zip":52233,"latitude":42.0452254,"longitude":-91.6900116,"phone_number_service":"8887100806","phone_number_main":"3193936500","service_hours":"Mo-Fr 07:00-17:30 | Sa 08:00-13:00","utc_offset":"-300","gplace_id":null,"gplace_url":"https://maps.google.com/?cid=3946544493639654624","dealerID":72200,"trusted":false,"image_id":"v1597283901/volvo.jpg","phone":"8887100806","cityStateSlug":"hiawatha.ia","slug":"Hiawatha.IA/junge+volvo+cars","location":"42.0452254,-91.6900116","brandsList":["volvo"]},{"id":3888,"crm_id":67066771,"name":"Deery Brothers Chrysler Dodge Jeep RAM Iowa City","dealerSlug":"deery+brothers+chrysler+dodge+jeep+ram+iowa+city","city_state_slug":"Iowa-City.IA","brand":"Chrysler,Dodge,Jeep,RAM","website":"www.deerybrotherschryslerdodgeramjeep.com","address":"651 Highway 1 W","city":"Iowa City","state":"IA","zip":52246,"latitude":41.6466298,"longitude":-91.5478898,"phone_number_service":"3193830403","phone_number_main":"3197741750","service_hours":"Mo-Fr 07:00 - 18:00 | Sa 07:00 - 16:00","utc_offset":"-300","gplace_id":null,"gplace_url":"https://maps.google.com/?cid=6745295933721411438","dealerID":72201,"trusted":false,"image_id":"v1597283975/chrysler_RM.png","phone":"3193830403","cityStateSlug":"iowa-city.ia","slug":"Iowa-City.IA/deery+brothers+chrysler+dodge+jeep+ram+iowa+city","location":"41.6466298,-91.5478898","brandsList":["chrysler","dodge","jeep","ram"]},{"id":14480,"crm_id":67066774,"name":"Toyota of Iowa City","dealerSlug":"toyota+of+iowa+city","city_state_slug":"Iowa-City.IA","brand":"Toyota","website":"www.toyotaiowacity.com","address":"1445 Highway 1 W","city":"Iowa City","state":"IA","zip":52246,"latitude":41.6406174,"longitude":-91.5586809,"phone_number_service":"3193511842","phone_number_main":"3193511501","service_hours":"Mo-Fr 07:30 - 18:00 | Sa 08:00 - 13:00","utc_offset":"-300","gplace_id":null,"gplace_url":"https://maps.google.com/?cid=16033841208473389115","dealerID":72202,"trusted":false,"image_id":"v1597284039/toyota_ms.png","phone":"3193511842","cityStateSlug":"iowa-city.ia","slug":"Iowa-City.IA/toyota+of+iowa+city","location":"41.6406174,-91.5586809","brandsList":["toyota"]},{"id":2598,"crm_id":67066786,"name":"Carousel Mazda","dealerSlug":"carousel+mazda","city_state_slug":"Iowa-City.IA","brand":"Mazda","website":"www.carouselmotorsmazda.com","address":"809 Highway 1 West","city":"Iowa City","state":"IA","zip":52246,"latitude":41.645967,"longitude":-91.550754,"phone_number_service":"8885316450","phone_number_main":"3193542550","service_hours":"Mo-Fr 07:30 - 18:00","utc_offset":"-300","gplace_id":null,"gplace_url":"https://maps.google.com/?cid=14149618000159425659","dealerID":72203,"trusted":false,"image_id":"v1597283937/mazda.png","phone":"8885316450","cityStateSlug":"iowa-city.ia","slug":"Iowa-City.IA/carousel+mazda","location":"41.645967,-91.550754","brandsList":["mazda"]},{"id":2602,"crm_id":67066789,"name":"Carousel Volkswagen","dealerSlug":"carousel+volkswagen","city_state_slug":"Iowa-City.IA","brand":"Volkswagen","website":"www.carouselmotorsvw.com","address":"809 Highway 1 West","city":"Iowa City","state":"IA","zip":52246,"latitude":41.645967,"longitude":-91.550754,"phone_number_service":"8666783171","phone_number_main":"3193542550","service_hours":"Mo-Fr 07:30 - 18:00","utc_offset":"-300","gplace_id":null,"gplace_url":"https://maps.google.com/?cid=14149618000159425659","dealerID":72204,"trusted":false,"image_id":"v1597283902/volkswagen.png","phone":"8666783171","cityStateSlug":"iowa-city.ia","slug":"Iowa-City.IA/carousel+volkswagen","location":"41.645967,-91.550754","brandsList":["volkswagen"]},{"id":2599,"crm_id":67066792,"name":"Carousel Mercedes-Benz","dealerSlug":"carousel+mercedes+benz","city_state_slug":"Iowa-City.IA","brand":"Mercedes-Benz","website":"www.cmmercedes.com","address":"809 Highway 1 West","city":"Iowa City","state":"IA","zip":52246,"latitude":41.645967,"longitude":-91.550754,"phone_number_service":"8779947225","phone_number_main":"3193542550","service_hours":"Mo-Fr 07:30 - 18:00","utc_offset":"-300","gplace_id":null,"gplace_url":"https://maps.google.com/?cid=14149618000159425659","dealerID":72205,"trusted":false,"image_id":"v1597283934/mercedes_RM.png","phone":"8779947225","cityStateSlug":"iowa-city.ia","slug":"Iowa-City.IA/carousel+mercedes+benz","location":"41.645967,-91.550754","brandsList":["mercedes-benz"]},{"id":2818,"crm_id":67066804,"name":"Charles Capper Ford","dealerSlug":"charles+capper+ford","city_state_slug":"Williamsburg.IA","brand":"Ford","website":"www.capperautogroup.com","address":"409 N highland","city":"Williamsburg","state":"IA","zip":52361,"latitude":41.790162,"longitude":-92.069021,"phone_number_service":"8007281912","phone_number_main":"3196425525","service_hours":"","utc_offset":"-300","gplace_id":null,"gplace_url":"https://maps.google.com/?cid=9180126922235144042","dealerID":72206,"trusted":false,"image_id":"v1597283967/ford_RM.png","phone":"8007281912","cityStateSlug":"williamsburg.ia","slug":"Williamsburg.IA/charles+capper+ford","location":"41.790162,-92.069021","brandsList":["ford"]},{"id":9552,"crm_id":67066807,"name":"McGrath Volkswagen of Marion","dealerSlug":"mcgrath+volkswagen+of+marion","city_state_slug":"Marion.IA","brand":"Volkswagen","website":"www.mcgrathvw.com","address":"675 Blairs Ferry Rd","city":"Marion","state":"IA","zip":52302,"latitude":42.0313786,"longitude":-91.6132166,"phone_number_service":"8664225687","phone_number_main":"3193773474","service_hours":"Mo-Fr 07:00 - 17:30","utc_offset":"-300","gplace_id":null,"gplace_url":"https://maps.google.com/?cid=11530868258456499775","dealerID":72207,"trusted":false,"image_id":"v1597283902/volkswagen.png","phone":"8664225687","cityStateSlug":"marion.ia","slug":"Marion.IA/mcgrath+volkswagen+of+marion","location":"42.0313786,-91.6132166","brandsList":["volkswagen"]},{"id":9086,"crm_id":67066810,"name":"Lynch Ford","dealerSlug":"lynch+ford","city_state_slug":"Mount-Vernon.IA","brand":"Ford","website":"www.lynchford-mtvernon.com","address":"410 Business 30 SW","city":"Mount Vernon","state":"IA","zip":52314,"latitude":41.9157106,"longitude":-91.4297323,"phone_number_service":"8887265086","phone_number_main":"8773108354","service_hours":"Mo-Fr 07:00 - 17:00","utc_offset":"-300","gplace_id":null,"gplace_url":"https://maps.google.com/?cid=15312700141805361138","dealerID":72208,"trusted":false,"image_id":"v1597283967/ford_RM.png","phone":"8887265086","cityStateSlug":"mount-vernon.ia","slug":"Mount-Vernon.IA/lynch+ford","location":"41.9157106,-91.4297323","brandsList":["ford"]},{"id":4970,"crm_id":67066813,"name":"Ford Chevrolet of Newhall","dealerSlug":"ford+chevrolet+of+newhall","city_state_slug":"Newhall.IA","brand":"Chevrolet,Ford","website":"www.vhnewhall.com","address":"7300 28th Ave","city":"Newhall","state":"IA","zip":52315,"latitude":41.9621019,"longitude":-91.9480369,"phone_number_service":"3192235141","phone_number_main":"3192642914","service_hours":"Mo-Fr 07:30 - 17:00 | Sa 07:30-12:00","utc_offset":"-300","gplace_id":null,"gplace_url":"https://maps.google.com/?cid=16985964142002174552","dealerID":72209,"trusted":false,"image_id":"v1597284079/chevy_ms.png","phone":"3192235141","cityStateSlug":"newhall.ia","slug":"Newhall.IA/ford+chevrolet+of+newhall","location":"41.9621019,-91.9480369","brandsList":["chevrolet","ford"]},{"id":4564,"crm_id":67066822,"name":"Ervin Motor Co","dealerSlug":"ervin+motor+co","city_state_slug":"Vinton.IA","brand":"Buick,GMC","website":"www.ervinmotors.com","address":"201 South K Ave.","city":"Vinton","state":"IA","zip":52349,"latitude":42.1695,"longitude":-92.038233,"phone_number_service":"8772782539","phone_number_main":"3194724734","service_hours":"Mo-Fr 08:00 - 17:00","utc_offset":"-300","gplace_id":null,"gplace_url":"https://maps.google.com/?cid=10482536255725846648","dealerID":72210,"trusted":false,"image_id":"v1597283981/buick_RM.png","phone":"8772782539","cityStateSlug":"vinton.ia","slug":"Vinton.IA/ervin+motor+co","location":"42.1695,-92.038233","brandsList":["buick","gmc"]},{"id":9545,"crm_id":67066831,"name":"McGrath Ford","dealerSlug":"mcgrath+ford","city_state_slug":"Hiawatha.IA","brand":"Ford","website":"www.mcgrathford.com","address":"1040 N Center Point Rd","city":"Hiawatha","state":"IA","zip":52233,"latitude":42.0480604,"longitude":-91.6859399,"phone_number_service":"3192843140","phone_number_main":"3193664000","service_hours":"Mo-Fr 07:00 - 17:30","utc_offset":"-300","gplace_id":null,"gplace_url":"https://maps.google.com/?cid=11697393863707230469","dealerID":72211,"trusted":false,"image_id":"v1597283967/ford_RM.png","phone":"3192843140","cityStateSlug":"hiawatha.ia","slug":"Hiawatha.IA/mcgrath+ford","location":"42.0480604,-91.6859399","brandsList":["ford"]},{"id":9541,"crm_id":67066837,"name":"McGrath Chrysler Jeep Dodge RAM","dealerSlug":"mcgrath+chrysler+jeep+dodge+ram","city_state_slug":"Cedar-Rapids.IA","brand":"Chrysler,Dodge,Jeep,RAM","website":"www.patmcgrathdodgecountry.com","address":"4610 Center Point Rd NE","city":"Cedar Rapids","state":"IA","zip":52402,"latitude":42.0262897,"longitude":-91.6666642,"phone_number_service":"3194238028","phone_number_main":"3193934610","service_hours":"Mo-Fr 07:00 - 17:30 | Sa 07:30 - 17:00","utc_offset":"-300","gplace_id":null,"gplace_url":"https://maps.google.com/?cid=62825192208286584","dealerID":72212,"trusted":false,"image_id":"v1597283975/chrysler_RM.png","phone":"3194238028","cityStateSlug":"cedar-rapids.ia","slug":"Cedar-Rapids.IA/mcgrath+chrysler+jeep+dodge+ram","location":"42.0262897,-91.6666642","brandsList":["chrysler","dodge","jeep","ram"]},{"id":14885,"crm_id":67066840,"name":"Vaughn Chrysler Jeep Dodge RAM","dealerSlug":"vaughn+chrysler+jeep+dodge+ram","city_state_slug":"Ottumwa.IA","brand":"Chrysler,Dodge,Jeep,RAM","website":"www.vaughnchryslerjeepdodge.com","address":"1317 Vaughn Dr","city":"Ottumwa","state":"IA","zip":52501,"latitude":41.0193415,"longitude":-92.4400102,"phone_number_service":"8443305393","phone_number_main":"6416824574","service_hours":"Mo-Fr 07:30 - 17:30 | Sa 08:00-15:00","utc_offset":"-300","gplace_id":null,"gplace_url":"https://maps.google.com/?cid=14685294319528301102","dealerID":72213,"trusted":false,"image_id":"v1597283975/chrysler_RM.png","phone":"8443305393","cityStateSlug":"ottumwa.ia","slug":"Ottumwa.IA/vaughn+chrysler+jeep+dodge+ram","location":"41.0193415,-92.4400102","brandsList":["chrysler","dodge","jeep","ram"]},{"id":3068,"crm_id":67066846,"name":"Clemons Ford Lincoln","dealerSlug":"clemons+ford+lincoln","city_state_slug":"Ottumwa.IA","brand":"Ford,Lincoln","website":"www.clemonsford.com","address":"2839 N Court St","city":"Ottumwa","state":"IA","zip":52501,"latitude":41.0522062,"longitude":-92.4099099,"phone_number_service":"8338190863","phone_number_main":"6416823422","service_hours":"Mo-Fr 07:30 - 17:30 | Sa 08:00 - 14:00","utc_offset":"-300","gplace_id":null,"gplace_url":"https://maps.google.com/?cid=3005337236361595078","dealerID":72214,"trusted":false,"image_id":"v1597283967/ford_RM.png","phone":"8338190863","cityStateSlug":"ottumwa.ia","slug":"Ottumwa.IA/clemons+ford+lincoln","location":"41.0522062,-92.4099099","brandsList":["ford","lincoln"]},{"id":3069,"crm_id":67066849,"name":"Clemons Toyota","dealerSlug":"clemons+toyota","city_state_slug":"Ottumwa.IA","brand":"Toyota","website":"clemonstoyota.com","address":"2839 N Court Rd","city":"Ottumwa","state":"IA","zip":52501,"latitude":41.0627544,"longitude":-92.4111847,"phone_number_service":"6419543572","phone_number_main":"6416823422","service_hours":"Mo-Fr 07:30 - 17:00 | Sa 07:30 - 14:00","utc_offset":"-300","gplace_id":null,"gplace_url":"https://maps.google.com/?cid=1729405617733435187","dealerID":72215,"trusted":false,"image_id":"v1597284039/toyota_ms.png","phone":"6419543572","cityStateSlug":"ottumwa.ia","slug":"Ottumwa.IA/clemons+toyota","location":"41.0627544,-92.4111847","brandsList":["toyota"]},{"id":176,"crm_id":67066852,"name":"Albia Motor Co.","dealerSlug":"albia+motor+co","city_state_slug":"Albia.IA","brand":"Ford","website":"www.albiamotorco.com","address":"114 N Clinton St","city":"Albia","state":"IA","zip":52531,"latitude":41.0287027,"longitude":-92.8081909,"phone_number_service":"8557092801","phone_number_main":"6419325416","service_hours":"Mo-Fr 08:00 - 17:00","utc_offset":"-300","gplace_id":null,"gplace_url":"https://maps.google.com/?cid=10237687079029854730","dealerID":72216,"trusted":false,"image_id":"v1597283967/ford_RM.png","phone":"8557092801","cityStateSlug":"albia.ia","slug":"Albia.IA/albia+motor+co","location":"41.0287027,-92.8081909","brandsList":["ford"]},{"id":4762,"crm_id":67066864,"name":"Fesler Auto Mall","dealerSlug":"fesler+auto+mall","city_state_slug":"Fairfield.IA","brand":"Ford","website":"www.feslerford.com","address":"1922 Highway 34 West","city":"Fairfield","state":"IA","zip":52556,"latitude":41.0266004,"longitude":-95.2040586,"phone_number_service":"8443390134","phone_number_main":"6414722161","service_hours":"Mo-Fr 08:00 - 17:00","utc_offset":"-300","gplace_id":null,"gplace_url":"https://maps.google.com/?cid=590414802276550434","dealerID":72217,"trusted":false,"image_id":"v1597283967/ford_RM.png","phone":"8443390134","cityStateSlug":"fairfield.ia","slug":"Fairfield.IA/fesler+auto+mall","location":"41.0266004,-95.2040586","brandsList":["ford"]},{"id":15159,"crm_id":67066873,"name":"Wagler Motor Company","dealerSlug":"wagler+motor+company","city_state_slug":"Sigourney.IA","brand":"Ford","website":"www.waglermotor.com","address":"308 N. Main","city":"Sigourney","state":"IA","zip":52591,"latitude":41.3359405,"longitude":-92.2056452,"phone_number_service":"8884099599","phone_number_main":"6416223260","service_hours":"Mo-Fr 07:30 - 17:00 | Sa 08:00 - 12:00","utc_offset":"-300","gplace_id":null,"gplace_url":"https://maps.google.com/?cid=6033966918191289379","dealerID":72218,"trusted":false,"image_id":"v1597283967/ford_RM.png","phone":"8884099599","cityStateSlug":"sigourney.ia","slug":"Sigourney.IA/wagler+motor+company","location":"41.3359405,-92.2056452","brandsList":["ford"]},{"id":3081,"crm_id":67066885,"name":"Clinton Chrysler Dodge Jeep","dealerSlug":"clinton+chrysler+dodge+jeep","city_state_slug":"Clinton.IA","brand":"Chrysler,Dodge,Jeep,RAM","website":"www.clintonchryslerdodgejeep.com","address":"2850 Valley W Dr ste c","city":"Clinton","state":"IA","zip":52732,"latitude":41.8215117,"longitude":-90.2546231,"phone_number_service":"5632413751","phone_number_main":"5632420441","service_hours":"Mo-Fr 08:00 - 17:00 | Sa 08:00 - 14:00","utc_offset":"-300","gplace_id":null,"gplace_url":"https://maps.google.com/?cid=11987819756653001319","dealerID":72219,"trusted":false,"image_id":"v1597283975/chrysler_RM.png","phone":"5632413751","cityStateSlug":"clinton.ia","slug":"Clinton.IA/clinton+chrysler+dodge+jeep","location":"41.8215117,-90.2546231","brandsList":["chrysler","dodge","jeep","ram"]},{"id":3085,"crm_id":67066891,"name":"Clinton Nissan","dealerSlug":"clinton+nissan","city_state_slug":"Clinton.IA","brand":"Nissan","website":"www.clinton-nissan.com","address":"2850 Valley West Dr","city":"Clinton","state":"IA","zip":52732,"latitude":41.8217622,"longitude":-90.2546071,"phone_number_service":"8886054315","phone_number_main":"9105902005","service_hours":"Mo-Fr 08:00 - 17:00 | Sa 08:00 - 14:00","utc_offset":"-240","gplace_id":null,"gplace_url":"https://maps.google.com/?cid=5721946233577643268","dealerID":72221,"trusted":false,"image_id":"v1597283926/nissan_RM.png","phone":"8886054315","cityStateSlug":"clinton.ia","slug":"Clinton.IA/clinton+nissan","location":"41.8217622,-90.2546071","brandsList":["nissan"]},{"id":10119,"crm_id":67066894,"name":"Mincer Ford","dealerSlug":"mincer+ford","city_state_slug":"Columbus-Junction.IA","brand":"Ford","website":"www.mincerfordinc.com","address":"23572 IA-92","city":"Columbus Junction","state":"IA","zip":52738,"latitude":41.2813491,"longitude":-91.3810295,"phone_number_service":"8669489005","phone_number_main":"3197282249","service_hours":"Mo-Fr 07:30 - 17:00 | Sa 07:30 - 12:00","utc_offset":"-300","gplace_id":null,"gplace_url":"https://maps.google.com/?cid=134481396608531070","dealerID":72222,"trusted":false,"image_id":"v1597283967/ford_RM.png","phone":"8669489005","cityStateSlug":"columbus-junction.ia","slug":"Columbus-Junction.IA/mincer+ford","location":"41.2813491,-91.3810295","brandsList":["ford"]},{"id":8100,"crm_id":67066897,"name":"Kriegers Chevrolet Buick GMC DeWitt","dealerSlug":"kriegers+chevrolet+buick+gmc+dewitt","city_state_slug":"DeWitt.IA","brand":"Buick,Chevrolet,GMC","website":"www.kriegersdewitt.com","address":"2113 11th St","city":"DeWitt","state":"IA","zip":52742,"latitude":41.8252191,"longitude":-90.5618148,"phone_number_service":"8778661257","phone_number_main":"5635036109","service_hours":"Mo-Fr 07:30 - 17:30 | Sa 07:30 - 12:00","utc_offset":"-300","gplace_id":null,"gplace_url":"https://maps.google.com/?cid=10160128443586473055","dealerID":72223,"trusted":false,"image_id":"v1597283981/buick_RM.png","phone":"8778661257","cityStateSlug":"dewitt.ia","slug":"DeWitt.IA/kriegers+chevrolet+buick+gmc+dewitt","location":"41.8252191,-90.5618148","brandsList":["buick","chevrolet","gmc"]},{"id":8102,"crm_id":67066900,"name":"Kriegers Chrysler Dodge Jeep RAM","dealerSlug":"kriegers+chrysler+dodge+jeep+ram","city_state_slug":"Muscatine.IA","brand":"Chrysler,Dodge,Jeep,RAM","website":"www.kriegermotor.com","address":"3205 N Highway 61","city":"Muscatine","state":"IA","zip":52761,"latitude":41.4597853,"longitude":-91.0212345,"phone_number_service":"5632720581","phone_number_main":"5632635324","service_hours":"Mo-Fr 07:00 - 18:00 | Sa 07:30 - 14:00","utc_offset":"-300","gplace_id":null,"gplace_url":"https://maps.google.com/?cid=10371648580412293984","dealerID":72224,"trusted":false,"image_id":"v1597283975/chrysler_RM.png","phone":"5632720581","cityStateSlug":"muscatine.ia","slug":"Muscatine.IA/kriegers+chrysler+dodge+jeep+ram","location":"41.4597853,-91.0212345","brandsList":["chrysler","dodge","jeep","ram"]},{"id":8103,"crm_id":67066903,"name":"Kriegers Ford Lincoln","dealerSlug":"kriegers+ford+lincoln","city_state_slug":"Muscatine.IA","brand":"Ford,Lincoln","website":"www.kriegersford.com","address":"3205 North Highway 61","city":"Muscatine","state":"IA","zip":52761,"latitude":41.459647,"longitude":-91.0209808,"phone_number_service":"8882298945","phone_number_main":"5632635324","service_hours":"Mo-Fr 07:30 - 17:00 | Sa 08:00 - 12:00","utc_offset":"-300","gplace_id":null,"gplace_url":"https://maps.google.com/?cid=6165358678076499053","dealerID":72225,"trusted":false,"image_id":"v1597283967/ford_RM.png","phone":"8882298945","cityStateSlug":"muscatine.ia","slug":"Muscatine.IA/kriegers+ford+lincoln","location":"41.459647,-91.0209808","brandsList":["ford","lincoln"]},{"id":8101,"crm_id":67066906,"name":"Kriegers Chevrolet Buick GMC Muscatine","dealerSlug":"kriegers+chevrolet+buick+gmc+muscatine","city_state_slug":"Muscatine.IA","brand":"Buick,Chevrolet,GMC","website":"www.kriegermuscatine.com","address":"501 W Bypass 61","city":"Muscatine","state":"IA","zip":52761,"latitude":41.4109326,"longitude":-91.0613259,"phone_number_service":"8666795599","phone_number_main":"5636075009","service_hours":"Mo-Fr 07:30 - 17:30 | Sa 08:00 - 12:00","utc_offset":"-300","gplace_id":null,"gplace_url":"https://maps.google.com/?cid=14809712478505072969","dealerID":72226,"trusted":false,"image_id":"v1597283981/buick_RM.png","phone":"8666795599","cityStateSlug":"muscatine.ia","slug":"Muscatine.IA/kriegers+chevrolet+buick+gmc+muscatine","location":"41.4109326,-91.0613259","brandsList":["buick","chevrolet","gmc"]},{"id":10933,"crm_id":67066909,"name":"O'Rourke Motors","dealerSlug":"orourke+motors","city_state_slug":"Tipton.IA","brand":"Ford","website":"www.orourkemotorsonline.com","address":"101 Alexander Dr","city":"Tipton","state":"IA","zip":52772,"latitude":41.7596701,"longitude":-91.1295882,"phone_number_service":"8885247996","phone_number_main":"5638866184","service_hours":"Mo-Fr 08:00 - 17:30 | Sa 08:00 - 13:00","utc_offset":"-300","gplace_id":null,"gplace_url":"https://maps.google.com/?cid=5731657665217548437","dealerID":72227,"trusted":false,"image_id":"v1597283967/ford_RM.png","phone":"8885247996","cityStateSlug":"tipton.ia","slug":"Tipton.IA/orourke+motors","location":"41.7596701,-91.1295882","brandsList":["ford"]},{"id":9820,"crm_id":67066912,"name":"Mercedes-Benz of Quad Cities","dealerSlug":"mercedes+benz+of+quad+cities","city_state_slug":"Davenport.IA","brand":"Mercedes-Benz","website":"www.mercedesofquadcities.com/","address":"1777 E 53rd St","city":"Davenport","state":"IA","zip":52807,"latitude":41.5738888,"longitude":-90.550174,"phone_number_service":"5634454305","phone_number_main":"5634454745","service_hours":"Mo-Fr 07:00 - 18:00 | Sa 07:30 - 13:00","utc_offset":"-300","gplace_id":null,"gplace_url":"https://maps.google.com/?cid=7574651811248518533","dealerID":72228,"trusted":false,"image_id":"v1597283934/mercedes_RM.png","phone":"5634454305","cityStateSlug":"davenport.ia","slug":"Davenport.IA/mercedes+benz+of+quad+cities","location":"41.5738888,-90.550174","brandsList":["mercedes-benz"]},{"id":637,"crm_id":67066915,"name":"Audi Quad Cities","dealerSlug":"audi+quad+cities","city_state_slug":"Davenport.IA","brand":"Audi","website":"www.quadcitiesaudi.com","address":"1777 E 53rd St","city":"Davenport","state":"IA","zip":52807,"latitude":41.5746673,"longitude":-90.5500023,"phone_number_service":"8773642544","phone_number_main":"8887869798","service_hours":"Mo-Fr 07:00 - 18:00 | Sa 07:30 - 13:00","utc_offset":"-300","gplace_id":null,"gplace_url":"https://maps.google.com/?cid=9215092967042470353","dealerID":72229,"trusted":false,"image_id":"v1597283985/audi_RM.png","phone":"8773642544","cityStateSlug":"davenport.ia","slug":"Davenport.IA/audi+quad+cities","location":"41.5746673,-90.5500023","brandsList":["audi"]},{"id":15047,"crm_id":67066918,"name":"Volkswagen of Quad Cities","dealerSlug":"volkswagen+of+quad+cities","city_state_slug":"Davenport.IA","brand":"Volkswagen","website":"www.vwofquadcities.com","address":"1777 E 53rd St","city":"Davenport","state":"IA","zip":52807,"latitude":41.5746673,"longitude":-90.5500023,"phone_number_service":"5634454305","phone_number_main":"5634454305","service_hours":"Mo-Fr 07:00 - 18:00 | Sa 07:30 - 13:00","utc_offset":"-300","gplace_id":null,"gplace_url":"https://maps.google.com/?cid=3904644108610301843","dealerID":72230,"trusted":false,"image_id":"v1597283902/volkswagen.png","phone":"5634454305","cityStateSlug":"davenport.ia","slug":"Davenport.IA/volkswagen+of+quad+cities","location":"41.5746673,-90.5500023","brandsList":["volkswagen"]},{"id":13290,"crm_id":67066924,"name":"Smart Honda of Davenport","dealerSlug":"smart+honda+of+davenport","city_state_slug":"Davenport.IA","brand":"Honda","website":"www.smarthondadavenport.com","address":"3700 N Harrison St","city":"Davenport","state":"IA","zip":52806,"latitude":41.5574989,"longitude":-90.578745,"phone_number_service":"5634454960","phone_number_main":"5634454960","service_hours":"Mo-Fr 07:00 - 19:00 | Sa 07:00 - 17:00","utc_offset":"-300","gplace_id":null,"gplace_url":"https://maps.google.com/?cid=2776011287726287226","dealerID":72231,"trusted":false,"image_id":"v1597284047/honda_ms.png","phone":"5634454960","cityStateSlug":"davenport.ia","slug":"Davenport.IA/smart+honda+of+davenport","location":"41.5574989,-90.578745","brandsList":["honda"]},{"id":14253,"crm_id":67066927,"name":"Tilton Jax Nissan","dealerSlug":"tilton+jax+nissan","city_state_slug":"Davenport.IA","brand":"Nissan","website":"www.tiltonjaxnissan.com","address":"3750 N Harrison St","city":"Davenport","state":"IA","zip":52806,"latitude":41.5583073,"longitude":-90.5787597,"phone_number_service":"5634454777","phone_number_main":"5634454304","service_hours":"Mo-Fr 07:00 - 18:00 | Sa 07:00 - 13:00","utc_offset":"-300","gplace_id":null,"gplace_url":"https://maps.google.com/?cid=3803878202985094628","dealerID":72232,"trusted":false,"image_id":"v1597283926/nissan_RM.png","phone":"5634454777","cityStateSlug":"davenport.ia","slug":"Davenport.IA/tilton+jax+nissan","location":"41.5583073,-90.5787597","brandsList":["nissan"]},{"id":13740,"crm_id":67066930,"name":"Strieter Motor Co","dealerSlug":"strieter+motor+co","city_state_slug":"Davenport.IA","brand":"Lincoln","website":"www.strietermotorlincoln.com","address":"520 W Kimberly Rd","city":"Davenport","state":"IA","zip":52806,"latitude":41.5605296,"longitude":-90.5805792,"phone_number_service":"8772257864","phone_number_main":"8884748804","service_hours":"Mo-Fr  08:00 - 17:00 | Sa 08:00 - 12:00","utc_offset":"-300","gplace_id":null,"gplace_url":"https://maps.google.com/?cid=3768362105709212167","dealerID":72233,"trusted":false,"image_id":"v1597283942/lincoln_RM.png","phone":"8772257864","cityStateSlug":"davenport.ia","slug":"Davenport.IA/strieter+motor+co","location":"41.5605296,-90.5805792","brandsList":["lincoln"]},{"id":7966,"crm_id":67066933,"name":"Kimberly Car City","dealerSlug":"kimberly+car+city","city_state_slug":"Davenport.IA","brand":"Chrysler,Dodge,Jeep,RAM","website":"www.kimberlycarcity.com","address":"625 W Kimberly Rd","city":"Davenport","state":"IA","zip":52806,"latitude":41.5596466,"longitude":-90.5824127,"phone_number_service":"5634845161","phone_number_main":"5633918300","service_hours":"Mo-Fr 07:30 - 18:00 | Sa 07:30 - 15:00","utc_offset":"-300","gplace_id":null,"gplace_url":"https://maps.google.com/?cid=17071405492879627698","dealerID":72234,"trusted":false,"image_id":"v1597283975/chrysler_RM.png","phone":"5634845161","cityStateSlug":"davenport.ia","slug":"Davenport.IA/kimberly+car+city","location":"41.5596466,-90.5824127","brandsList":["chrysler","dodge","jeep","ram"]},{"id":12753,"crm_id":67079779,"name":"Rydell of Independence","dealerSlug":"rydell+of+independence","city_state_slug":"Independence.IA","brand":"Chrysler,Dodge,Jeep,RAM","website":"www.rydellauto.com","address":"2000 Enterprise Dr East","city":"Independence","state":"IA","zip":50644,"latitude":42.4502692,"longitude":-91.8877573,"phone_number_service":"3193346033","phone_number_main":"3193346033","service_hours":"Mo-Fr 07:00 - 18:00 | Sa 08:00 - 12:00","utc_offset":"-300","gplace_id":null,"gplace_url":"https://maps.google.com/?cid=10766790870514917959","dealerID":74866,"trusted":false,"image_id":"v1597283975/chrysler_RM.png","phone":"3193346033","cityStateSlug":"independence.ia","slug":"Independence.IA/rydell+of+independence","location":"42.4502692,-91.8877573","brandsList":["chrysler","dodge","jeep","ram"]},{"id":4450,"crm_id":103692601,"name":"Edwards Chevrolet Buick GMC Cadillac","dealerSlug":"edwards+chevrolet+buick+gmc+cadillac","city_state_slug":"Council-Bluffs.IA","brand":"Buick,Cadillac,Chevrolet,GMC","website":"www.edwardschevroletcadillac.com","address":"3400 S Expressway St","city":"Council Bluffs","state":"IA","zip":51501,"latitude":41.225069,"longitude":-95.851292,"phone_number_service":"8444248295","phone_number_main":"8776232166","service_hours":"Mo-Fr 06:30 - 18:00 | Sa 06:30-14:00","utc_offset":"-300","gplace_id":null,"gplace_url":"https://maps.google.com/?cid=11987088448966333202","dealerID":76604,"trusted":false,"image_id":"v1597283981/buick_RM.png","phone":"8444248295","cityStateSlug":"council-bluffs.ia","slug":"Council-Bluffs.IA/edwards+chevrolet+buick+gmc+cadillac","location":"41.225069,-95.851292","brandsList":["buick","cadillac","chevrolet","gmc"]},{"id":7663,"crm_id":106118503,"name":"Junge Ford North Liberty","dealerSlug":"junge+ford+north+liberty","city_state_slug":"North-Liberty.IA","brand":"Ford","website":"www.jungefordnorthliberty.net","address":"525 Madison Ave","city":"North Liberty","state":"IA","zip":52317,"latitude":41.7511079,"longitude":-91.6399058,"phone_number_service":"3196269500","phone_number_main":"3196269500","service_hours":"Mo-Fr 07:30-17:00 | Sa 08:00-13:00","utc_offset":"-300","gplace_id":null,"gplace_url":"https://maps.google.com/?cid=16878505983696734350","dealerID":76654,"trusted":false,"image_id":"v1597283967/ford_RM.png","phone":"3196269500","cityStateSlug":"north-liberty.ia","slug":"North-Liberty.IA/junge+ford+north+liberty","location":"41.7511079,-91.6399058","brandsList":["ford"]},{"id":1717,"crm_id":106119364,"name":"Bmw Of North Liberty","dealerSlug":"bmw+of+north+liberty","city_state_slug":"North-Liberty.IA","brand":"BMW","website":"www.bmwofnorthliberty.com","address":"525 N Madison Ave","city":"North Liberty","state":"IA","zip":52317,"latitude":41.7512247,"longitude":-91.6399055,"phone_number_service":"8338906014","phone_number_main":"3196269500","service_hours":"Mo-Fr 07:30 - 17:30 | Sa 08:00-13:00","utc_offset":"-300","gplace_id":null,"gplace_url":"https://maps.google.com/?cid=8365273061619408606","dealerID":51584,"trusted":true,"image_id":"v1597283982/bmw_RM.png","phone":"8338906014","cityStateSlug":"north-liberty.ia","slug":"North-Liberty.IA/bmw+of+north+liberty","location":"41.7512247,-91.6399055","brandsList":["bmw"]},{"id":7664,"crm_id":106121467,"name":"Junge Lincoln","dealerSlug":"junge+lincoln","city_state_slug":"Hiawatha.IA","brand":"Lincoln","website":"www.jungelincoln.net/","address":"1200 Boyson Rd","city":"Hiawatha","state":"IA","zip":52233,"latitude":42.0451407,"longitude":-91.6899648,"phone_number_service":"8883495095","phone_number_main":"3193936500","service_hours":"Mo-Fr 07:00-17:30 | Sa 08:00-13:00","utc_offset":"-300","gplace_id":null,"gplace_url":"https://maps.google.com/?cid=4924110238527694374","dealerID":76656,"trusted":false,"image_id":"v1597283942/lincoln_RM.png","phone":"8883495095","cityStateSlug":"hiawatha.ia","slug":"Hiawatha.IA/junge+lincoln","location":"42.0451407,-91.6899648","brandsList":["lincoln"]},{"id":7662,"crm_id":106122031,"name":"Junge Ford Center Point","dealerSlug":"junge+ford+center+point","city_state_slug":"Center-Point.IA","brand":"Ford","website":"www.jungeford.net","address":"1001 Ford Lane PO Box 339","city":"Center Point","state":"IA","zip":52213,"latitude":42.1783269,"longitude":-91.7758861,"phone_number_service":"3198492022","phone_number_main":"3198492022","service_hours":"Mo-Fr 07:30 - 17:30 | Sa 07:30 - 13:00","utc_offset":"-300","gplace_id":null,"gplace_url":"https://maps.google.com/?cid=16858844918140849832","dealerID":76657,"trusted":false,"image_id":"v1597283967/ford_RM.png","phone":"3198492022","cityStateSlug":"center-point.ia","slug":"Center-Point.IA/junge+ford+center+point","location":"42.1783269,-91.7758861","brandsList":["ford"]},{"id":7315,"crm_id":113031889,"name":"Jensen Mazda","dealerSlug":"jensen+mazda","city_state_slug":"Sioux-City.IA","brand":"Mazda","website":"www.jensenmazda.com/","address":"3909 Stadium Dr","city":"Sioux City","state":"IA","zip":51106,"latitude":42.4384141,"longitude":-96.365416,"phone_number_service":"8773741476","phone_number_main":"7122553000","service_hours":"Mo-Fr 08:00-18:00 | Sa 08:00-12:00","utc_offset":"-300","gplace_id":null,"gplace_url":"https://maps.google.com/?cid=9968883704409369482","dealerID":76820,"trusted":false,"image_id":"v1597283937/mazda.png","phone":"8773741476","cityStateSlug":"sioux-city.ia","slug":"Sioux-City.IA/jensen+mazda","location":"42.4384141,-96.365416","brandsList":["mazda"]},{"id":10139,"crm_id":114975878,"name":"MINI of Des Moines","dealerSlug":"mini+of+des+moines","city_state_slug":"Des-Moines.IA","brand":"MINI","website":"www.miniofdesmoines.com","address":"9900 Hickman Rd","city":"Des Moines","state":"IA","zip":50325,"latitude":41.6141726,"longitude":-93.7543817,"phone_number_service":"8554471699","phone_number_main":"8007247365","service_hours":"Mo-Fr 07:30 - 17:30","utc_offset":"-300","gplace_id":null,"gplace_url":"https://maps.google.com/?cid=3743088648761340661","dealerID":76957,"trusted":false,"image_id":"v1597283930/mini_RM.png","phone":"8554471699","cityStateSlug":"des-moines.ia","slug":"Des-Moines.IA/mini+of+des+moines","location":"41.6141726,-93.7543817","brandsList":["mini"]},{"id":13292,"crm_id":115425157,"name":"Smart Kia of Davenport","dealerSlug":"smart+kia+of+davenport","city_state_slug":"Davenport.IA","brand":"Kia","website":"www.smartkiadavenport.com","address":"3707 N Harrison St","city":"Davenport","state":"IA","zip":52806,"latitude":41.5567589,"longitude":-90.5765463,"phone_number_service":"5634479062","phone_number_main":"5634454303","service_hours":"Mo-Fr 07:00 - 18:00 | Sa 07:30 - 13:00","utc_offset":"-300","gplace_id":null,"gplace_url":"https://maps.google.com/?cid=10914656186686370985","dealerID":77025,"trusted":false,"image_id":"v1597283948/kia_RM.png","phone":"5634479062","cityStateSlug":"davenport.ia","slug":"Davenport.IA/smart+kia+of+davenport","location":"41.5567589,-90.5765463","brandsList":["kia"]},{"id":8892,"crm_id":115637767,"name":"Lithia Nissan of Ames","dealerSlug":"lithia+nissan+of+ames","city_state_slug":"Ames.IA","brand":"Nissan","website":"www.amesnissan.com","address":"2901 S Duff Ave","city":"Ames","state":"IA","zip":50010,"latitude":41.9968784,"longitude":-93.611412,"phone_number_service":"5156204198","phone_number_main":"8889604465","service_hours":"Mo-Fr 07:30 - 17:00 | Sa 07:30 - 13:00","utc_offset":"-300","gplace_id":null,"gplace_url":"https://maps.google.com/?cid=10539225539756535029","dealerID":77210,"trusted":false,"image_id":"v1597283926/nissan_RM.png","phone":"5156204198","cityStateSlug":"ames.ia","slug":"Ames.IA/lithia+nissan+of+ames","location":"41.9968784,-93.611412","brandsList":["nissan"]},{"id":8911,"crm_id":115637827,"name":"Lithia Volkswagen of Des Moines","dealerSlug":"lithia+volkswagen+of+des+moines","city_state_slug":"Johnston.IA","brand":"Volkswagen","website":"www.volkswagenofdesmoines.com/","address":"5200 Merle Hay Rd","city":"Johnston","state":"IA","zip":50131,"latitude":41.6552513,"longitude":-93.6987368,"phone_number_service":"8669632153","phone_number_main":"5152530333","service_hours":"Mo-Fr 08:00 - 17:00 | Sa 08:00 - 13:00","utc_offset":"-300","gplace_id":null,"gplace_url":"https://maps.google.com/?cid=13520626685380725950","dealerID":77211,"trusted":false,"image_id":"v1597283902/volkswagen.png","phone":"8669632153","cityStateSlug":"johnston.ia","slug":"Johnston.IA/lithia+volkswagen+of+des+moines","location":"41.6552513,-93.6987368","brandsList":["volkswagen"]}]