[{"id":16109,"crm_id":999,"name":"Cascade Auto","dealerSlug":"cascade+auto","city_state_slug":"Cascade.ID","brand":"Chrysler,Dodge,Jeep,RAM","website":"www.cascadeautochryslerdodgejeep.com","address":"118 S Main St.","city":"Cascade","state":"ID","zip":83611,"latitude":44.515151,"longitude":-116.041247,"phone_number_service":"2083824224","phone_number_main":"","service_hours":"Mo-Fr 08:00 - 18:00 | Sa 08:00 - 24:00 | Su Closed","utc_offset":"","gplace_id":0,"gplace_url":"","dealerID":60053,"trusted":false,"image_id":"v1597283975/chrysler_RM.png","phone":"2083824224","cityStateSlug":"cascade.id","slug":"Cascade.ID/cascade+auto","location":"44.515151,-116.041247","brandsList":["chrysler","dodge","jeep","ram"]},{"id":16165,"crm_id":999,"name":"Coeur D'alene Nissan","dealerSlug":"coeur+dalene+nissan","city_state_slug":"Coeur-d'Alene.ID","brand":"Nissan","website":"www.coeurdalenenissan.com","address":"4301 N CROWN AVE","city":"Coeur d'Alene","state":"ID","zip":83815,"latitude":47.7175746,"longitude":-116.7907585,"phone_number_service":"2086185005","phone_number_main":"","service_hours":"Mo-Sa 08:00 - 19:00\n | Su 11:00 - 17:00","utc_offset":"","gplace_id":0,"gplace_url":"","dealerID":60055,"trusted":false,"image_id":"v1597283926/nissan_RM.png","phone":"2086185005","cityStateSlug":"coeur-d'alene.id","slug":"Coeur-d'Alene.ID/coeur+dalene+nissan","location":"47.7175746,-116.7907585","brandsList":["nissan"]},{"id":17469,"crm_id":999,"name":"Salmon River Motors","dealerSlug":"salmon+river+motors","city_state_slug":"Salmon.ID","brand":"Chrysler,Dodge,Jeep,RAM","website":"www.salmonrivermotors.net","address":"1065 S Challis St","city":"Salmon","state":"ID","zip":83467,"latitude":45.163886,"longitude":-113.894514,"phone_number_service":"2088752239","phone_number_main":"2088752073","service_hours":"Mo-Fr 08:00 - 18:00 | Sa 08:00 - 14:00 | Su Closed","utc_offset":"","gplace_id":0,"gplace_url":"","dealerID":60057,"trusted":false,"image_id":"v1597283975/chrysler_RM.png","phone":"2088752239","cityStateSlug":"salmon.id","slug":"Salmon.ID/salmon+river+motors","location":"45.163886,-113.894514","brandsList":["chrysler","dodge","jeep","ram"]},{"id":17470,"crm_id":999,"name":"Salmon River Motors","dealerSlug":"salmon+river+motors","city_state_slug":"Salmon.ID","brand":"Ford","website":"www.salmonrivermotorsidaho.com","address":"1065 South Challis Street","city":"Salmon","state":"ID","zip":83467,"latitude":45.164021,"longitude":-113.893207,"phone_number_service":"2087564212","phone_number_main":"2087564211","service_hours":"Mo-Fr 08:00 - 17:30 | Sa 08:00 - 15:00 | Su Closed","utc_offset":"","gplace_id":0,"gplace_url":"","dealerID":60058,"trusted":false,"image_id":"v1597283967/ford_RM.png","phone":"2087564212","cityStateSlug":"salmon.id","slug":"Salmon.ID/salmon+river+motors","location":"45.164021,-113.893207","brandsList":["ford"]},{"id":17649,"crm_id":999,"name":"Tadd Jenkins Ford","dealerSlug":"tadd+jenkins+ford","city_state_slug":"Blackfoot.ID","brand":"Ford","website":"www.taddjenkinsford.com","address":"1090 Ford Way","city":"Blackfoot","state":"ID","zip":83221,"latitude":43.195329,"longitude":-112.3586,"phone_number_service":"2087851900","phone_number_main":"","service_hours":"Mo-Fr 08:00 - 18:00 | Sa 09:00 - 18:00 | Su Closed","utc_offset":"","gplace_id":0,"gplace_url":"","dealerID":60059,"trusted":false,"image_id":"v1597283967/ford_RM.png","phone":"2087851900","cityStateSlug":"blackfoot.id","slug":"Blackfoot.ID/tadd+jenkins+ford","location":"43.195329,-112.3586","brandsList":["ford"]},{"id":17844,"crm_id":999,"name":"West Motor Company","dealerSlug":"west+motor+company","city_state_slug":"Preston.ID","brand":"Chrysler,Dodge,Jeep,RAM","website":"www.westmotor.net","address":"296 North State Street","city":"Preston","state":"ID","zip":83263,"latitude":42.10247,"longitude":-111.876483,"phone_number_service":"2088521337","phone_number_main":"","service_hours":"Mo-Fr 08:00 - 18:00 | Sa 08:00 - 15:00 | Su Closed","utc_offset":"","gplace_id":0,"gplace_url":"","dealerID":60062,"trusted":false,"image_id":"v1597283975/chrysler_RM.png","phone":"2088521337","cityStateSlug":"preston.id","slug":"Preston.ID/west+motor+company","location":"42.10247,-111.876483","brandsList":["chrysler","dodge","jeep","ram"]},{"id":17845,"crm_id":999,"name":"West Motor Ford","dealerSlug":"west+motor+ford","city_state_slug":"Preston.ID","brand":"Ford","website":"www.westmotorford.com","address":"801 North State Street","city":"Preston","state":"ID","zip":83263,"latitude":42.110684,"longitude":-111.87491,"phone_number_service":"2088523853","phone_number_main":"","service_hours":"Mo-Fr 08:00 - 18:00 | Sa 08:00 - 16:00 | Su Closed","utc_offset":"","gplace_id":0,"gplace_url":"","dealerID":60065,"trusted":false,"image_id":"v1597283967/ford_RM.png","phone":"2088523853","cityStateSlug":"preston.id","slug":"Preston.ID/west+motor+ford","location":"42.110684,-111.87491","brandsList":["ford"]},{"id":17587,"crm_id":999,"name":"Stateline Auto Ranch Subaru","dealerSlug":"stateline+auto+ranch+subaru","city_state_slug":"Fruitland.ID","brand":"Subaru","website":"OntarioAutoRanchSubaru.dealer.subaru.com","address":"900 N Whitley Dr","city":"Fruitland","state":"ID","zip":83619,"latitude":44.019856,"longitude":-116.92302,"phone_number_service":"7195871800","phone_number_main":"","service_hours":"","utc_offset":"","gplace_id":0,"gplace_url":"","dealerID":60243,"trusted":false,"image_id":"v1597283982/subaru_ms.png","phone":"7195871800","cityStateSlug":"fruitland.id","slug":"Fruitland.ID/stateline+auto+ranch+subaru","location":"44.019856,-116.92302","brandsList":["subaru"]},{"id":17427,"crm_id":999,"name":"Rogers Subaru","dealerSlug":"rogers+subaru","city_state_slug":"Lewiston.ID","brand":"Subaru","website":"RogersSubaru.dealer.subaru.com","address":"1720 21st Street","city":"Lewiston","state":"ID","zip":83501,"latitude":46.402256,"longitude":-117.002464,"phone_number_service":"9035612404","phone_number_main":"","service_hours":"","utc_offset":"","gplace_id":0,"gplace_url":"","dealerID":60313,"trusted":false,"image_id":"v1597283982/subaru_ms.png","phone":"9035612404","cityStateSlug":"lewiston.id","slug":"Lewiston.ID/rogers+subaru","location":"46.402256,-117.002464","brandsList":["subaru"]},{"id":16744,"crm_id":999,"name":"Jensen-Wood Motor Co","dealerSlug":"jensen+wood+motor+co","city_state_slug":"Montpelier.ID","brand":"Chrysler,Dodge,Jeep,RAM","website":"www.jensenwood.com","address":"205 North Fourth","city":"Montpelier","state":"ID","zip":83254,"latitude":42.31998,"longitude":-111.297936,"phone_number_service":"2088471212","phone_number_main":"","service_hours":"Mo-Fr 08:00 - 17:30 | Sa 08:00 - 14:45 | Su Closed","utc_offset":"","gplace_id":0,"gplace_url":"","dealerID":60846,"trusted":false,"image_id":"v1597283975/chrysler_RM.png","phone":"2088471212","cityStateSlug":"montpelier.id","slug":"Montpelier.ID/jensen+wood+motor+co","location":"42.31998,-111.297936","brandsList":["chrysler","dodge","jeep","ram"]},{"id":16258,"crm_id":999,"name":"Dave Smith Motors","dealerSlug":"dave+smith+motors","city_state_slug":"Kellogg.ID","brand":"Chrysler,Dodge,Jeep,RAM","website":"www.davesmithmotors.net","address":"210 North Division","city":"Kellogg","state":"ID","zip":83837,"latitude":47.538356,"longitude":-116.119165,"phone_number_service":"2087841208","phone_number_main":"","service_hours":"Mo-Sa 08:00 - 18:00 | Su Closed","utc_offset":"","gplace_id":0,"gplace_url":"","dealerID":60860,"trusted":false,"image_id":"v1597283975/chrysler_RM.png","phone":"2087841208","cityStateSlug":"kellogg.id","slug":"Kellogg.ID/dave+smith+motors","location":"47.538356,-116.119165","brandsList":["chrysler","dodge","jeep","ram"]},{"id":16565,"crm_id":999,"name":"Hanson Garage","dealerSlug":"hanson+garage","city_state_slug":"Orofino.ID","brand":"Chrysler,Dodge,Jeep,RAM","website":"www.hansongarage.net","address":"218 First Street","city":"Orofino","state":"ID","zip":83544,"latitude":46.377593,"longitude":-115.936849,"phone_number_service":"2084765536","phone_number_main":"","service_hours":"Mo-Fr 08:00 - 17:30 | Sa 08:00 - 24:00 | Su Closed","utc_offset":"","gplace_id":0,"gplace_url":"","dealerID":60887,"trusted":false,"image_id":"v1597283975/chrysler_RM.png","phone":"2084765536","cityStateSlug":"orofino.id","slug":"Orofino.ID/hanson+garage","location":"46.377593,-115.936849","brandsList":["chrysler","dodge","jeep","ram"]},{"id":16905,"crm_id":999,"name":"Lewiston Nissan","dealerSlug":"lewiston+nissan","city_state_slug":"Lewiston.ID","brand":"Nissan","website":"www.lewistonnissan.com","address":"2239 3RD AVE NORTH","city":"Lewiston","state":"ID","zip":83501,"latitude":46.4240374,"longitude":-116.9991663,"phone_number_service":"2087469801","phone_number_main":"","service_hours":"Mo-Fr 09:00 - 18:30\n | Sa 09:00 - 18:00\n | Su Closed","utc_offset":"","gplace_id":0,"gplace_url":"","dealerID":60913,"trusted":false,"image_id":"v1597283926/nissan_RM.png","phone":"2087469801","cityStateSlug":"lewiston.id","slug":"Lewiston.ID/lewiston+nissan","location":"46.4240374,-116.9991663","brandsList":["nissan"]},{"id":17898,"crm_id":999,"name":"Young Chrysler Dodge Jeep RAM FIAT of Burley","dealerSlug":"young+chrysler+dodge+jeep+ram+fiat+of+burley","city_state_slug":"Burley.ID","brand":"Chrysler,Dodge,Jeep,RAM,Fiat","website":"www.youngchryslerdodgejeepramidaho.com","address":"259 Overland Ave","city":"Burley","state":"ID","zip":83318,"latitude":42.552282,"longitude":-113.792979,"phone_number_service":"2086781234","phone_number_main":"","service_hours":"Mo-Fr 08:30 - 18:30 | Sa 09:00 - 17:00 | Su Closed","utc_offset":"","gplace_id":0,"gplace_url":"","dealerID":60987,"trusted":false,"image_id":"v1597283975/chrysler_RM.png","phone":"2086781234","cityStateSlug":"burley.id","slug":"Burley.ID/young+chrysler+dodge+jeep+ram+fiat+of+burley","location":"42.552282,-113.792979","brandsList":["chrysler","dodge","jeep","ram","fiat"]},{"id":17290,"crm_id":999,"name":"Pierce Auto Center","dealerSlug":"pierce+auto+center","city_state_slug":"Sagle.ID","brand":"Chrysler,Dodge,Jeep,RAM","website":"www.pierceautocenter.com","address":"30 Gun Club Rd","city":"Sagle","state":"ID","zip":83860,"latitude":48.208834,"longitude":-116.561475,"phone_number_service":"2082634212","phone_number_main":"","service_hours":"Mo-Sa 08:30 - 18:00 | Su Closed","utc_offset":"","gplace_id":0,"gplace_url":"","dealerID":61065,"trusted":false,"image_id":"v1597283975/chrysler_RM.png","phone":"2082634212","cityStateSlug":"sagle.id","slug":"Sagle.ID/pierce+auto+center","location":"48.208834,-116.561475","brandsList":["chrysler","dodge","jeep","ram"]},{"id":16932,"crm_id":999,"name":"Lithia Chrysler Jeep Dodge of Pocatello","dealerSlug":"lithia+chrysler+jeep+dodge+of+pocatello","city_state_slug":"Pocatello.ID","brand":"Chrysler,Dodge,Jeep,RAM","website":"www.lithiachryslerpocatello.com","address":"633 Bullock St","city":"Pocatello","state":"ID","zip":83202,"latitude":42.911085,"longitude":-112.465399,"phone_number_service":"2082323322","phone_number_main":"","service_hours":"Mo-Sa 09:00 - 19:00 | Su Closed","utc_offset":"","gplace_id":0,"gplace_url":"","dealerID":61471,"trusted":false,"image_id":"v1597283975/chrysler_RM.png","phone":"2082323322","cityStateSlug":"pocatello.id","slug":"Pocatello.ID/lithia+chrysler+jeep+dodge+of+pocatello","location":"42.911085,-112.465399","brandsList":["chrysler","dodge","jeep","ram"]},{"id":8879,"crm_id":51925078,"name":"Lithia Ford Idaho Falls","dealerSlug":"lithia+ford+idaho+falls","city_state_slug":"Idaho-Falls.ID","brand":"Ford","website":"www.lithiafordidahofalls.com","address":"980 W Broadway St","city":"Idaho Falls","state":"ID","zip":83402,"latitude":43.4958333,"longitude":-112.0491667,"phone_number_service":"8332417311","phone_number_main":"2084139578","service_hours":"Mo-Sa 08:30 - 18:00","utc_offset":"-360","gplace_id":null,"gplace_url":"https://maps.google.com/?cid=2471686131207148519","dealerID":50006,"trusted":true,"image_id":"v1597283967/ford_RM.png","phone":"8332417311","cityStateSlug":"idaho-falls.id","slug":"Idaho-Falls.ID/lithia+ford+idaho+falls","location":"43.4958333,-112.0491667","brandsList":["ford"]},{"id":11611,"crm_id":51927205,"name":"Pocatello Nissan Kia","dealerSlug":"pocatello+nissan+kia","city_state_slug":"Pocatello.ID","brand":"Kia,Nissan","website":"pocatellonissankia.com","address":"1900 Flandro Dr","city":"Pocatello","state":"ID","zip":83202,"latitude":42.9099379,"longitude":-112.4505938,"phone_number_service":"8666496221","phone_number_main":"2082321062","service_hours":"Mo-Fr 07:30 - 17:30 | Sa 07:30 - 17:30","utc_offset":"-360","gplace_id":null,"gplace_url":"https://maps.google.com/?cid=2271967470146381791","dealerID":62190,"trusted":false,"image_id":"v1597283948/kia_RM.png","phone":"8666496221","cityStateSlug":"pocatello.id","slug":"Pocatello.ID/pocatello+nissan+kia","location":"42.9099379,-112.4505938","brandsList":["kia","nissan"]},{"id":11464,"crm_id":51928135,"name":"Peterson Toyota","dealerSlug":"peterson+toyota","city_state_slug":"Boise.ID","brand":"Toyota","website":"www.petersontoyota.net","address":"9101 W Fairview Ave","city":"Boise","state":"ID","zip":83704,"latitude":43.618247,"longitude":-116.295644,"phone_number_service":"2083789010","phone_number_main":"2083789000","service_hours":"Mo-Fr 07:30 - 18:00 | Sa  07:30 - 18:00","utc_offset":"-360","gplace_id":null,"gplace_url":"https://maps.google.com/?cid=945790014737077879","dealerID":62245,"trusted":false,"image_id":"v1597284039/toyota_ms.png","phone":"2083789010","cityStateSlug":"boise.id","slug":"Boise.ID/peterson+toyota","location":"43.618247,-116.295644","brandsList":["toyota"]},{"id":2163,"crm_id":61621672,"name":"Bronco Motors Hyundai","dealerSlug":"bronco+motors+hyundai","city_state_slug":"Boise.ID","brand":"Hyundai","website":"www.broncomotorshyundai.com","address":"9250 W Fairview Ave","city":"Boise","state":"ID","zip":83704,"latitude":43.6198607,"longitude":-116.2971922,"phone_number_service":"2082699176","phone_number_main":"2083579555","service_hours":"Mo-Fr 07:30 - 17:30 | Sa 09:00 - 15:00","utc_offset":"-360","gplace_id":null,"gplace_url":"https://maps.google.com/?cid=1103177548055445453","dealerID":62481,"trusted":false,"image_id":"v1597283959/hyundai_RM.png","phone":"2082699176","cityStateSlug":"boise.id","slug":"Boise.ID/bronco+motors+hyundai","location":"43.6198607,-116.2971922","brandsList":["hyundai"]},{"id":13649,"crm_id":63227281,"name":"Steve's Hometown Chevrolet Buick GMC","dealerSlug":"steves+hometown+chevrolet+buick+gmc","city_state_slug":"Fruitland.ID","brand":"Buick,Chevrolet,GMC","website":"steveshometownchevrolet.com","address":"1011 NW 16th Street","city":"Fruitland","state":"ID","zip":83619,"latitude":44.0650905,"longitude":-116.92924,"phone_number_service":"2084527717","phone_number_main":"2086423348","service_hours":"Mo-Fr 08:00 - 17:30 | Sa 08:00 - 17:00","utc_offset":"-360","gplace_id":null,"gplace_url":"https://maps.google.com/?cid=17318097488090270152","dealerID":62520,"trusted":false,"image_id":"v1597283981/buick_RM.png","phone":"2084527717","cityStateSlug":"fruitland.id","slug":"Fruitland.ID/steves+hometown+chevrolet+buick+gmc","location":"44.0650905,-116.92924","brandsList":["buick","chevrolet","gmc"]},{"id":9944,"crm_id":67031893,"name":"Middlekauff Honda","dealerSlug":"middlekauff+honda","city_state_slug":"Twin-Falls.ID","brand":"Honda","website":"www.middlekauffhonda.com","address":"1237 Blue Lakes Blvd N","city":"Twin Falls","state":"ID","zip":83301,"latitude":42.5831289,"longitude":-114.4609959,"phone_number_service":"8884766080","phone_number_main":"2087337700","service_hours":"Mo-Fr 08:00 - 18:00 | Sa 08:00 - 16:00","utc_offset":"-360","gplace_id":null,"gplace_url":"https://maps.google.com/?cid=12767660327762867770","dealerID":62725,"trusted":false,"image_id":"v1597284047/honda_ms.png","phone":"8884766080","cityStateSlug":"twin-falls.id","slug":"Twin-Falls.ID/middlekauff+honda","location":"42.5831289,-114.4609959","brandsList":["honda"]},{"id":3937,"crm_id":67034116,"name":"Dennis Dillon Chrysler Dodge Jeep","dealerSlug":"dennis+dillon+chrysler+dodge+jeep","city_state_slug":"Caldwell.ID","brand":"Chrysler,Dodge,Jeep,RAM","website":"www.dennisdillonchryslerjeepdodge.com","address":"4025 Cleveland Blvd","city":"Caldwell","state":"ID","zip":83605,"latitude":43.640875,"longitude":-116.654518,"phone_number_service":"2087790903","phone_number_main":"2086499632","service_hours":"Mo-Fr 07:30 - 17:30 | Sa 08:00 - 14:00","utc_offset":"-360","gplace_id":null,"gplace_url":"https://maps.google.com/?cid=10331935400417100654","dealerID":63346,"trusted":false,"image_id":"v1597283975/chrysler_RM.png","phone":"2087790903","cityStateSlug":"caldwell.id","slug":"Caldwell.ID/dennis+dillon+chrysler+dodge+jeep","location":"43.640875,-116.654518","brandsList":["chrysler","dodge","jeep","ram"]},{"id":11487,"crm_id":67034449,"name":"Phil Meador Subaru","dealerSlug":"phil+meador+subaru","city_state_slug":"Pocatello.ID","brand":"Subaru","website":"www.philmeadorsubaru.com","address":"1437 Yellowstone Ave","city":"Pocatello","state":"ID","zip":83201,"latitude":42.9016135,"longitude":-112.4521935,"phone_number_service":"8774459157","phone_number_main":"2082377800","service_hours":"Mo-Fr 07:30 - 18:00 | Sa 09:00 - 12:00","utc_offset":"-360","gplace_id":null,"gplace_url":"https://maps.google.com/?cid=12020202216060540676","dealerID":63436,"trusted":false,"image_id":"v1597283982/subaru_ms.png","phone":"8774459157","cityStateSlug":"pocatello.id","slug":"Pocatello.ID/phil+meador+subaru","location":"42.9016135,-112.4521935","brandsList":["subaru"]},{"id":8873,"crm_id":67035343,"name":"Lithia Chrysler Jeep Dodge of Twin Falls","dealerSlug":"lithia+chrysler+jeep+dodge+of+twin+falls","city_state_slug":"Twin-Falls.ID","brand":"Chrysler,Dodge,Jeep,RAM","website":"www.twinfallsdodge.com","address":"1310 Poleline Rd E","city":"Twin Falls","state":"ID","zip":83301,"latitude":42.5912867,"longitude":-114.4570383,"phone_number_service":"8445246077","phone_number_main":"2082938571","service_hours":"Mo-Fr 07:30 - 18:00 | Sa 08:00-17:00","utc_offset":"-360","gplace_id":null,"gplace_url":"https://maps.google.com/?cid=12026094570804434055","dealerID":63683,"trusted":false,"image_id":"v1597283975/chrysler_RM.png","phone":"8445246077","cityStateSlug":"twin-falls.id","slug":"Twin-Falls.ID/lithia+chrysler+jeep+dodge+of+twin+falls","location":"42.5912867,-114.4570383","brandsList":["chrysler","dodge","jeep","ram"]},{"id":11461,"crm_id":67035514,"name":"Peterson Dodge Chrysler Jeep RAM","dealerSlug":"peterson+dodge+chrysler+jeep+ram","city_state_slug":"Nampa.ID","brand":"Chrysler,Dodge,Jeep,RAM","website":"www.petersonramjeep.com","address":"5801 E Gate Blvd","city":"Nampa","state":"ID","zip":83687,"latitude":43.6008754,"longitude":-116.5095919,"phone_number_service":"2085050532","phone_number_main":"2084754354","service_hours":"Mo-Fr 07:30 - 18:00 | Sa 08:00 - 16:00","utc_offset":"-360","gplace_id":null,"gplace_url":"https://maps.google.com/?cid=7898343313761713300","dealerID":63729,"trusted":false,"image_id":"v1597283975/chrysler_RM.png","phone":"2085050532","cityStateSlug":"nampa.id","slug":"Nampa.ID/peterson+dodge+chrysler+jeep+ram","location":"43.6008754,-116.5095919","brandsList":["chrysler","dodge","jeep","ram"]},{"id":8880,"crm_id":67037227,"name":"Lithia Ford Lincoln of Boise","dealerSlug":"lithia+ford+lincoln+of+boise","city_state_slug":"Boise.ID","brand":"Ford,Lincoln","website":"www.lithiafordboise.com","address":"8853 W Fairview Ave","city":"Boise","state":"ID","zip":83704,"latitude":43.6183921,"longitude":-116.2922649,"phone_number_service":"8884817305","phone_number_main":"2083982106","service_hours":"Mo-Fr 07:30 - 18:00 | Sa 08:00 - 17:00","utc_offset":"-360","gplace_id":null,"gplace_url":"https://maps.google.com/?cid=6501192388195382898","dealerID":64200,"trusted":false,"image_id":"v1597283967/ford_RM.png","phone":"8884817305","cityStateSlug":"boise.id","slug":"Boise.ID/lithia+ford+lincoln+of+boise","location":"43.6183921,-116.2922649","brandsList":["ford","lincoln"]},{"id":7820,"crm_id":67037251,"name":"Kendall Ford of Meridian","dealerSlug":"kendall+ford+of+meridian","city_state_slug":"Meridian.ID","brand":"Ford","website":"www.kendallfordofmeridian.com","address":"250 E Overland Rd","city":"Meridian","state":"ID","zip":83642,"latitude":43.5916828,"longitude":-116.3904121,"phone_number_service":"2088884403","phone_number_main":"8559828853","service_hours":"Mo-Fr 07:30 - 18:00 | Sa 08:00 - 17:00","utc_offset":"-360","gplace_id":null,"gplace_url":"https://maps.google.com/?cid=15570992479863015044","dealerID":64208,"trusted":false,"image_id":"v1597283967/ford_RM.png","phone":"2088884403","cityStateSlug":"meridian.id","slug":"Meridian.ID/kendall+ford+of+meridian","location":"43.5916828,-116.3904121","brandsList":["ford"]},{"id":15153,"crm_id":67037833,"name":"Wackerli Buick GMC Cadillac","dealerSlug":"wackerli+buick+gmc+cadillac","city_state_slug":"Idaho-Falls.ID","brand":"Buick,Cadillac,GMC","website":"www.wackerligm.com","address":"1363 N Holmes Ave","city":"Idaho Falls","state":"ID","zip":83401,"latitude":43.508281,"longitude":-112.024412,"phone_number_service":"8665464609","phone_number_main":"2085226060","service_hours":"Mo-Fr 08:00 - 18:00 | Sa 08:00 - 16:00","utc_offset":"-360","gplace_id":null,"gplace_url":"https://maps.google.com/?cid=5245859794432618924","dealerID":64373,"trusted":false,"image_id":"v1597283981/buick_RM.png","phone":"8665464609","cityStateSlug":"idaho-falls.id","slug":"Idaho-Falls.ID/wackerli+buick+gmc+cadillac","location":"43.508281,-112.024412","brandsList":["buick","cadillac","gmc"]},{"id":12411,"crm_id":67038865,"name":"Rob Green Nissan","dealerSlug":"rob+green+nissan","city_state_slug":"Twin-Falls.ID","brand":"Nissan","website":"www.robgreennissan.com","address":"1080 Blue Lakes Blvd N","city":"Twin Falls","state":"ID","zip":83301,"latitude":42.580725,"longitude":-114.45926,"phone_number_service":"2083107916","phone_number_main":"2087331825","service_hours":"Mo-Fr 07:30 - 18:00 | Sa 08:00-17:00","utc_offset":"-360","gplace_id":null,"gplace_url":"https://maps.google.com/?cid=12434049763308600046","dealerID":64660,"trusted":false,"image_id":"v1597283926/nissan_RM.png","phone":"2083107916","cityStateSlug":"twin-falls.id","slug":"Twin-Falls.ID/rob+green+nissan","location":"42.580725,-114.45926","brandsList":["nissan"]},{"id":5668,"crm_id":67039465,"name":"Goode Motor Ford","dealerSlug":"goode+motor+ford","city_state_slug":"Burley.ID","brand":"Ford","website":"www.goodeford.com","address":"1096 E Main St","city":"Burley","state":"ID","zip":83318,"latitude":42.5381865,"longitude":-113.7790072,"phone_number_service":"8448470856","phone_number_main":"2082695803","service_hours":"Mo-Fr 08:00 - 18:00 | Sa 08:00 - 13:00","utc_offset":"-360","gplace_id":null,"gplace_url":"https://maps.google.com/?cid=1601784229090946668","dealerID":64817,"trusted":false,"image_id":"v1597283967/ford_RM.png","phone":"8448470856","cityStateSlug":"burley.id","slug":"Burley.ID/goode+motor+ford","location":"42.5381865,-113.7790072","brandsList":["ford"]},{"id":14002,"crm_id":67039963,"name":"Tadd Jenkins Chevrolet","dealerSlug":"tadd+jenkins+chevrolet","city_state_slug":"Rigby.ID","brand":"Chevrolet","website":"www.tjchev.com","address":"409 Farnsworth Way","city":"Rigby","state":"ID","zip":83442,"latitude":43.6795387,"longitude":-111.9080765,"phone_number_service":"2087456634","phone_number_main":"2087456634","service_hours":"Mo-Fr 08:00 - 18:00 | Sa 09:00 - 18:00","utc_offset":"-360","gplace_id":null,"gplace_url":"https://maps.google.com/?cid=10896064560298637326","dealerID":64958,"trusted":false,"image_id":"v1597284079/chevy_ms.png","phone":"2087456634","cityStateSlug":"rigby.id","slug":"Rigby.ID/tadd+jenkins+chevrolet","location":"43.6795387,-111.9080765","brandsList":["chevrolet"]},{"id":9943,"crm_id":67040278,"name":"Middlekauff Ford","dealerSlug":"middlekauff+ford","city_state_slug":"Twin-Falls.ID","brand":"Ford","website":"www.middlekauffford.com","address":"1243 Blue Lakes Blvd N","city":"Twin Falls","state":"ID","zip":83301,"latitude":42.5843526,"longitude":-114.4613842,"phone_number_service":"8778696152","phone_number_main":"2087362480","service_hours":"Mo-Fr 07:30 - 18:00 | Sa 08:00 - 16:00","utc_offset":"-360","gplace_id":null,"gplace_url":"https://maps.google.com/?cid=9209407360155892465","dealerID":65035,"trusted":false,"image_id":"v1597283967/ford_RM.png","phone":"8778696152","cityStateSlug":"twin-falls.id","slug":"Twin-Falls.ID/middlekauff+ford","location":"42.5843526,-114.4613842","brandsList":["ford"]},{"id":11488,"crm_id":67041532,"name":"Phil Meador Toyota","dealerSlug":"phil+meador+toyota","city_state_slug":"Pocatello.ID","brand":"Toyota","website":"www.philmeadortoyota.com","address":"1855 Flandro Dr","city":"Pocatello","state":"ID","zip":83202,"latitude":42.9095695,"longitude":-112.4523335,"phone_number_service":"8339400558","phone_number_main":"2082372700","service_hours":"Mo-Fr 07:30 - 18:00 | Sa 09:00 - 15:00","utc_offset":"-360","gplace_id":null,"gplace_url":"https://maps.google.com/?cid=12217182356668916284","dealerID":65361,"trusted":false,"image_id":"v1597284039/toyota_ms.png","phone":"8339400558","cityStateSlug":"pocatello.id","slug":"Pocatello.ID/phil+meador+toyota","location":"42.9095695,-112.4523335","brandsList":["toyota"]},{"id":13726,"crm_id":67041607,"name":"Stone's Toyota","dealerSlug":"stones+toyota","city_state_slug":"Rexburg.ID","brand":"Toyota","website":"www.stonestoyota.com","address":"615 S Yellowstone Hwy","city":"Rexburg","state":"ID","zip":83440,"latitude":43.813272,"longitude":-111.800377,"phone_number_service":"2083569366","phone_number_main":"2083569366","service_hours":"Mo-Fr 08:00 - 18:00 | Sa 09:00 - 17:00","utc_offset":"-360","gplace_id":null,"gplace_url":"https://maps.google.com/?cid=6251248727731120387","dealerID":65382,"trusted":false,"image_id":"v1597284039/toyota_ms.png","phone":"2083569366","cityStateSlug":"rexburg.id","slug":"Rexburg.ID/stones+toyota","location":"43.813272,-111.800377","brandsList":["toyota"]},{"id":9934,"crm_id":67042051,"name":"Mick McClure Honda","dealerSlug":"mick+mcclure+honda","city_state_slug":"Lewiston.ID","brand":"Honda","website":"www.mcclurehonda.com","address":"2323 Juniper Dr","city":"Lewiston","state":"ID","zip":83501,"latitude":46.4026839,"longitude":-116.9977759,"phone_number_service":"2087436596","phone_number_main":"2087436596","service_hours":"Mo-Fr 07:00 - 18:00 | Sa 07:00 - 17:00","utc_offset":"-420","gplace_id":null,"gplace_url":"https://maps.google.com/?cid=5781221235700732202","dealerID":65495,"trusted":false,"image_id":"v1597284047/honda_ms.png","phone":"2087436596","cityStateSlug":"lewiston.id","slug":"Lewiston.ID/mick+mcclure+honda","location":"46.4026839,-116.9977759","brandsList":["honda"]},{"id":11197,"crm_id":67042849,"name":"Parker Subaru","dealerSlug":"parker+subaru","city_state_slug":"Coeur-d'Alene.ID","brand":"Subaru","website":"www.parkersubaru.com","address":"314 W Clayton Ave","city":"Coeur d'Alene","state":"ID","zip":83815,"latitude":47.7194008,"longitude":-116.7907771,"phone_number_service":"8886989147","phone_number_main":"2084150555","service_hours":"Mo-Fr 07:00 - 18:00 | Sa 07:00 - 17:00","utc_offset":"-420","gplace_id":null,"gplace_url":"https://maps.google.com/?cid=7079639647875213232","dealerID":65720,"trusted":false,"image_id":"v1597283982/subaru_ms.png","phone":"8886989147","cityStateSlug":"coeur-d'alene.id","slug":"Coeur-d'Alene.ID/parker+subaru","location":"47.7194008,-116.7907771","brandsList":["subaru"]},{"id":8039,"crm_id":67043611,"name":"Knudtsen Chevrolet","dealerSlug":"knudtsen+chevrolet","city_state_slug":"Post-Falls.ID","brand":"Chevrolet","website":"www.knudtsen.com","address":"1900 E Polston Ave","city":"Post Falls","state":"ID","zip":83854,"latitude":47.7137581,"longitude":-116.9174394,"phone_number_service":"8773100364","phone_number_main":"2086648107","service_hours":"Mo-Fr 07:00 - 18:00 | Sa 08:00 - 17:00","utc_offset":"-420","gplace_id":null,"gplace_url":"https://maps.google.com/?cid=7274647593140530456","dealerID":65936,"trusted":false,"image_id":"v1597284079/chevy_ms.png","phone":"8773100364","cityStateSlug":"post-falls.id","slug":"Post-Falls.ID/knudtsen+chevrolet","location":"47.7137581,-116.9174394","brandsList":["chevrolet"]},{"id":3160,"crm_id":67044433,"name":"Cole Chevrolet","dealerSlug":"cole+chevrolet","city_state_slug":"Pocatello.ID","brand":"Chevrolet","website":"www.colechevrolet.com","address":"1325 Yellowstone","city":"Pocatello","state":"ID","zip":83201,"latitude":42.8990589,"longitude":-112.4525723,"phone_number_service":"2089040209","phone_number_main":"2082372438","service_hours":"Mo-Fr 07:30 - 18:00 | Sa 08:00 - 14:00","utc_offset":"-360","gplace_id":null,"gplace_url":"https://maps.google.com/?cid=5133491330072210963","dealerID":66152,"trusted":false,"image_id":"v1597284079/chevy_ms.png","phone":"2089040209","cityStateSlug":"pocatello.id","slug":"Pocatello.ID/cole+chevrolet","location":"42.8990589,-112.4525723","brandsList":["chevrolet"]},{"id":7484,"crm_id":67044451,"name":"Joe Hall Ford Lincoln","dealerSlug":"joe+hall+ford+lincoln","city_state_slug":"Lewiston.ID","brand":"Ford,Lincoln","website":"www.joehallford.net","address":"1617 21st Street","city":"Lewiston","state":"ID","zip":83501,"latitude":46.4035069,"longitude":-117.0009125,"phone_number_service":"8887063381","phone_number_main":"2087462391","service_hours":"Mo-Fr 07:30 - 17:30 | Sa 07:30 - 16:00","utc_offset":"-420","gplace_id":null,"gplace_url":"https://maps.google.com/?cid=13979706821394452584","dealerID":66158,"trusted":false,"image_id":"v1597283967/ford_RM.png","phone":"8887063381","cityStateSlug":"lewiston.id","slug":"Lewiston.ID/joe+hall+ford+lincoln","location":"46.4035069,-117.0009125","brandsList":["ford","lincoln"]},{"id":1684,"crm_id":67047199,"name":"BMW of Idaho Falls","dealerSlug":"bmw+of+idaho+falls","city_state_slug":"Idaho-Falls.ID","brand":"BMW","website":"www.bmwofidahofalls.com","address":"2200 W Sunnyside Rd","city":"Idaho Falls","state":"ID","zip":83402,"latitude":43.469649,"longitude":-112.073774,"phone_number_service":"2085294269","phone_number_main":"2085294269","service_hours":"Mo-Fr  08:00 - 18:00 | Sa 08:00 - 15:00","utc_offset":"-360","gplace_id":null,"gplace_url":"https://maps.google.com/?cid=13675010923197681928","dealerID":51794,"trusted":true,"image_id":"v1597283982/bmw_RM.png","phone":"2085294269","cityStateSlug":"idaho-falls.id","slug":"Idaho-Falls.ID/bmw+of+idaho+falls","location":"43.469649,-112.073774","brandsList":["bmw"]},{"id":14147,"crm_id":67047442,"name":"Teton Honda","dealerSlug":"teton+honda","city_state_slug":"Pocatello.ID","brand":"Honda","website":"www.tetonhonda.com","address":"1921 Hurley Dr","city":"Pocatello","state":"ID","zip":83202,"latitude":42.9090555,"longitude":-112.4615107,"phone_number_service":"2082370200","phone_number_main":"2082370200","service_hours":"Mo-Fr 07:00 - 16:00 | Sa 08:00 - 16:00","utc_offset":"-360","gplace_id":null,"gplace_url":"https://maps.google.com/?cid=11991334666238437129","dealerID":66956,"trusted":false,"image_id":"v1597284047/honda_ms.png","phone":"2082370200","cityStateSlug":"pocatello.id","slug":"Pocatello.ID/teton+honda","location":"42.9090555,-112.4615107","brandsList":["honda"]},{"id":7961,"crm_id":67047931,"name":"Kim Hansen Chevrolet","dealerSlug":"kim+hansen+chevrolet","city_state_slug":"Burley.ID","brand":"Chevrolet","website":"www.kimhansenchevrolet.com","address":"1221 W Main St","city":"Burley","state":"ID","zip":83318,"latitude":42.5365121,"longitude":-113.8074242,"phone_number_service":"2086504430","phone_number_main":"2086782221","service_hours":"Mo-Fr 08:00 - 17:30 | Sa 09:00 - 13:00","utc_offset":"-360","gplace_id":null,"gplace_url":"https://maps.google.com/?cid=9870803606696192157","dealerID":67085,"trusted":false,"image_id":"v1597284079/chevy_ms.png","phone":"2086504430","cityStateSlug":"burley.id","slug":"Burley.ID/kim+hansen+chevrolet","location":"42.5365121,-113.8074242","brandsList":["chevrolet"]},{"id":6556,"crm_id":67047952,"name":"Hometown Motors Incorporated","dealerSlug":"hometown+motors+incorporated","city_state_slug":"Weiser.ID","brand":"Chrysler,Dodge,Jeep,RAM","website":"hometownmotorschryslerdodgejeep.com","address":"602 Highway 95","city":"Weiser","state":"ID","zip":83672,"latitude":44.2393597,"longitude":-116.9569645,"phone_number_service":"2085503321","phone_number_main":"2085496020","service_hours":"Mo-Fr 07:30 - 17:30| Sa 07:30 - 16:00","utc_offset":"-360","gplace_id":null,"gplace_url":"https://maps.google.com/?cid=5076254554676657253","dealerID":67091,"trusted":false,"image_id":"v1597283975/chrysler_RM.png","phone":"2085503321","cityStateSlug":"weiser.id","slug":"Weiser.ID/hometown+motors+incorporated","location":"44.2393597,-116.9569645","brandsList":["chrysler","dodge","jeep","ram"]},{"id":6555,"crm_id":67047958,"name":"Hometown Ford","dealerSlug":"hometown+ford","city_state_slug":"Weiser.ID","brand":"Ford","website":"www.hometownford.com","address":"602 Highway 95","city":"Weiser","state":"ID","zip":83672,"latitude":44.239347,"longitude":-116.956969,"phone_number_service":"8884133306","phone_number_main":"2085493310","service_hours":"Mo-Fr 08:00 - 17:00 | Sa 09:00 - 17:00 | Su Open Online Only","utc_offset":"-360","gplace_id":null,"gplace_url":"https://maps.google.com/?cid=12718684010879214570","dealerID":67093,"trusted":false,"image_id":"v1597283967/ford_RM.png","phone":"8884133306","cityStateSlug":"weiser.id","slug":"Weiser.ID/hometown+ford","location":"44.239347,-116.956969","brandsList":["ford"]},{"id":3136,"crm_id":67048246,"name":"Coeur D'Alene Honda","dealerSlug":"coeur+dalene+honda","city_state_slug":"Coeur-d'Alene.ID","brand":"Honda","website":"www.cdahonda.com","address":"2785 W Seltice Way","city":"Coeur d'Alene","state":"ID","zip":83814,"latitude":47.7011939,"longitude":-116.82358,"phone_number_service":"8667125055","phone_number_main":"2087655005","service_hours":"Mo-Fr 07:00 - 18:00 | Sa 08:00 - 17:00","utc_offset":"-420","gplace_id":null,"gplace_url":"https://maps.google.com/?cid=4686079376622945210","dealerID":67173,"trusted":false,"image_id":"v1597284047/honda_ms.png","phone":"8667125055","cityStateSlug":"coeur-d'alene.id","slug":"Coeur-d'Alene.ID/coeur+dalene+honda","location":"47.7011939,-116.82358","brandsList":["honda"]},{"id":11198,"crm_id":67051837,"name":"Parker Toyota","dealerSlug":"parker+toyota","city_state_slug":"Coeur-d'Alene.ID","brand":"Toyota","website":"www.parkertoyota.com","address":"470 W Kathleen Ave","city":"Coeur d'Alene","state":"ID","zip":83815,"latitude":47.714586,"longitude":-116.793641,"phone_number_service":"2086767755","phone_number_main":"2087658228","service_hours":"Mo-Fr 06:00 - 18:00 | Sa 06:00 - 17:00","utc_offset":"-420","gplace_id":null,"gplace_url":"https://maps.google.com/?cid=12362800988908577547","dealerID":68150,"trusted":false,"image_id":"v1597284039/toyota_ms.png","phone":"2086767755","cityStateSlug":"coeur-d'alene.id","slug":"Coeur-d'Alene.ID/parker+toyota","location":"47.714586,-116.793641","brandsList":["toyota"]},{"id":11458,"crm_id":67054024,"name":"Peterson BMW of Boise","dealerSlug":"peterson+bmw+of+boise","city_state_slug":"Boise.ID","brand":"BMW","website":"www.petersonbmw.com","address":"9109 W Fairview Ave","city":"Boise","state":"ID","zip":83704,"latitude":43.618258,"longitude":-116.2964879,"phone_number_service":"2083785980","phone_number_main":"2083785980","service_hours":"Mo-Fr 07:30 - 18:00 | Sa 08:00 - 18:00","utc_offset":"-360","gplace_id":null,"gplace_url":"https://maps.google.com/?cid=16533192684910716869","dealerID":68760,"trusted":false,"image_id":"v1597283982/bmw_RM.png","phone":"2083785980","cityStateSlug":"boise.id","slug":"Boise.ID/peterson+bmw+of+boise","location":"43.618258,-116.2964879","brandsList":["bmw"]},{"id":15723,"crm_id":67054264,"name":"Young Buick GMC of Burley","dealerSlug":"young+buick+gmc+of+burley","city_state_slug":"Burley.ID","brand":"Buick,GMC","website":"www.youngbuickgmcidaho.com","address":"325 Overland Ave","city":"Burley","state":"ID","zip":83318,"latitude":42.5497976,"longitude":-113.7923201,"phone_number_service":"2086504431","phone_number_main":"2085723283","service_hours":"Mo-Fr  08:00 - 17:00 | Sa 08:00 - 17:00","utc_offset":"-360","gplace_id":null,"gplace_url":"https://maps.google.com/?cid=376993144245879961","dealerID":68821,"trusted":false,"image_id":"v1597283981/buick_RM.png","phone":"2086504431","cityStateSlug":"burley.id","slug":"Burley.ID/young+buick+gmc+of+burley","location":"42.5497976,-113.7923201","brandsList":["buick","gmc"]},{"id":12565,"crm_id":67055140,"name":"Ron Sayer's Chrysler Jeep Dodge","dealerSlug":"ron+sayers+chrysler+jeep+dodge","city_state_slug":"Idaho-Falls.ID","brand":"Chrysler,Dodge,Jeep,RAM","website":"www.ronsayerschryslerjeepdodge.com","address":"490 Northgate Mile","city":"Idaho Falls","state":"ID","zip":83401,"latitude":43.5004082,"longitude":-112.0292816,"phone_number_service":"2084975349","phone_number_main":"2084972279","service_hours":"Mo-Fr  08:00 - 18:00 | Sa 09:00 - 15:00","utc_offset":"-360","gplace_id":null,"gplace_url":"https://maps.google.com/?cid=10451685838722221434","dealerID":69063,"trusted":false,"image_id":"v1597283975/chrysler_RM.png","phone":"2084975349","cityStateSlug":"idaho-falls.id","slug":"Idaho-Falls.ID/ron+sayers+chrysler+jeep+dodge","location":"43.5004082,-112.0292816","brandsList":["chrysler","dodge","jeep","ram"]},{"id":9078,"crm_id":67056283,"name":"Lyle Pearson Acura","dealerSlug":"lyle+pearson+acura","city_state_slug":"Boise.ID","brand":"Acura","website":"www.lylepearsonacura.com","address":"7675 W Gratz Dr","city":"Boise","state":"ID","zip":83709,"latitude":43.6010649,"longitude":-116.2775275,"phone_number_service":"2086723492","phone_number_main":"2083773900","service_hours":"Mo-Fr 07:30 - 18:00","utc_offset":"-360","gplace_id":null,"gplace_url":"https://maps.google.com/?cid=8532345425758438218","dealerID":69365,"trusted":false,"image_id":"v1597283988/acura.png","phone":"2086723492","cityStateSlug":"boise.id","slug":"Boise.ID/lyle+pearson+acura","location":"43.6010649,-116.2775275","brandsList":["acura"]},{"id":3400,"crm_id":67056409,"name":"Courtesy Ford & Lincoln","dealerSlug":"courtesy+ford+and+lincoln","city_state_slug":"Pocatello.ID","brand":"Ford,Lincoln","website":"www.courtesyfordpocatello.com","address":"1600 Yellowstone Ave","city":"Pocatello","state":"ID","zip":83202,"latitude":42.9069559,"longitude":-112.4524042,"phone_number_service":"2082381600","phone_number_main":"2082381600","service_hours":"Mo-Fr 08:00 - 18:00 | Sa 09:00 - 15:00","utc_offset":"-360","gplace_id":null,"gplace_url":"https://maps.google.com/?cid=11590946502760491480","dealerID":69400,"trusted":false,"image_id":"v1597283967/ford_RM.png","phone":"2082381600","cityStateSlug":"pocatello.id","slug":"Pocatello.ID/courtesy+ford+and+lincoln","location":"42.9069559,-112.4524042","brandsList":["ford","lincoln"]},{"id":14045,"crm_id":67058461,"name":"Taylor Chevrolet Buick Cadillac","dealerSlug":"taylor+chevrolet+buick+cadillac","city_state_slug":"Rexburg.ID","brand":"Buick,Cadillac,Chevrolet","website":"www.taylorchev.com","address":"819 S Yellowstone Hwy","city":"Rexburg","state":"ID","zip":83440,"latitude":43.8087148,"longitude":-111.803478,"phone_number_service":"2088810808","phone_number_main":"2086564036","service_hours":"Mo-Fr 08:00 - 18:00 | Sa 09:00 - 17:00","utc_offset":"-360","gplace_id":null,"gplace_url":"https://maps.google.com/?cid=2424261904957757466","dealerID":69972,"trusted":false,"image_id":"v1597283981/buick_RM.png","phone":"2088810808","cityStateSlug":"rexburg.id","slug":"Rexburg.ID/taylor+chevrolet+buick+cadillac","location":"43.8087148,-111.803478","brandsList":["buick","cadillac","chevrolet"]},{"id":11699,"crm_id":67060300,"name":"Porsche of Boise","dealerSlug":"porsche+of+boise","city_state_slug":"Boise.ID","brand":"Porsche","website":"www.porscheofboise.com","address":"7611 W Gratz Dr","city":"Boise","state":"ID","zip":83709,"latitude":43.6011422,"longitude":-116.2771609,"phone_number_service":"2083773900","phone_number_main":"2083773900","service_hours":"Mo-Fr 07:30 - 18:00","utc_offset":"-360","gplace_id":null,"gplace_url":"https://maps.google.com/?cid=36129472416357187","dealerID":70481,"trusted":false,"image_id":"v1597283919/porsche.jpg","phone":"2083773900","cityStateSlug":"boise.id","slug":"Boise.ID/porsche+of+boise","location":"43.6011422,-116.2771609","brandsList":["porsche"]},{"id":7095,"crm_id":67060606,"name":"Jaguar Boise","dealerSlug":"jaguar+boise","city_state_slug":"Boise.ID","brand":"Jaguar","website":"www.jaguarboise.com","address":"7805 W Gratz Dr","city":"Boise","state":"ID","zip":83709,"latitude":43.6012447,"longitude":-116.2789891,"phone_number_service":"2083773900","phone_number_main":"2083773900","service_hours":"Mo-Fr 07:30 - 18:00","utc_offset":"-360","gplace_id":null,"gplace_url":"https://maps.google.com/?cid=199990752199524210","dealerID":70563,"trusted":false,"image_id":"v1597283954/jaguar_RM.png","phone":"2083773900","cityStateSlug":"boise.id","slug":"Boise.ID/jaguar+boise","location":"43.6012447,-116.2789891","brandsList":["jaguar"]},{"id":15640,"crm_id":67061254,"name":"Woody Smith Ford","dealerSlug":"woody+smith+ford","city_state_slug":"Rexburg.ID","brand":"Ford","website":"www.woodysmithford.com","address":"535 S Yellowstone Hwy","city":"Rexburg","state":"ID","zip":83440,"latitude":43.8148067,"longitude":-111.7993914,"phone_number_service":"8888417659","phone_number_main":"2083563636","service_hours":"Mo-Fr  08:00 - 17:30 | Sa 09:00 - 13:00","utc_offset":"-360","gplace_id":null,"gplace_url":"https://maps.google.com/?cid=8099359029021251102","dealerID":70752,"trusted":false,"image_id":"v1597283967/ford_RM.png","phone":"8888417659","cityStateSlug":"rexburg.id","slug":"Rexburg.ID/woody+smith+ford","location":"43.8148067,-111.7993914","brandsList":["ford"]},{"id":14003,"crm_id":67076905,"name":"Tadd Jenkins Chrysler Dodge Jeep RAM","dealerSlug":"tadd+jenkins+chrysler+dodge+jeep+ram","city_state_slug":"Blackfoot.ID","brand":"Chrysler,Dodge,Jeep,RAM","website":"www.taddjenkinscdjr.com","address":"1092 Ford Way","city":"Blackfoot","state":"ID","zip":83221,"latitude":43.1956333,"longitude":-112.3576352,"phone_number_service":"2087588612","phone_number_main":"2087851900","service_hours":"Mo-Fr 08:00 - 18:00 | Sa 09:00 - 18:00","utc_offset":"-360","gplace_id":null,"gplace_url":"https://maps.google.com/?cid=12841298266318304289","dealerID":74147,"trusted":false,"image_id":"v1597283975/chrysler_RM.png","phone":"2087588612","cityStateSlug":"blackfoot.id","slug":"Blackfoot.ID/tadd+jenkins+chrysler+dodge+jeep+ram","location":"43.1956333,-112.3576352","brandsList":["chrysler","dodge","jeep","ram"]},{"id":1146,"crm_id":67076908,"name":"Bear Lake Motor Co","dealerSlug":"bear+lake+motor+co","city_state_slug":"Montpelier.ID","brand":"Ford","website":"www.bearlakeford.com","address":"867 Washington St","city":"Montpelier","state":"ID","zip":83254,"latitude":42.3172641,"longitude":-111.3088228,"phone_number_service":"8889714003","phone_number_main":"2088470421","service_hours":"Mo-Fr 08:00 - 17:00","utc_offset":"-360","gplace_id":null,"gplace_url":"https://maps.google.com/?cid=5503581566358133541","dealerID":74148,"trusted":false,"image_id":"v1597283967/ford_RM.png","phone":"8889714003","cityStateSlug":"montpelier.id","slug":"Montpelier.ID/bear+lake+motor+co","location":"42.3172641,-111.3088228","brandsList":["ford"]},{"id":7517,"crm_id":67076914,"name":"John Adams Ford","dealerSlug":"john+adams+ford","city_state_slug":"Soda-Springs.ID","brand":"Ford","website":"www.johnadamsford.com","address":"210 W 2nd S","city":"Soda Springs","state":"ID","zip":83276,"latitude":42.6554511,"longitude":-111.6105097,"phone_number_service":"2082446614","phone_number_main":"2085473324","service_hours":"Mo-Fr 08:00 - 18:30","utc_offset":"-360","gplace_id":null,"gplace_url":"https://maps.google.com/?cid=2946145225820376901","dealerID":74149,"trusted":false,"image_id":"v1597283967/ford_RM.png","phone":"2082446614","cityStateSlug":"soda-springs.id","slug":"Soda-Springs.ID/john+adams+ford","location":"42.6554511,-111.6105097","brandsList":["ford"]},{"id":12410,"crm_id":67076917,"name":"Rob Green Hyundai","dealerSlug":"rob+green+hyundai","city_state_slug":"Twin-Falls.ID","brand":"Hyundai","website":"www.robgreenhyundai.com","address":"1070 Blue Lakes Blvd N","city":"Twin Falls","state":"ID","zip":83301,"latitude":42.5802873,"longitude":-114.4591015,"phone_number_service":"8888541254","phone_number_main":"2087357900","service_hours":"Mo-Fr  08:00 - 17:00 | Sa 08:00 - 16:00","utc_offset":"-360","gplace_id":null,"gplace_url":"https://maps.google.com/?cid=3826097557684682621","dealerID":74150,"trusted":false,"image_id":"v1597283959/hyundai_RM.png","phone":"8888541254","cityStateSlug":"twin-falls.id","slug":"Twin-Falls.ID/rob+green+hyundai","location":"42.5802873,-114.4591015","brandsList":["hyundai"]},{"id":12409,"crm_id":67076920,"name":"Rob Green Buick GMC","dealerSlug":"rob+green+buick+gmc","city_state_slug":"Twin-Falls.ID","brand":"Buick,GMC","website":"www.robgreenbuickgmc.com","address":"1427 Blue Lakes Blvd N","city":"Twin Falls","state":"ID","zip":83301,"latitude":42.5878504,"longitude":-114.4614034,"phone_number_service":"2089444285","phone_number_main":"2082911088","service_hours":"Mo-Fr 07:30 - 18:00 | Sa 08:00 - 17:00","utc_offset":"-360","gplace_id":null,"gplace_url":"https://maps.google.com/?cid=5417214163414975020","dealerID":74151,"trusted":false,"image_id":"v1597283981/buick_RM.png","phone":"2089444285","cityStateSlug":"twin-falls.id","slug":"Twin-Falls.ID/rob+green+buick+gmc","location":"42.5878504,-114.4614034","brandsList":["buick","gmc"]},{"id":2887,"crm_id":67076923,"name":"Chevrolet of Twin Falls","dealerSlug":"chevrolet+of+twin+falls","city_state_slug":"Twin-Falls.ID","brand":"Chevrolet","website":"www.twinfallschevrolet.com","address":"1654 Blue Lakes Blvd N","city":"Twin Falls","state":"ID","zip":83301,"latitude":42.591072,"longitude":-114.45909,"phone_number_service":"8443426870","phone_number_main":"2089227174","service_hours":"Mo-Fr 07:30 - 18:00 | Sa 08:00-17:00","utc_offset":"-360","gplace_id":null,"gplace_url":"https://maps.google.com/?cid=10508724700378455968","dealerID":74152,"trusted":false,"image_id":"v1597284079/chevy_ms.png","phone":"8443426870","cityStateSlug":"twin-falls.id","slug":"Twin-Falls.ID/chevrolet+of+twin+falls","location":"42.591072,-114.45909","brandsList":["chevrolet"]},{"id":15541,"crm_id":67076926,"name":"Wills Toyota","dealerSlug":"wills+toyota","city_state_slug":"Twin-Falls.ID","brand":"Toyota","website":"www.willstoyota.com","address":"318 Shoshone St W","city":"Twin Falls","state":"ID","zip":83301,"latitude":42.5546803,"longitude":-114.4723532,"phone_number_service":"2087332891","phone_number_main":"2087332891","service_hours":"Mo-Fr 07:30 - 18:00 | Sa 08:00-13:00","utc_offset":"-360","gplace_id":null,"gplace_url":"https://maps.google.com/?cid=727595996164668676","dealerID":74153,"trusted":false,"image_id":"v1597284039/toyota_ms.png","phone":"2087332891","cityStateSlug":"twin-falls.id","slug":"Twin-Falls.ID/wills+toyota","location":"42.5546803,-114.4723532","brandsList":["toyota"]},{"id":14690,"crm_id":67076929,"name":"Twin Falls Subaru","dealerSlug":"twin+falls+subaru","city_state_slug":"Twin-Falls.ID","brand":"Subaru","website":"www.twinfalls-subaru.com/","address":"794 Falls Ave","city":"Twin Falls","state":"ID","zip":83301,"latitude":42.576923,"longitude":-114.463026,"phone_number_service":"8884871829","phone_number_main":"2087348860","service_hours":"Mo-Fr  07:30 - 18:00 | Sa 08:00 - 15:00","utc_offset":"-360","gplace_id":null,"gplace_url":"https://maps.google.com/?cid=13860677341401674582","dealerID":74154,"trusted":false,"image_id":"v1597283982/subaru_ms.png","phone":"8884871829","cityStateSlug":"twin-falls.id","slug":"Twin-Falls.ID/twin+falls+subaru","location":"42.576923,-114.463026","brandsList":["subaru"]},{"id":13224,"crm_id":67076932,"name":"Silver Creek Ford","dealerSlug":"silver+creek+ford","city_state_slug":"Hailey.ID","brand":"Ford","website":"www.silvercreekford.com","address":"920 S Main St","city":"Hailey","state":"ID","zip":83333,"latitude":43.512673,"longitude":-114.306607,"phone_number_service":"2083914702","phone_number_main":"2087580981","service_hours":"Mo-Fr 08:00 - 18:00 | Sa 09:00 - 15:00","utc_offset":"-360","gplace_id":null,"gplace_url":"https://maps.google.com/?cid=485163973916280451","dealerID":74155,"trusted":false,"image_id":"v1597283967/ford_RM.png","phone":"2083914702","cityStateSlug":"hailey.id","slug":"Hailey.ID/silver+creek+ford","location":"43.512673,-114.306607","brandsList":["ford"]},{"id":3250,"crm_id":67076935,"name":"Con Paulos Chevrolet","dealerSlug":"con+paulos+chevrolet","city_state_slug":"Jerome.ID","brand":"Chevrolet","website":"www.conpaulos.com","address":"251 E Frontage Rd S","city":"Jerome","state":"ID","zip":83338,"latitude":42.6850341,"longitude":-114.5173656,"phone_number_service":"2085954627","phone_number_main":"2083296457","service_hours":"Mo-Fr 07:30 - 18:00 | Sa 08:00 - 17:00","utc_offset":"-360","gplace_id":null,"gplace_url":"https://maps.google.com/?cid=17356395163404205345","dealerID":74156,"trusted":false,"image_id":"v1597284079/chevy_ms.png","phone":"2085954627","cityStateSlug":"jerome.id","slug":"Jerome.ID/con+paulos+chevrolet","location":"42.6850341,-114.5173656","brandsList":["chevrolet"]},{"id":13725,"crm_id":67076938,"name":"Stone's Kia","dealerSlug":"stones+kia","city_state_slug":"Idaho-Falls.ID","brand":"Kia","website":"www.stoneskia.net","address":"1222 N Woodruff Ave","city":"Idaho Falls","state":"ID","zip":83401,"latitude":43.506804,"longitude":-111.998808,"phone_number_service":"8887619936","phone_number_main":"2085242400","service_hours":"Mo-Fr  08:00 - 18:00 | Sa 09:00 - 17:00","utc_offset":"-360","gplace_id":null,"gplace_url":"https://maps.google.com/?cid=6829099558038561774","dealerID":74157,"trusted":false,"image_id":"v1597283948/kia_RM.png","phone":"8887619936","cityStateSlug":"idaho-falls.id","slug":"Idaho-Falls.ID/stones+kia","location":"43.506804,-111.998808","brandsList":["kia"]},{"id":15641,"crm_id":67076941,"name":"Woody Smith Hyundai","dealerSlug":"woody+smith+hyundai","city_state_slug":"Idaho-Falls.ID","brand":"Hyundai","website":"woodysmithhyundai.com","address":"1495 N Woodruff Ave","city":"Idaho Falls","state":"ID","zip":83401,"latitude":43.5091667,"longitude":-112.0016667,"phone_number_service":"2085258326","phone_number_main":"2085258326","service_hours":"Mo-Fr 08:00 - 17:30","utc_offset":"-360","gplace_id":null,"gplace_url":"https://maps.google.com/?cid=14755109225462734633","dealerID":74158,"trusted":false,"image_id":"v1597283959/hyundai_RM.png","phone":"2085258326","cityStateSlug":"idaho-falls.id","slug":"Idaho-Falls.ID/woody+smith+hyundai","location":"43.5091667,-112.0016667","brandsList":["hyundai"]},{"id":14150,"crm_id":67076944,"name":"Teton Toyota","dealerSlug":"teton+toyota","city_state_slug":"Idaho-Falls.ID","brand":"Toyota","website":"www.tetontoyota.com","address":"2252 W Sunnyside Rd","city":"Idaho Falls","state":"ID","zip":83402,"latitude":43.4691423,"longitude":-112.0760412,"phone_number_service":"2085222911","phone_number_main":"2085222911","service_hours":"Mo-Fr 07:00 - 20:00 | Sa 07:00 - 18:30","utc_offset":"-360","gplace_id":null,"gplace_url":"https://maps.google.com/?cid=9371269502451877751","dealerID":74159,"trusted":false,"image_id":"v1597284039/toyota_ms.png","phone":"2085222911","cityStateSlug":"idaho-falls.id","slug":"Idaho-Falls.ID/teton+toyota","location":"43.4691423,-112.0760412","brandsList":["toyota"]},{"id":13304,"crm_id":67076947,"name":"Smith Honda","dealerSlug":"smith+honda","city_state_slug":"Idaho-Falls.ID","brand":"Honda","website":"www.smithhonda.com","address":"3477 Pioneer Dr","city":"Idaho Falls","state":"ID","zip":83402,"latitude":43.4662237,"longitude":-112.0808271,"phone_number_service":"2085229801","phone_number_main":"2085229801","service_hours":"Mo-Fr 07:30 - 18:00 | Sa 08:00-16:00","utc_offset":"-360","gplace_id":null,"gplace_url":"https://maps.google.com/?cid=6137415565265401316","dealerID":74160,"trusted":false,"image_id":"v1597284047/honda_ms.png","phone":"2085229801","cityStateSlug":"idaho-falls.id","slug":"Idaho-Falls.ID/smith+honda","location":"43.4662237,-112.0808271","brandsList":["honda"]},{"id":7518,"crm_id":67076950,"name":"John Adams GMC","dealerSlug":"john+adams+gmc","city_state_slug":"Rexburg.ID","brand":"GMC","website":"www.johnadamsgmc.com","address":"890 W Main St","city":"Rexburg","state":"ID","zip":83440,"latitude":43.8268126,"longitude":-111.809227,"phone_number_service":"8885154455","phone_number_main":"2088819075","service_hours":"Mo-Fr 08:00 - 18:00 | Sa 09:00 - 18:00","utc_offset":"-360","gplace_id":null,"gplace_url":"https://maps.google.com/?cid=418846266004283233","dealerID":74161,"trusted":false,"image_id":"v1597283963/gmc_RM.png","phone":"8885154455","cityStateSlug":"rexburg.id","slug":"Rexburg.ID/john+adams+gmc","location":"43.8268126,-111.809227","brandsList":["gmc"]},{"id":13516,"crm_id":67076953,"name":"St. Anthony Motors Chevrolet Buick GMC","dealerSlug":"st+anthony+motors+chevrolet+buick+gmc","city_state_slug":"Saint-Anthony.ID","brand":"Buick,Chevrolet,GMC","website":"www.stanthonymotors.com","address":"135 W Main St","city":"Saint Anthony","state":"ID","zip":83445,"latitude":43.9666504,"longitude":-111.6846548,"phone_number_service":"8667238754","phone_number_main":"8772210629","service_hours":"Mo-Fr 08:00 - 18:00 | Sa 09:00 - 16:00","utc_offset":"-360","gplace_id":null,"gplace_url":"https://maps.google.com/?cid=2835438761883590146","dealerID":74162,"trusted":false,"image_id":"v1597283981/buick_RM.png","phone":"8667238754","cityStateSlug":"saint-anthony.id","slug":"Saint-Anthony.ID/st+anthony+motors+chevrolet+buick+gmc","location":"43.9666504,-111.6846548","brandsList":["buick","chevrolet","gmc"]},{"id":12789,"crm_id":67076956,"name":"Salmon River Quality Motors","dealerSlug":"salmon+river+quality+motors","city_state_slug":"Salmon.ID","brand":"Buick,Chevrolet,GMC","website":"www.salmonautodealer.com","address":"1051 S Challis St","city":"Salmon","state":"ID","zip":83467,"latitude":45.1632065,"longitude":-113.8939597,"phone_number_service":"8004327582","phone_number_main":"2087562236","service_hours":"","utc_offset":"-360","gplace_id":null,"gplace_url":"https://maps.google.com/?cid=9073392672847757721","dealerID":74163,"trusted":false,"image_id":"v1597283981/buick_RM.png","phone":"8004327582","cityStateSlug":"salmon.id","slug":"Salmon.ID/salmon+river+quality+motors","location":"45.1632065,-113.8939597","brandsList":["buick","chevrolet","gmc"]},{"id":12507,"crm_id":67076959,"name":"Rogers Toyota of Lewiston","dealerSlug":"rogers+toyota+of+lewiston","city_state_slug":"Lewiston.ID","brand":"Toyota","website":"toyotaoflewiston.com","address":"2203 16th Ave","city":"Lewiston","state":"ID","zip":83501,"latitude":46.4046783,"longitude":-117.000618,"phone_number_service":"2087435577","phone_number_main":"2087435577","service_hours":"Mo-Fr 07:00 - 17:30 | Sa 08:00 - 17:00","utc_offset":"-420","gplace_id":null,"gplace_url":"https://maps.google.com/?cid=9880559859186215713","dealerID":74164,"trusted":false,"image_id":"v1597284039/toyota_ms.png","phone":"2087435577","cityStateSlug":"lewiston.id","slug":"Lewiston.ID/rogers+toyota+of+lewiston","location":"46.4046783,-117.000618","brandsList":["toyota"]},{"id":7691,"crm_id":67076962,"name":"Karl Tyler's Lewiston Chevrolet Buick GMC","dealerSlug":"karl+tylers+lewiston+chevrolet+buick+gmc","city_state_slug":"Lewiston.ID","brand":"Buick,Chevrolet,GMC","website":"www.lewistonchevrolet.com","address":"2301 3rd Ave N","city":"Lewiston","state":"ID","zip":83501,"latitude":46.424635,"longitude":-116.9980949,"phone_number_service":"2087482230","phone_number_main":"2084136393","service_hours":"Mo-Fr 07:30 - 17:30","utc_offset":"-420","gplace_id":null,"gplace_url":"https://maps.google.com/?cid=17951099688714708521","dealerID":74165,"trusted":false,"image_id":"v1597283981/buick_RM.png","phone":"2087482230","cityStateSlug":"lewiston.id","slug":"Lewiston.ID/karl+tylers+lewiston+chevrolet+buick+gmc","location":"46.424635,-116.9980949","brandsList":["buick","chevrolet","gmc"]},{"id":12503,"crm_id":67076965,"name":"Rogers Chrysler Dodge Jeep RAM","dealerSlug":"rogers+chrysler+dodge+jeep+ram","city_state_slug":"Lewiston.ID","brand":"Chrysler,Dodge,Jeep,RAM","website":"rogersdodge.com","address":"1824 Main St","city":"Lewiston","state":"ID","zip":83501,"latitude":46.416673,"longitude":-117.0054449,"phone_number_service":"2084136425","phone_number_main":"2082989618","service_hours":"Mo-Fr 07:00 - 17:30 | Sa 08:00 - 17:00","utc_offset":"-420","gplace_id":null,"gplace_url":"https://maps.google.com/?cid=8703610361124849985","dealerID":74166,"trusted":false,"image_id":"v1597283975/chrysler_RM.png","phone":"2084136425","cityStateSlug":"lewiston.id","slug":"Lewiston.ID/rogers+chrysler+dodge+jeep+ram","location":"46.416673,-117.0054449","brandsList":["chrysler","dodge","jeep","ram"]},{"id":5686,"crm_id":67076968,"name":"Gortsema Motors","dealerSlug":"gortsema+motors","city_state_slug":"Grangeville.ID","brand":"Chevrolet","website":"www.gortsemamotors.com","address":"227 N State St","city":"Grangeville","state":"ID","zip":83530,"latitude":45.9271523,"longitude":-116.1205577,"phone_number_service":"8775453291","phone_number_main":"2089830320","service_hours":"Mo-Fr 08:00 - 17:00","utc_offset":"-420","gplace_id":null,"gplace_url":"https://maps.google.com/?cid=4416414114592702576","dealerID":74167,"trusted":false,"image_id":"v1597284079/chevy_ms.png","phone":"8775453291","cityStateSlug":"grangeville.id","slug":"Grangeville.ID/gortsema+motors","location":"45.9271523,-116.1205577","brandsList":["chevrolet"]},{"id":14093,"crm_id":67076974,"name":"Team Mazda","dealerSlug":"team+mazda","city_state_slug":"Caldwell.ID","brand":"Mazda","website":"www.goteammazda.com/","address":"6218 Cleveland Blvd","city":"Caldwell","state":"ID","zip":83607,"latitude":43.6242245,"longitude":-116.6321812,"phone_number_service":"8776895120","phone_number_main":"8886949391","service_hours":"Mo-Fr 07:30-17:30 | Sa 09:00-17:00","utc_offset":"-360","gplace_id":null,"gplace_url":"https://maps.google.com/?cid=4318087047376628885","dealerID":51582,"trusted":true,"image_id":"v1597283937/mazda.png","phone":"8776895120","cityStateSlug":"caldwell.id","slug":"Caldwell.ID/team+mazda","location":"43.6242245,-116.6321812","brandsList":["mazda"]},{"id":10419,"crm_id":67076980,"name":"Mountain Home Auto Ranch","dealerSlug":"mountain+home+auto+ranch","city_state_slug":"Mountain-Home.ID","brand":"Buick,Chevrolet,GMC","website":"www.mthomechevroletbuickgmc.com","address":"1088 Airbase Rd","city":"Mountain Home","state":"ID","zip":83647,"latitude":43.1273159,"longitude":-115.7067229,"phone_number_service":"8665609572","phone_number_main":"2085804610","service_hours":"Mo-Fr 07:30- 17:30","utc_offset":"-360","gplace_id":null,"gplace_url":"https://maps.google.com/?cid=17101533827634627652","dealerID":74169,"trusted":false,"image_id":"v1597283981/buick_RM.png","phone":"8665609572","cityStateSlug":"mountain-home.id","slug":"Mountain-Home.ID/mountain+home+auto+ranch","location":"43.1273159,-115.7067229","brandsList":["buick","chevrolet","gmc"]},{"id":10425,"crm_id":67076986,"name":"Mt Home Chrysler Jeep Dodge","dealerSlug":"mt+home+chrysler+jeep+dodge","city_state_slug":"Mountain-Home.ID","brand":"Chrysler,Dodge,Jeep,RAM","website":"www.mthomechryslerjeepdodge.com","address":"2800 American Legion Blvd","city":"Mountain Home","state":"ID","zip":83647,"latitude":43.1357367,"longitude":-115.6634686,"phone_number_service":"2083664068","phone_number_main":"2085801000","service_hours":"Mo-Fr 07:30 - 18:00 | Sa 08:00 - 17:00","utc_offset":"-360","gplace_id":null,"gplace_url":"https://maps.google.com/?cid=7017812123696009993","dealerID":74170,"trusted":false,"image_id":"v1597283975/chrysler_RM.png","phone":"2083664068","cityStateSlug":"mountain-home.id","slug":"Mountain-Home.ID/mt+home+chrysler+jeep+dodge","location":"43.1357367,-115.6634686","brandsList":["chrysler","dodge","jeep","ram"]},{"id":7823,"crm_id":67076989,"name":"Kendall Kia","dealerSlug":"kendall+kia","city_state_slug":"Nampa.ID","brand":"Kia","website":"www.kendallkianampa.com","address":"15700 Idaho Center Blvd","city":"Nampa","state":"ID","zip":83687,"latitude":43.6017007,"longitude":-116.5112668,"phone_number_service":"2084574227","phone_number_main":"8339040460","service_hours":"Mo-Fr 07:30 - 18:00 | Sa 08:00 - 17:00","utc_offset":"-360","gplace_id":null,"gplace_url":"https://maps.google.com/?cid=4310548383201287598","dealerID":74171,"trusted":false,"image_id":"v1597283948/kia_RM.png","phone":"2084574227","cityStateSlug":"nampa.id","slug":"Nampa.ID/kendall+kia","location":"43.6017007,-116.5112668","brandsList":["kia"]},{"id":4444,"crm_id":67076992,"name":"Edmark Toyota","dealerSlug":"edmark+toyota","city_state_slug":"Nampa.ID","brand":"Toyota","website":"www.edmarktoyota.com","address":"15933 N Idaho Center Blvd","city":"Nampa","state":"ID","zip":83687,"latitude":43.6042317,"longitude":-116.5147349,"phone_number_service":"2084688000","phone_number_main":"2084688000","service_hours":"Mo-Fr 07:30 - 18:00 | Sa 07:30 - 16:30","utc_offset":"-360","gplace_id":null,"gplace_url":"https://maps.google.com/?cid=13806566026997943222","dealerID":74172,"trusted":false,"image_id":"v1597284039/toyota_ms.png","phone":"2084688000","cityStateSlug":"nampa.id","slug":"Nampa.ID/edmark+toyota","location":"43.6042317,-116.5147349","brandsList":["toyota"]},{"id":3342,"crm_id":67076995,"name":"Corwin Ford Nampa","dealerSlug":"corwin+ford+nampa","city_state_slug":"Nampa.ID","brand":"Ford","website":"corwinfordnampa.com","address":"5707 E Gate Blvd","city":"Nampa","state":"ID","zip":83687,"latitude":43.6007494,"longitude":-116.5076453,"phone_number_service":"2082439041","phone_number_main":"2084751110","service_hours":"Mo-Fr 07:00 - 18:00 | Sa 08:00 - 16:00","utc_offset":"-360","gplace_id":null,"gplace_url":"https://maps.google.com/?cid=2825729716671961568","dealerID":74173,"trusted":false,"image_id":"v1597283967/ford_RM.png","phone":"2082439041","cityStateSlug":"nampa.id","slug":"Nampa.ID/corwin+ford+nampa","location":"43.6007494,-116.5076453","brandsList":["ford"]},{"id":14342,"crm_id":67076998,"name":"Tom Scott Honda","dealerSlug":"tom+scott+honda","city_state_slug":"Nampa.ID","brand":"Honda","website":"www.tomscotthonda.com","address":"603 11th Ave N","city":"Nampa","state":"ID","zip":83687,"latitude":43.586075,"longitude":-116.55361,"phone_number_service":"2084663248","phone_number_main":"2084663248","service_hours":"Mo-Fr 07:30 - 17:30 | Sa 08:00-17:30","utc_offset":"-360","gplace_id":null,"gplace_url":"https://maps.google.com/?cid=6293718523049023640","dealerID":74174,"trusted":false,"image_id":"v1597284047/honda_ms.png","phone":"2084663248","cityStateSlug":"nampa.id","slug":"Nampa.ID/tom+scott+honda","location":"43.586075,-116.55361","brandsList":["honda"]},{"id":2164,"crm_id":67077001,"name":"Bronco Motors Hyundai West","dealerSlug":"bronco+motors+hyundai+west","city_state_slug":"Nampa.ID","brand":"Hyundai","website":"www.broncomotorshyundaiwest.com","address":"15715 N Idaho Center Blvd","city":"Nampa","state":"ID","zip":83687,"latitude":43.602634,"longitude":-116.514585,"phone_number_service":"2082699438","phone_number_main":"2082699430","service_hours":"Mo-Fr 07:30 - 17:30 | Sa 09:00 - 15:00","utc_offset":"-360","gplace_id":null,"gplace_url":"https://maps.google.com/?cid=6842687116950999952","dealerID":74175,"trusted":false,"image_id":"v1597283959/hyundai_RM.png","phone":"2082699438","cityStateSlug":"nampa.id","slug":"Nampa.ID/bronco+motors+hyundai+west","location":"43.602634,-116.514585","brandsList":["hyundai"]},{"id":2167,"crm_id":67077004,"name":"Bronco Motors Nissan","dealerSlug":"bronco+motors+nissan","city_state_slug":"Nampa.ID","brand":"Nissan","website":"www.broncomotorsnissan.com","address":"15885 N Idaho Center Blvd","city":"Nampa","state":"ID","zip":83687,"latitude":43.6030953,"longitude":-116.5143771,"phone_number_service":"2084136450","phone_number_main":"2086682081","service_hours":"Mo-Fr 07:30 - 17:30 | Sa 09:00 - 15:00","utc_offset":"-360","gplace_id":null,"gplace_url":"https://maps.google.com/?cid=13345621985362970018","dealerID":74176,"trusted":false,"image_id":"v1597283926/nissan_RM.png","phone":"2084136450","cityStateSlug":"nampa.id","slug":"Nampa.ID/bronco+motors+nissan","location":"43.6030953,-116.5143771","brandsList":["nissan"]},{"id":8464,"crm_id":67077007,"name":"Larry H. Miller Subaru Boise","dealerSlug":"larry+h+miller+subaru+boise","city_state_slug":"Boise.ID","brand":"Subaru","website":"www.boisesubaru.com","address":"11196 W Fairview Ave","city":"Boise","state":"ID","zip":83713,"latitude":43.6204395,"longitude":-116.3213701,"phone_number_service":"8883290486","phone_number_main":"2085140903","service_hours":"Mo-Fr 07:00 - 18:00","utc_offset":"-360","gplace_id":null,"gplace_url":"https://maps.google.com/?cid=11635829684635220690","dealerID":74177,"trusted":false,"image_id":"v1597283982/subaru_ms.png","phone":"8883290486","cityStateSlug":"boise.id","slug":"Boise.ID/larry+h+miller+subaru+boise","location":"43.6204395,-116.3213701","brandsList":["subaru"]},{"id":11459,"crm_id":67077010,"name":"Peterson Chevrolet Buick Cadillac","dealerSlug":"peterson+chevrolet+buick+cadillac","city_state_slug":"Boise.ID","brand":"Buick,Cadillac,Chevrolet","website":"www.petersongm.com","address":"12300 W Fairview Ave","city":"Boise","state":"ID","zip":83713,"latitude":43.6206047,"longitude":-116.336037,"phone_number_service":"2083235100","phone_number_main":"2083235000","service_hours":"Mo-Fr 07:00 - 18:00 | Sa 08:00 - 16:00","utc_offset":"-360","gplace_id":null,"gplace_url":"https://maps.google.com/?cid=3338538495785073227","dealerID":74178,"trusted":false,"image_id":"v1597283981/buick_RM.png","phone":"2083235100","cityStateSlug":"boise.id","slug":"Boise.ID/peterson+chevrolet+buick+cadillac","location":"43.6206047,-116.336037","brandsList":["buick","cadillac","chevrolet"]},{"id":11463,"crm_id":67077016,"name":"Peterson Lexus","dealerSlug":"peterson+lexus","city_state_slug":"Boise.ID","brand":"Lexus","website":"www.petersonlexus.com","address":"9055 W Fairview Ave","city":"Boise","state":"ID","zip":83704,"latitude":43.618075,"longitude":-116.2947938,"phone_number_service":"2083789009","phone_number_main":"2083789009","service_hours":"Mo-Fr 07:30 - 18:00 | Sa 07:30 - 18:00","utc_offset":"-360","gplace_id":null,"gplace_url":"https://maps.google.com/?cid=5465740554661406729","dealerID":74179,"trusted":false,"image_id":"v1597284042/lexus_ms.png","phone":"2083789009","cityStateSlug":"boise.id","slug":"Boise.ID/peterson+lexus","location":"43.618075,-116.2947938","brandsList":["lexus"]},{"id":3938,"crm_id":67077019,"name":"Dennis Dillon Fiat","dealerSlug":"dennis+dillon+fiat","city_state_slug":"Boise.ID","brand":"Fiat","website":"www.fiatusaofboiseid.com","address":"2495 S Orchard St","city":"Boise","state":"ID","zip":83705,"latitude":43.58007,"longitude":-116.244635,"phone_number_service":"2086399059","phone_number_main":"2083366000","service_hours":"Mo-Fr 07:30 - 18:00 | Sa 08:00 - 16:00","utc_offset":"-360","gplace_id":null,"gplace_url":"https://maps.google.com/?cid=7556802145900544185","dealerID":74180,"trusted":false,"image_id":"v2-motorsafety/assets/images/default-logo","phone":"2086399059","cityStateSlug":"boise.id","slug":"Boise.ID/dennis+dillon+fiat","location":"43.58007,-116.244635","brandsList":["fiat"]},{"id":3940,"crm_id":67077022,"name":"Dennis Dillon Nissan","dealerSlug":"dennis+dillon+nissan","city_state_slug":"Boise.ID","brand":"Nissan","website":"www.dennisdillonnissan.com","address":"8727 W Fairview Ave","city":"Boise","state":"ID","zip":83704,"latitude":43.618659,"longitude":-116.290757,"phone_number_service":"2083884400","phone_number_main":"2083884400","service_hours":"Mo 07:30 - 18:00 | Sa 08:00 - 16:00","utc_offset":"-360","gplace_id":null,"gplace_url":"https://maps.google.com/?cid=16696772169156940884","dealerID":74181,"trusted":false,"image_id":"v1597283926/nissan_RM.png","phone":"2083884400","cityStateSlug":"boise.id","slug":"Boise.ID/dennis+dillon+nissan","location":"43.618659,-116.290757","brandsList":["nissan"]},{"id":8449,"crm_id":67077025,"name":"Larry H. Miller Honda Boise","dealerSlug":"larry+h+miller+honda+boise","city_state_slug":"Boise.ID","brand":"Honda","website":"www.larrymillerhondaboise.com","address":"7710 W Gratz Dr","city":"Boise","state":"ID","zip":83709,"latitude":43.6022529,"longitude":-116.2774734,"phone_number_service":"8665405419","phone_number_main":"2084884499","service_hours":"Mo-Fr 07:00 - 18:00 | Sa 08:00 - 17:00","utc_offset":"-360","gplace_id":null,"gplace_url":"https://maps.google.com/?cid=10093788420204889478","dealerID":74182,"trusted":false,"image_id":"v1597284047/honda_ms.png","phone":"8665405419","cityStateSlug":"boise.id","slug":"Boise.ID/larry+h+miller+honda+boise","location":"43.6022529,-116.2774734","brandsList":["honda"]},{"id":504,"crm_id":67077028,"name":"Audi Boise","dealerSlug":"audi+boise","city_state_slug":"Boise.ID","brand":"Audi","website":"www.audiboise.com","address":"8400 W Franklin Rd #1","city":"Boise","state":"ID","zip":83709,"latitude":43.6054226,"longitude":-116.2866825,"phone_number_service":"8884317348","phone_number_main":"2083775400","service_hours":"Mo-Fr 07:30 - 18:00 | Sa 08:00 - 17:00","utc_offset":"-360","gplace_id":null,"gplace_url":"https://maps.google.com/?cid=17145754768834762038","dealerID":74183,"trusted":false,"image_id":"v1597283985/audi_RM.png","phone":"8884317348","cityStateSlug":"boise.id","slug":"Boise.ID/audi+boise","location":"43.6054226,-116.2866825","brandsList":["audi"]},{"id":10063,"crm_id":67077031,"name":"Mike White Ford of Coeur d'Alene","dealerSlug":"mike+white+ford+of+coeur+dalene","city_state_slug":"Coeur-d'Alene.ID","brand":"Ford","website":"www.mikewhitefordcda.net","address":"315 W Clayton Ave","city":"Coeur d'Alene","state":"ID","zip":83815,"latitude":47.720734,"longitude":-116.790922,"phone_number_service":"2086649211","phone_number_main":"2086649211","service_hours":"Mo-Fr 07:00 - 18:00 | Sa 08:00 - 17:00","utc_offset":"-420","gplace_id":null,"gplace_url":"https://maps.google.com/?cid=6421970040639772098","dealerID":74184,"trusted":false,"image_id":"v1597283967/ford_RM.png","phone":"2086649211","cityStateSlug":"coeur-d'alene.id","slug":"Coeur-d'Alene.ID/mike+white+ford+of+coeur+dalene","location":"47.720734,-116.790922","brandsList":["ford"]},{"id":12443,"crm_id":67077034,"name":"Robideaux Motors","dealerSlug":"robideaux+motors","city_state_slug":"Coeur-d'Alene.ID","brand":"Buick,GMC","website":"www.robideaux.com","address":"351 W Dalton Ave","city":"Coeur d'Alene","state":"ID","zip":83815,"latitude":47.7247036,"longitude":-116.791222,"phone_number_service":"8002098819","phone_number_main":"2082092766","service_hours":"Mo-Fr 07:00 - 17:30","utc_offset":"-420","gplace_id":null,"gplace_url":"https://maps.google.com/?cid=8038283918957613939","dealerID":74185,"trusted":false,"image_id":"v1597283981/buick_RM.png","phone":"8002098819","cityStateSlug":"coeur-d'alene.id","slug":"Coeur-d'Alene.ID/robideaux+motors","location":"47.7247036,-116.791222","brandsList":["buick","gmc"]},{"id":10064,"crm_id":67077037,"name":"Mike White Ford of Sandpoint","dealerSlug":"mike+white+ford+of+sandpoint","city_state_slug":"Ponderay.ID","brand":"Ford","website":"www.mikewhitefordsandpoint.com","address":"476600 US-95","city":"Ponderay","state":"ID","zip":83852,"latitude":48.3026443,"longitude":-116.5475333,"phone_number_service":"8882860530","phone_number_main":"2082633127","service_hours":"Mo-Fr 08:00 - 17:00","utc_offset":"-420","gplace_id":null,"gplace_url":"https://maps.google.com/?cid=7662570850357942701","dealerID":74186,"trusted":false,"image_id":"v1597283967/ford_RM.png","phone":"8882860530","cityStateSlug":"ponderay.id","slug":"Ponderay.ID/mike+white+ford+of+sandpoint","location":"48.3026443,-116.5475333","brandsList":["ford"]},{"id":9965,"crm_id":67077043,"name":"Midway Hyundai","dealerSlug":"midway+hyundai","city_state_slug":"Post-Falls.ID","brand":"Hyundai","website":"www.gotomidwayhyundai.com","address":"1665 E Edmonton Ave","city":"Post Falls","state":"ID","zip":83854,"latitude":47.7135804,"longitude":-116.922056,"phone_number_service":"8777289265","phone_number_main":"2086192500","service_hours":"Mo-Fr 08:00 - 17:00","utc_offset":"-420","gplace_id":null,"gplace_url":"https://maps.google.com/?cid=17970798884127353639","dealerID":74187,"trusted":false,"image_id":"v1597283959/hyundai_RM.png","phone":"8777289265","cityStateSlug":"post-falls.id","slug":"Post-Falls.ID/midway+hyundai","location":"47.7135804,-116.922056","brandsList":["hyundai"]},{"id":4804,"crm_id":67077046,"name":"Findlay Chrysler Dodge Jeep RAM","dealerSlug":"findlay+chrysler+dodge+jeep+ram","city_state_slug":"Post-Falls.ID","brand":"Chrysler,Dodge,Jeep,RAM","website":"postfallschryslerjeepdodgeram.com","address":"550 N Alberta St","city":"Post Falls","state":"ID","zip":83854,"latitude":47.7139051,"longitude":-116.9209086,"phone_number_service":"2086188060","phone_number_main":"2084571900","service_hours":"Mo-Fr 07:30 - 17:30","utc_offset":"-420","gplace_id":null,"gplace_url":"https://maps.google.com/?cid=16494201604068584329","dealerID":74188,"trusted":false,"image_id":"v1597283975/chrysler_RM.png","phone":"2086188060","cityStateSlug":"post-falls.id","slug":"Post-Falls.ID/findlay+chrysler+dodge+jeep+ram","location":"47.7139051,-116.9209086","brandsList":["chrysler","dodge","jeep","ram"]},{"id":14602,"crm_id":67078300,"name":"Treasure Valley Subaru","dealerSlug":"treasure+valley+subaru","city_state_slug":"Nampa.ID","brand":"Subaru","website":"www.tvsubaru.com/","address":"5605 East Gate Blvd","city":"Nampa","state":"ID","zip":83687,"latitude":43.6010632,"longitude":-116.5072325,"phone_number_service":"8886900456","phone_number_main":"7076399073","service_hours":"Mo-Fr 07:30 - 17:00 | Sa 09:00 - 17:00","utc_offset":"-420","gplace_id":null,"gplace_url":"https://maps.google.com/?cid=14407096394589183959","dealerID":74500,"trusted":false,"image_id":"v1597283982/subaru_ms.png","phone":"8886900456","cityStateSlug":"nampa.id","slug":"Nampa.ID/treasure+valley+subaru","location":"43.6010632,-116.5072325","brandsList":["subaru"]},{"id":15154,"crm_id":67079878,"name":"Wackerli Subaru","dealerSlug":"wackerli+subaru","city_state_slug":"Idaho-Falls.ID","brand":"Subaru","website":"www.wackerlisubaru.com/","address":"2250 N Holmes Ave","city":"Idaho Falls","state":"ID","zip":83401,"latitude":43.5166667,"longitude":-112.0230557,"phone_number_service":"8888143195","phone_number_main":"2085241500","service_hours":"Mo-Fr 08:00 - 18:00 | Sa 08:00 - 16:00","utc_offset":"-360","gplace_id":null,"gplace_url":"https://maps.google.com/?cid=3963074085301918546","dealerID":74874,"trusted":false,"image_id":"v1597283982/subaru_ms.png","phone":"8888143195","cityStateSlug":"idaho-falls.id","slug":"Idaho-Falls.ID/wackerli+subaru","location":"43.5166667,-112.0230557","brandsList":["subaru"]},{"id":9688,"crm_id":70874482,"name":"Mercedes-Benz of Boise","dealerSlug":"mercedes+benz+of+boise","city_state_slug":"Boise.ID","brand":"Mercedes-Benz","website":"www.mercedesbenzofboise.com","address":"351 S Auto Dr","city":"Boise","state":"ID","zip":83709,"latitude":43.601074,"longitude":-116.276578,"phone_number_service":"2083773900","phone_number_main":"8006211775","service_hours":"Mo-Fr 07:30 - 18:00","utc_offset":"-360","gplace_id":null,"gplace_url":"https://maps.google.com/?cid=15944825748736870008","dealerID":50469,"trusted":true,"image_id":"v1597283934/mercedes_RM.png","phone":"2083773900","cityStateSlug":"boise.id","slug":"Boise.ID/mercedes+benz+of+boise","location":"43.601074,-116.276578","brandsList":["mercedes-benz"]},{"id":9079,"crm_id":71292289,"name":"Lyle Pearson Volvo Cars Boise","dealerSlug":"lyle+pearson+volvo+cars+boise","city_state_slug":"Boise.ID","brand":"Volvo","website":"www.lylepearsonboisevolvo.com","address":"7805 W Gratz Dr","city":"Boise","state":"ID","zip":83709,"latitude":43.6012066,"longitude":-116.2792727,"phone_number_service":"8669066918","phone_number_main":"2083773900","service_hours":"Mo-Fr 07:30 - 18:00","utc_offset":"-360","gplace_id":null,"gplace_url":"https://maps.google.com/?cid=5555785162191641151","dealerID":75000,"trusted":false,"image_id":"v1597283901/volvo.jpg","phone":"8669066918","cityStateSlug":"boise.id","slug":"Boise.ID/lyle+pearson+volvo+cars+boise","location":"43.6012066,-116.2792727","brandsList":["volvo"]},{"id":8429,"crm_id":108024016,"name":"Larry H. Miller Chrysler Jeep Dodge RAM Boise","dealerSlug":"larry+h+miller+chrysler+jeep+dodge+ram+boise","city_state_slug":"Boise.ID","brand":"Chrysler,Dodge,Jeep,RAM","website":"www.lhmdodgeboise.com","address":"222 S Auto Dr","city":"Boise","state":"ID","zip":83709,"latitude":43.6017867,"longitude":-116.2753247,"phone_number_service":"2089576693","phone_number_main":"2085140835","service_hours":"Mo-Fr 07:00 - 18:00 | Sa 08:00 - 17:00","utc_offset":"-360","gplace_id":null,"gplace_url":"https://maps.google.com/?cid=12276561732241920537","dealerID":76738,"trusted":false,"image_id":"v1597283975/chrysler_RM.png","phone":"2089576693","cityStateSlug":"boise.id","slug":"Boise.ID/larry+h+miller+chrysler+jeep+dodge+ram+boise","location":"43.6017867,-116.2753247","brandsList":["chrysler","dodge","jeep","ram"]},{"id":2165,"crm_id":113050555,"name":"Bronco Motors INFINITI","dealerSlug":"bronco+motors+infiniti","city_state_slug":"Nampa.ID","brand":"INFINITI","website":"www.broncomotorsinfiniti.com","address":"15675 N Idaho Center Blvd","city":"Nampa","state":"ID","zip":83687,"latitude":43.6019566,"longitude":-116.5139723,"phone_number_service":"2084231392","phone_number_main":"2084818330","service_hours":"Mo-Fr 07:30 - 17:30","utc_offset":"-360","gplace_id":null,"gplace_url":"https://maps.google.com/?cid=9761019411088115153","dealerID":76822,"trusted":false,"image_id":"v1597283957/infiniti_RM.png","phone":"2084231392","cityStateSlug":"nampa.id","slug":"Nampa.ID/bronco+motors+infiniti","location":"43.6019566,-116.5139723","brandsList":["infiniti"]},{"id":2166,"crm_id":113050633,"name":"Bronco Motors Mitsubishi","dealerSlug":"bronco+motors+mitsubishi","city_state_slug":"Nampa.ID","brand":"Mitsubishi","website":"www.broncomotorsmitsubishi.com","address":"16295 N Idaho Center Blvd","city":"Nampa","state":"ID","zip":83687,"latitude":43.6093042,"longitude":-116.5141112,"phone_number_service":"2082975219","phone_number_main":"2082911058","service_hours":"Mo-Fr 07:30 - 17:30","utc_offset":"-360","gplace_id":null,"gplace_url":"https://maps.google.com/?cid=5542243552880610917","dealerID":76823,"trusted":false,"image_id":"v1597283928/mitsubishi.png","phone":"2082975219","cityStateSlug":"nampa.id","slug":"Nampa.ID/bronco+motors+mitsubishi","location":"43.6093042,-116.5141112","brandsList":["mitsubishi"]},{"id":12564,"crm_id":114111598,"name":"Ron Sayer Nissan","dealerSlug":"ron+sayer+nissan","city_state_slug":"Idaho-Falls.ID","brand":"Nissan","website":"www.sayernissan.com","address":"1175 N Woodruff Ave","city":"Idaho Falls","state":"ID","zip":83401,"latitude":43.5065917,"longitude":-112.0004298,"phone_number_service":"8777359372","phone_number_main":"2085230603","service_hours":"Mo-Fr  08:00 - 18:00 | Sa 09:00 - 15:00","utc_offset":"-360","gplace_id":null,"gplace_url":"https://maps.google.com/?cid=13095759054971982730","dealerID":76887,"trusted":false,"image_id":"v1597283926/nissan_RM.png","phone":"8777359372","cityStateSlug":"idaho-falls.id","slug":"Idaho-Falls.ID/ron+sayer+nissan","location":"43.5065917,-112.0004298","brandsList":["nissan"]},{"id":3939,"crm_id":114563376,"name":"Dennis Dillon Mazda","dealerSlug":"dennis+dillon+mazda","city_state_slug":"Boise.ID","brand":"Mazda","website":"www.dennisdillonmazda.com","address":"9501 W Fairview Ave","city":"Boise","state":"ID","zip":83704,"latitude":43.6186994,"longitude":-116.3001371,"phone_number_service":"2083149816","phone_number_main":"2083149811","service_hours":"Mo-Fr 07:30 - 18:00 | Sa 08:00 - 16:00","utc_offset":"-360","gplace_id":null,"gplace_url":"https://maps.google.com/?cid=7006913183113617528","dealerID":76915,"trusted":false,"image_id":"v1597283937/mazda.png","phone":"2083149816","cityStateSlug":"boise.id","slug":"Boise.ID/dennis+dillon+mazda","location":"43.6186994,-116.3001371","brandsList":["mazda"]}]