[{"id":16341,"crm_id":999,"name":"Dustin Zeck Chrysler Dodge Jeep RAM","dealerSlug":"dustin+zeck+chrysler+dodge+jeep+ram","city_state_slug":"Junction-City.KS","brand":"Chrysler,Dodge,Jeep,RAM","website":"www.valorcdjr.com/","address":"1825 Goldenbelt Blvd","city":"Junction City","state":"KS","zip":66441,"latitude":39.001319,"longitude":-96.860789,"phone_number_service":"7852385114","phone_number_main":"","service_hours":"Mo-Su Closed","utc_offset":"","gplace_id":0,"gplace_url":"","dealerID":60252,"trusted":false,"image_id":"v1597283975/chrysler_RM.png","phone":"7852385114","cityStateSlug":"junction-city.ks","slug":"Junction-City.KS/dustin+zeck+chrysler+dodge+jeep+ram","location":"39.001319,-96.860789","brandsList":["chrysler","dodge","jeep","ram"]},{"id":17770,"crm_id":999,"name":"Valor Ford","dealerSlug":"valor+ford","city_state_slug":"Junction-City.KS","brand":"Ford","website":"www.valorford.net","address":"1825 Goldenbelt Boulevard","city":"Junction City","state":"KS","zip":66441,"latitude":39.001014,"longitude":-96.861553,"phone_number_service":"7852385114","phone_number_main":"","service_hours":"Mo-Fr 08:30 - 18:00 | Sa 08:30 - 17:00 | Su Closed","utc_offset":"","gplace_id":0,"gplace_url":"","dealerID":60253,"trusted":false,"image_id":"v1597283967/ford_RM.png","phone":"7852385114","cityStateSlug":"junction-city.ks","slug":"Junction-City.KS/valor+ford","location":"39.001014,-96.861553","brandsList":["ford"]},{"id":16013,"crm_id":999,"name":"Bob Allen Ford-Ottawa","dealerSlug":"bob+allen+ford+ottawa","city_state_slug":"Ottawa.KS","brand":"Ford","website":"www.boballenfordottawa.com","address":"2320 S. Oak","city":"Ottawa","state":"KS","zip":66067,"latitude":38.579242,"longitude":-95.265028,"phone_number_service":"7852425100","phone_number_main":"","service_hours":"Mo-Th 09:00 - 19:00 | Fr-Sa 09:00 - 18:00 | Su Closed","utc_offset":"","gplace_id":0,"gplace_url":"","dealerID":60255,"trusted":false,"image_id":"v1597283967/ford_RM.png","phone":"7852425100","cityStateSlug":"ottawa.ks","slug":"Ottawa.KS/bob+allen+ford+ottawa","location":"38.579242,-95.265028","brandsList":["ford"]},{"id":16166,"crm_id":999,"name":"Colby Dodge Chrysler Jeep","dealerSlug":"colby+dodge+chrysler+jeep","city_state_slug":"Colby.KS","brand":"Chrysler,Dodge,Jeep,RAM","website":"www.colbychryslerdodgejeep.com","address":"1000 Taylor Avenue","city":"Colby","state":"KS","zip":67701,"latitude":39.362812,"longitude":-101.05614,"phone_number_service":"7854603317","phone_number_main":"","service_hours":"Mo-Fr 08:00 - 18:00 | Sa 08:00 - 13:00 | Su Closed","utc_offset":"","gplace_id":0,"gplace_url":"","dealerID":60397,"trusted":false,"image_id":"v1597283975/chrysler_RM.png","phone":"7854603317","cityStateSlug":"colby.ks","slug":"Colby.KS/colby+dodge+chrysler+jeep","location":"39.362812,-101.05614","brandsList":["chrysler","dodge","jeep","ram"]},{"id":16730,"crm_id":999,"name":"Jay Hatfield Dodge Chrysler RAM Jeep","dealerSlug":"jay+hatfield+dodge+chrysler+ram+jeep","city_state_slug":"Frontenac.KS","brand":"Chrysler,Dodge,Jeep,RAM","website":"www.jayhatfieldchryslerdodgejeepram.com","address":"1021 N Hwy 69","city":"Frontenac","state":"KS","zip":66763,"latitude":37.459777,"longitude":-94.706524,"phone_number_service":"6202322224","phone_number_main":"","service_hours":"Mo-Fr 08:00 - 19:00 | Sa 08:00 - 17:00 | Su Closed","utc_offset":"","gplace_id":0,"gplace_url":"","dealerID":60435,"trusted":false,"image_id":"v1597283975/chrysler_RM.png","phone":"6202322224","cityStateSlug":"frontenac.ks","slug":"Frontenac.KS/jay+hatfield+dodge+chrysler+ram+jeep","location":"37.459777,-94.706524","brandsList":["chrysler","dodge","jeep","ram"]},{"id":16264,"crm_id":999,"name":"Davis Motors","dealerSlug":"davis+motors","city_state_slug":"Syracuse.KS","brand":"Ford","website":"www.davismotorsinc.com","address":"110 W Hwy 50","city":"Syracuse","state":"KS","zip":67878,"latitude":37.98097,"longitude":-101.75362,"phone_number_service":"6203847361","phone_number_main":"","service_hours":"Mo-Fr 07:30 - 17:00 | Sa 07:30 - 12:00 | Su Closed","utc_offset":"","gplace_id":0,"gplace_url":"","dealerID":60482,"trusted":false,"image_id":"v1597283967/ford_RM.png","phone":"6203847361","cityStateSlug":"syracuse.ks","slug":"Syracuse.KS/davis+motors","location":"37.98097,-101.75362","brandsList":["ford"]},{"id":17080,"crm_id":999,"name":"Mike Carpino Ford Parsons","dealerSlug":"mike+carpino+ford+parsons","city_state_slug":"Parsons.KS","brand":"Ford","website":"www.mikecarpinofordparsons.com","address":"1100 Main Street","city":"Parsons","state":"KS","zip":67357,"latitude":37.340456,"longitude":-95.251037,"phone_number_service":"6204233673","phone_number_main":"","service_hours":"Mo-Fr 08:00 - 18:00 | Sa 08:00 - 17:00 | Su Closed","utc_offset":"","gplace_id":0,"gplace_url":"","dealerID":60484,"trusted":false,"image_id":"v1597283967/ford_RM.png","phone":"6204233673","cityStateSlug":"parsons.ks","slug":"Parsons.KS/mike+carpino+ford+parsons","location":"37.340456,-95.251037","brandsList":["ford"]},{"id":16895,"crm_id":999,"name":"Legacy Chrysler Dodge Jeep RAM","dealerSlug":"legacy+chrysler+dodge+jeep+ram","city_state_slug":"Garden-City.KS","brand":"Chrysler,Dodge,Jeep,RAM","website":"www.legacyautocenter.net","address":"1621 E Fulton Street","city":"Garden City","state":"KS","zip":71457,"latitude":37.964638,"longitude":-100.852104,"phone_number_service":"6208056447","phone_number_main":"","service_hours":"Mo-Fr 09:00 - 18:00 | Sa 09:00 - 17:00 | Su Closed","utc_offset":"","gplace_id":0,"gplace_url":"","dealerID":60709,"trusted":false,"image_id":"v1597283975/chrysler_RM.png","phone":"6208056447","cityStateSlug":"garden-city.ks","slug":"Garden-City.KS/legacy+chrysler+dodge+jeep+ram","location":"37.964638,-100.852104","brandsList":["chrysler","dodge","jeep","ram"]},{"id":17319,"crm_id":999,"name":"Prestige Nissan Legends","dealerSlug":"prestige+nissan+legends","city_state_slug":"Kansas-City.KS","brand":"Nissan","website":"www.prestigenissanlegends.com","address":"1900 N 100TH TERRACE","city":"Kansas City","state":"KS","zip":66109,"latitude":39.1276009,"longitude":-94.8140376,"phone_number_service":"9138007430","phone_number_main":"","service_hours":"Mo-Th 08:30 - 20:00\n | Fr 08:30 - 18:00\n | Sa 09:00 - 18:00\n | Su Closed","utc_offset":"","gplace_id":0,"gplace_url":"","dealerID":60788,"trusted":false,"image_id":"v1597283926/nissan_RM.png","phone":"9138007430","cityStateSlug":"kansas-city.ks","slug":"Kansas-City.KS/prestige+nissan+legends","location":"39.1276009,-94.8140376","brandsList":["nissan"]},{"id":16278,"crm_id":999,"name":"DeLissa Ford","dealerSlug":"delissa+ford","city_state_slug":"Meade.KS","brand":"Ford","website":"","address":"201 W Carthage","city":"Meade","state":"KS","zip":67864,"latitude":37.285407,"longitude":-100.341634,"phone_number_service":"6208732174","phone_number_main":"","service_hours":"","utc_offset":"","gplace_id":0,"gplace_url":"","dealerID":60827,"trusted":false,"image_id":"v1597283967/ford_RM.png","phone":"6208732174","cityStateSlug":"meade.ks","slug":"Meade.KS/delissa+ford","location":"37.285407,-100.341634","brandsList":["ford"]},{"id":16613,"crm_id":999,"name":"Hillsboro Ford","dealerSlug":"hillsboro+ford","city_state_slug":"Hillsboro.KS","brand":"Ford","website":"www.hillsborofordks.net","address":"202 S Main","city":"Hillsboro","state":"KS","zip":67063,"latitude":38.351987,"longitude":-97.204366,"phone_number_service":"6209473134","phone_number_main":"","service_hours":"Mo-Fr 08:00 - 18:00 | Sa 08:00 - 16:00 | Su Closed","utc_offset":"","gplace_id":0,"gplace_url":"","dealerID":60832,"trusted":false,"image_id":"v1597283967/ford_RM.png","phone":"6209473134","cityStateSlug":"hillsboro.ks","slug":"Hillsboro.KS/hillsboro+ford","location":"38.351987,-97.204366","brandsList":["ford"]},{"id":16088,"crm_id":999,"name":"C W Beamgard Co","dealerSlug":"c+w+beamgard+co","city_state_slug":"Atwood.KS","brand":"Chrysler,Dodge,Jeep","website":"","address":"210 State Street","city":"Atwood","state":"KS","zip":67730,"latitude":39.806293,"longitude":-101.043738,"phone_number_service":"7856263286","phone_number_main":"","service_hours":"Mo-Fr 09:00 - 18:00 | Sa 09:00 - 24:00 | Su Closed","utc_offset":"","gplace_id":0,"gplace_url":"","dealerID":60861,"trusted":false,"image_id":"v1597283975/chrysler_RM.png","phone":"7856263286","cityStateSlug":"atwood.ks","slug":"Atwood.KS/c+w+beamgard+co","location":"39.806293,-101.043738","brandsList":["chrysler","dodge","jeep"]},{"id":17107,"crm_id":999,"name":"Money Subaru","dealerSlug":"money+subaru","city_state_slug":"Salina.KS","brand":"Subaru","website":"MoneySubaru.dealer.subaru.com","address":"2222 S 9th St","city":"Salina","state":"KS","zip":67401,"latitude":38.80224,"longitude":-97.614069,"phone_number_service":"4067553673","phone_number_main":"","service_hours":"","utc_offset":"","gplace_id":0,"gplace_url":"","dealerID":60909,"trusted":false,"image_id":"v1597283982/subaru_ms.png","phone":"4067553673","cityStateSlug":"salina.ks","slug":"Salina.KS/money+subaru","location":"38.80224,-97.614069","brandsList":["subaru"]},{"id":16860,"crm_id":999,"name":"Laird Noller Hyundai","dealerSlug":"laird+noller+hyundai","city_state_slug":"Lawrence.KS","brand":"Hyundai","website":"www.hyundaioflawrence.com","address":"2829 Iowa Street","city":"Lawrence","state":"KS","zip":66046,"latitude":38.9323668,"longitude":-95.2605659,"phone_number_service":"7858382327","phone_number_main":"","service_hours":"Mo-Fr 07:00 - 18:00 | Sa 08:00 - 15:00","utc_offset":"","gplace_id":0,"gplace_url":"","dealerID":61038,"trusted":false,"image_id":"v1597283959/hyundai_RM.png","phone":"7858382327","cityStateSlug":"lawrence.ks","slug":"Lawrence.KS/laird+noller+hyundai","location":"38.9323668,-95.2605659","brandsList":["hyundai"]},{"id":17413,"crm_id":999,"name":"Robbins Chrysler Dodge Jeep RAM FIAT","dealerSlug":"robbins+chrysler+dodge+jeep+ram+fiat","city_state_slug":"Manhattan.KS","brand":"Chrysler,Dodge,Jeep,RAM,Fiat","website":"www.robbinscdjrf.com","address":"3100 Anderson Ave","city":"Manhattan","state":"KS","zip":66503,"latitude":39.190064,"longitude":-96.614616,"phone_number_service":"7855370357","phone_number_main":"","service_hours":"Mo-Th 09:00 - 19:00 | Fr 09:00 - 18:00 | Sa 09:00 - 16:00 | Su Closed","utc_offset":"","gplace_id":0,"gplace_url":"","dealerID":61108,"trusted":false,"image_id":"v1597283975/chrysler_RM.png","phone":"7855370357","cityStateSlug":"manhattan.ks","slug":"Manhattan.KS/robbins+chrysler+dodge+jeep+ram+fiat","location":"39.190064,-96.614616","brandsList":["chrysler","dodge","jeep","ram","fiat"]},{"id":15941,"crm_id":999,"name":"Beloit Auto & Truck Plaza","dealerSlug":"beloit+auto+and+truck+plaza","city_state_slug":"Beloit.KS","brand":"Chrysler,Dodge,Jeep,RAM","website":"www.beloitautotruckplaza.net","address":"3133 US Highway 24","city":"Beloit","state":"KS","zip":67420,"latitude":39.459728,"longitude":-98.09033,"phone_number_service":"7857383573","phone_number_main":"","service_hours":"Mo-Fr 09:00 - 18:00 | Sa 09:00 - 24:00 | Su Closed","utc_offset":"","gplace_id":0,"gplace_url":"","dealerID":61120,"trusted":false,"image_id":"v1597283975/chrysler_RM.png","phone":"7857383573","cityStateSlug":"beloit.ks","slug":"Beloit.KS/beloit+auto+and+truck+plaza","location":"39.459728,-98.09033","brandsList":["chrysler","dodge","jeep","ram"]},{"id":17788,"crm_id":999,"name":"Victory Chrysler Dodge Jeep RAM of Ottawa","dealerSlug":"victory+chrysler+dodge+jeep+ram+of+ottawa","city_state_slug":"Ottawa.KS","brand":"Chrysler,Dodge,Jeep,RAM","website":"www.victoryottawa.com","address":"327 W 23rd St","city":"Ottawa","state":"KS","zip":66067,"latitude":38.579724,"longitude":-95.272696,"phone_number_service":"7852425600","phone_number_main":"","service_hours":"Mo-Fr 08:30 - 18:00 | Sa 08:30 - 17:00 | Su Closed","utc_offset":"","gplace_id":0,"gplace_url":"","dealerID":61145,"trusted":false,"image_id":"v1597283975/chrysler_RM.png","phone":"7852425600","cityStateSlug":"ottawa.ks","slug":"Ottawa.KS/victory+chrysler+dodge+jeep+ram+of+ottawa","location":"38.579724,-95.272696","brandsList":["chrysler","dodge","jeep","ram"]},{"id":16976,"crm_id":999,"name":"Marshall Motor Co","dealerSlug":"marshall+motor+co","city_state_slug":"Salina.KS","brand":"Chrysler,Dodge,Jeep,RAM","website":"www.marshallmotor.net","address":"3500 South 9th","city":"Salina","state":"KS","zip":67401,"latitude":38.771512,"longitude":-97.614253,"phone_number_service":"7858279641","phone_number_main":"","service_hours":"Mo-Th 08:00 - 20:00 | Fr-Sa 08:00 - 18:00 | Su Closed","utc_offset":"","gplace_id":0,"gplace_url":"","dealerID":61176,"trusted":false,"image_id":"v1597283975/chrysler_RM.png","phone":"7858279641","cityStateSlug":"salina.ks","slug":"Salina.KS/marshall+motor+co","location":"38.771512,-97.614253","brandsList":["chrysler","dodge","jeep","ram"]},{"id":16372,"crm_id":999,"name":"Ellis Boys Chrysler Dodge Jeep RAM","dealerSlug":"ellis+boys+chrysler+dodge+jeep+ram","city_state_slug":"Holton.KS","brand":"Chrysler,Dodge,Jeep,RAM","website":"www.ellisboys.com","address":"430 S Arizona Ave","city":"Holton","state":"KS","zip":66436,"latitude":39.456483,"longitude":-95.746555,"phone_number_service":"7853625337","phone_number_main":"","service_hours":"Mo-Fr 08:30 - 18:00 | Sa 09:00 - 15:00 | Su Closed","utc_offset":"","gplace_id":0,"gplace_url":"","dealerID":61288,"trusted":false,"image_id":"v1597283975/chrysler_RM.png","phone":"7853625337","cityStateSlug":"holton.ks","slug":"Holton.KS/ellis+boys+chrysler+dodge+jeep+ram","location":"39.456483,-95.746555","brandsList":["chrysler","dodge","jeep","ram"]},{"id":17847,"crm_id":999,"name":"Western Honda","dealerSlug":"western+honda","city_state_slug":"Garden-City.KS","brand":"Honda","website":"www.shopwesternhonda.com/","address":"501 E Fulton St","city":"Garden City","state":"KS","zip":67846,"latitude":37.964664,"longitude":-100.86891,"phone_number_service":"6202717846","phone_number_main":"","service_hours":"Mo-Fr 08:00 - 18:00 | Sa 09:00 - 17:00 | Su Closed","utc_offset":"","gplace_id":0,"gplace_url":"","dealerID":61352,"trusted":false,"image_id":"v1597284047/honda_ms.png","phone":"6202717846","cityStateSlug":"garden-city.ks","slug":"Garden-City.KS/western+honda","location":"37.964664,-100.86891","brandsList":["honda"]},{"id":17167,"crm_id":999,"name":"Nemaha Valley Motors","dealerSlug":"nemaha+valley+motors","city_state_slug":"Seneca.KS","brand":"Chrysler,Dodge,Jeep,RAM,GMC","website":"","address":"703 North Street","city":"Seneca","state":"KS","zip":66538,"latitude":39.841761,"longitude":-96.065958,"phone_number_service":"7853363481","phone_number_main":"","service_hours":"Mo-Fr 09:00 - 17:30 | Sa 09:00 - 24:00 | Su Closed","utc_offset":"","gplace_id":0,"gplace_url":"","dealerID":61521,"trusted":false,"image_id":"v1597283975/chrysler_RM.png","phone":"7853363481","cityStateSlug":"seneca.ks","slug":"Seneca.KS/nemaha+valley+motors","location":"39.841761,-96.065958","brandsList":["chrysler","dodge","jeep","ram","gmc"]},{"id":16460,"crm_id":999,"name":"Friesen Chrysler Dodge Jeep RAM","dealerSlug":"friesen+chrysler+dodge+jeep+ram","city_state_slug":"Clay-Center.KS","brand":"Chrysler,Dodge,Jeep,RAM","website":"www.friesencdjr.com","address":"802 W Crawford St","city":"Clay Center","state":"KS","zip":67432,"latitude":39.380449,"longitude":-97.14868,"phone_number_service":"7856322101","phone_number_main":"","service_hours":"Mo-Fr 08:00 - 18:00 | Sa 08:00 - 24:00 | Su Closed","utc_offset":"","gplace_id":0,"gplace_url":"","dealerID":61588,"trusted":false,"image_id":"v1597283975/chrysler_RM.png","phone":"7856322101","cityStateSlug":"clay-center.ks","slug":"Clay-Center.KS/friesen+chrysler+dodge+jeep+ram","location":"39.380449,-97.14868","brandsList":["chrysler","dodge","jeep","ram"]},{"id":16495,"crm_id":999,"name":"Glavan Ford of Clay Center","dealerSlug":"glavan+ford+of+clay+center","city_state_slug":"Clay-Center.KS","brand":"Ford","website":"www.glavanfordofcc.com","address":"811 5th Street","city":"Clay Center","state":"KS","zip":67432,"latitude":39.377739,"longitude":-97.126581,"phone_number_service":"7856322112","phone_number_main":"","service_hours":"Mo-Sa 08:00 - 19:00 | Su Closed","utc_offset":"","gplace_id":0,"gplace_url":"","dealerID":61601,"trusted":false,"image_id":"v1597283967/ford_RM.png","phone":"7856322112","cityStateSlug":"clay-center.ks","slug":"Clay-Center.KS/glavan+ford+of+clay+center","location":"39.377739,-97.126581","brandsList":["ford"]},{"id":9971,"crm_id":51925297,"name":"Midway Motors Hutchinson","dealerSlug":"midway+motors+hutchinson","city_state_slug":"Hutchinson.KS","brand":"Chevrolet","website":"www.midwaymotorshutchinson.com","address":"1200 E 30th Ave","city":"Hutchinson","state":"KS","zip":67502,"latitude":38.0874642,"longitude":-97.9072218,"phone_number_service":"8774384908","phone_number_main":"6206624421","service_hours":"Mo-Fr 08:00 - 17:30 | Sa 08:00 - 12:00","utc_offset":"-300","gplace_id":null,"gplace_url":"https://maps.google.com/?cid=12108737450352897712","dealerID":50026,"trusted":true,"image_id":"v1597284079/chevy_ms.png","phone":"8774384908","cityStateSlug":"hutchinson.ks","slug":"Hutchinson.KS/midway+motors+hutchinson","location":"38.0874642,-97.9072218","brandsList":["chevrolet"]},{"id":1972,"crm_id":51926173,"name":"Bolton Chrysler Dodge RAM Jeep","dealerSlug":"bolton+chrysler+dodge+ram+jeep","city_state_slug":"Council-Grove.KS","brand":"Chrysler,Dodge,Jeep,RAM","website":"www.boltonchryslerdodgejeep.com","address":"11 W Main St","city":"Council Grove","state":"KS","zip":66846,"latitude":38.6614196,"longitude":-96.4867324,"phone_number_service":"6202631533","phone_number_main":"6207676718","service_hours":"Mo-Fr 07:45 - 18:00 | Sa 07:45 - 15:00","utc_offset":"-300","gplace_id":null,"gplace_url":"https://maps.google.com/?cid=9753719898695680695","dealerID":62104,"trusted":false,"image_id":"v1597283975/chrysler_RM.png","phone":"6202631533","cityStateSlug":"council-grove.ks","slug":"Council-Grove.KS/bolton+chrysler+dodge+ram+jeep","location":"38.6614196,-96.4867324","brandsList":["chrysler","dodge","jeep","ram"]},{"id":10979,"crm_id":51926794,"name":"Olathe Toyota","dealerSlug":"olathe+toyota","city_state_slug":"Olathe.KS","brand":"Toyota","website":"www.olathetoyota.com","address":"685 N Rawhide","city":"Olathe","state":"KS","zip":66061,"latitude":38.8906391,"longitude":-94.7902345,"phone_number_service":"9134400184","phone_number_main":"9137809919","service_hours":"Mo-Fr 07:00 - 19:00 | Sa 08:00 - 16:00","utc_offset":"-300","gplace_id":null,"gplace_url":"https://maps.google.com/?cid=13525941898451692862","dealerID":50118,"trusted":true,"image_id":"v1597284039/toyota_ms.png","phone":"9134400184","cityStateSlug":"olathe.ks","slug":"Olathe.KS/olathe+toyota","location":"38.8906391,-94.7902345","brandsList":["toyota"]},{"id":12936,"crm_id":51926881,"name":"Scholfield Honda","dealerSlug":"scholfield+honda","city_state_slug":"Wichita.KS","brand":"Honda","website":"www.scholfieldhonda.com","address":"7017 E Kellogg Dr","city":"Wichita","state":"KS","zip":67207,"latitude":37.67857,"longitude":-97.2543568,"phone_number_service":"3166886450","phone_number_main":"3166886400","service_hours":"Mo-Fr 07:00 - 18:00 | Sa 08:00 - 17:00","utc_offset":"-300","gplace_id":null,"gplace_url":"https://maps.google.com/?cid=8800826738731359077","dealerID":62172,"trusted":false,"image_id":"v1597284047/honda_ms.png","phone":"3166886450","cityStateSlug":"wichita.ks","slug":"Wichita.KS/scholfield+honda","location":"37.67857,-97.2543568","brandsList":["honda"]},{"id":4374,"crm_id":51927016,"name":"Ed Bozarth Chevrolet #1 Buick GMC","dealerSlug":"ed+bozarth+chevrolet+number+1+buick+gmc","city_state_slug":"Topeka.KS","brand":"Buick,Chevrolet,GMC","website":"www.edbozarthoftopeka.com","address":"3731 S Topeka Blvd.","city":"Topeka","state":"KS","zip":66609,"latitude":38.998893,"longitude":-95.6913554,"phone_number_service":"8776269358","phone_number_main":"7852665151","service_hours":"Mo-Fr 07:00 - 18:00 | Sa 07:00 - 16:00","utc_offset":"-300","gplace_id":null,"gplace_url":"https://maps.google.com/?cid=2886136006548899020","dealerID":62179,"trusted":false,"image_id":"v1597283981/buick_RM.png","phone":"8776269358","cityStateSlug":"topeka.ks","slug":"Topeka.KS/ed+bozarth+chevrolet+number+1+buick+gmc","location":"38.998893,-95.6913554","brandsList":["buick","chevrolet","gmc"]},{"id":6171,"crm_id":66604141,"name":"Hatchett Buick GMC","dealerSlug":"hatchett+buick+gmc","city_state_slug":"Wichita.KS","brand":"Buick,GMC","website":"www.hatchettbuickgmc.com","address":"1333 N Greenwich Rd","city":"Wichita","state":"KS","zip":67206,"latitude":37.7076715,"longitude":-97.2088468,"phone_number_service":"3167120627","phone_number_main":"3168586700","service_hours":"Mo-Fr 07:00 - 18:00 | Sa 08:00 - 13:00","utc_offset":"-300","gplace_id":null,"gplace_url":"https://maps.google.com/?cid=11997301850232390308","dealerID":62702,"trusted":false,"image_id":"v1597283981/buick_RM.png","phone":"3167120627","cityStateSlug":"wichita.ks","slug":"Wichita.KS/hatchett+buick+gmc","location":"37.7076715,-97.2088468","brandsList":["buick","gmc"]},{"id":6173,"crm_id":66706558,"name":"Hatchett Hyundai West","dealerSlug":"hatchett+hyundai+west","city_state_slug":"Wichita.KS","brand":"Hyundai","website":"www.hatchetthyundaiwest.com","address":"757 N Tyler Rd","city":"Wichita","state":"KS","zip":67212,"latitude":37.6959031,"longitude":-97.4457928,"phone_number_service":"3162023666","phone_number_main":"3164408400","service_hours":"Mo-Fr 07:00 - 18:00 | Sa 08:00 - 13:00","utc_offset":"-300","gplace_id":null,"gplace_url":"https://maps.google.com/?cid=13039480501838604008","dealerID":62708,"trusted":false,"image_id":"v1597283959/hyundai_RM.png","phone":"3162023666","cityStateSlug":"wichita.ks","slug":"Wichita.KS/hatchett+hyundai+west","location":"37.6959031,-97.4457928","brandsList":["hyundai"]},{"id":8178,"crm_id":67031932,"name":"Laird Noller Hyundai Topeka","dealerSlug":"laird+noller+hyundai+topeka","city_state_slug":"Topeka.KS","brand":"Hyundai","website":"www.hyundaioftopeka.com/","address":"2946 S Kansas Ave","city":"Topeka","state":"KS","zip":66611,"latitude":39.0134972,"longitude":-95.6812558,"phone_number_service":"8773639169","phone_number_main":"7852672800","service_hours":"Mo-Fr 07:00 - 18:00 | Sa 07:00 - 15:00","utc_offset":"-300","gplace_id":null,"gplace_url":"https://maps.google.com/?cid=16883269212079540193","dealerID":62737,"trusted":false,"image_id":"v1597283959/hyundai_RM.png","phone":"8773639169","cityStateSlug":"topeka.ks","slug":"Topeka.KS/laird+noller+hyundai+topeka","location":"39.0134972,-95.6812558","brandsList":["hyundai"]},{"id":13101,"crm_id":67032913,"name":"Sharp Honda","dealerSlug":"sharp+honda","city_state_slug":"Topeka.KS","brand":"Honda","website":"www.sharphonda.com","address":"3149 S Kansas Ave","city":"Topeka","state":"KS","zip":66611,"latitude":39.0086988,"longitude":-95.6820454,"phone_number_service":"8779380021","phone_number_main":"7852332892","service_hours":"Mo-Fr 07:00 - 17:30 | Sa 08:00 - 14:00","utc_offset":"-300","gplace_id":null,"gplace_url":"https://maps.google.com/?cid=11960312949562735199","dealerID":63014,"trusted":false,"image_id":"v1597284047/honda_ms.png","phone":"8779380021","cityStateSlug":"topeka.ks","slug":"Topeka.KS/sharp+honda","location":"39.0086988,-95.6820454","brandsList":["honda"]},{"id":9973,"crm_id":67033678,"name":"Midwest Ford","dealerSlug":"midwest+ford","city_state_slug":"Hutchinson.KS","brand":"Ford","website":"www.midwestsuperstore-hutchinson.com","address":"1100 E 30th Ave","city":"Hutchinson","state":"KS","zip":67502,"latitude":38.0877107,"longitude":-97.9086483,"phone_number_service":"6206626631","phone_number_main":"8005305789","service_hours":"Mo-Fr 07:00 - 18:00 | Sa 07:00 - 15:00","utc_offset":"-300","gplace_id":null,"gplace_url":"https://maps.google.com/?cid=6652487173229825115","dealerID":63223,"trusted":false,"image_id":"v1597283967/ford_RM.png","phone":"6206626631","cityStateSlug":"hutchinson.ks","slug":"Hutchinson.KS/midwest+ford","location":"38.0877107,-97.9086483","brandsList":["ford"]},{"id":1811,"crm_id":67033975,"name":"Bob Allen Ford","dealerSlug":"bob+allen+ford","city_state_slug":"Overland-Park.KS","brand":"Ford","website":"www.boballenford.com","address":"9239 Metcalf Ave","city":"Overland Park","state":"KS","zip":66212,"latitude":38.9610451,"longitude":-94.66656,"phone_number_service":"8443390169","phone_number_main":"9133813000","service_hours":"Mo-Fr 07:00 - 18:00 | Sa 07:00 - 16:00","utc_offset":"-300","gplace_id":null,"gplace_url":"https://maps.google.com/?cid=4055372240733314780","dealerID":63307,"trusted":false,"image_id":"v1597283967/ford_RM.png","phone":"8443390169","cityStateSlug":"overland-park.ks","slug":"Overland-Park.KS/bob+allen+ford","location":"38.9610451,-94.66656","brandsList":["ford"]},{"id":8664,"crm_id":67034134,"name":"Lewis Toyota of Dodge City","dealerSlug":"lewis+toyota+of+dodge+city","city_state_slug":"Dodge-City.KS","brand":"Toyota","website":"www.lewistoyotaofdodgecity.com","address":"907 S 2nd Ave","city":"Dodge City","state":"KS","zip":67801,"latitude":37.7352458,"longitude":-100.0202544,"phone_number_service":"6202252210","phone_number_main":"6202252210","service_hours":"Mo-Fr 07:30 - 17:30 | Sa 08:00 - 12:00","utc_offset":"-300","gplace_id":null,"gplace_url":"https://maps.google.com/?cid=8627780051697694981","dealerID":63351,"trusted":false,"image_id":"v1597284039/toyota_ms.png","phone":"6202252210","cityStateSlug":"dodge-city.ks","slug":"Dodge-City.KS/lewis+toyota+of+dodge+city","location":"37.7352458,-100.0202544","brandsList":["toyota"]},{"id":4438,"crm_id":67034290,"name":"Eddy's Chevrolet Cadillac","dealerSlug":"eddys+chevrolet+cadillac","city_state_slug":"Wichita.KS","brand":"Cadillac,Chevrolet","website":"www.eddyschevroletcadillac.com","address":"8801 E Kellogg Dr","city":"Wichita","state":"KS","zip":67207,"latitude":37.6785439,"longitude":-97.2341828,"phone_number_service":"3166894310","phone_number_main":"3166894310","service_hours":"Mo-Fr 07:00 - 18:00 | Sa 07:00 - 13:00","utc_offset":"-300","gplace_id":null,"gplace_url":"https://maps.google.com/?cid=5955105727038953019","dealerID":63391,"trusted":false,"image_id":"v1597283980/cadillac.png","phone":"3166894310","cityStateSlug":"wichita.ks","slug":"Wichita.KS/eddys+chevrolet+cadillac","location":"37.6785439,-97.2341828","brandsList":["cadillac","chevrolet"]},{"id":6525,"crm_id":67035643,"name":"Holm Automotive Center","dealerSlug":"holm+automotive+center","city_state_slug":"Abilene.KS","brand":"Buick,Chevrolet","website":"www.holmauto.com","address":"2005 N Buckeye Ave","city":"Abilene","state":"KS","zip":67410,"latitude":38.9364584,"longitude":-97.2130291,"phone_number_service":"7852699826","phone_number_main":"7852634000","service_hours":"Mo-We 08:00 - 17:30 | Th 08:00 - 19:00 | Fr 08:00 - 17:30 | Sa 08:00 - 14:00","utc_offset":"-300","gplace_id":null,"gplace_url":"https://maps.google.com/?cid=11753107874340952589","dealerID":63765,"trusted":false,"image_id":"v1597283981/buick_RM.png","phone":"7852699826","cityStateSlug":"abilene.ks","slug":"Abilene.KS/holm+automotive+center","location":"38.9364584,-97.2130291","brandsList":["buick","chevrolet"]},{"id":12186,"crm_id":67036414,"name":"Reed Hyundai of Kansas City","dealerSlug":"reed+hyundai+of+kansas+city","city_state_slug":"Merriam.KS","brand":"Hyundai","website":"www.reedhyundaikc.com","address":"7050 W Frontage Rd","city":"Merriam","state":"KS","zip":66203,"latitude":39.0006161,"longitude":-94.696113,"phone_number_service":"9136249026","phone_number_main":"9136429600","service_hours":"Mo-Fr 07:00 -18:00 | Sa 08:00 -15:00","utc_offset":"-300","gplace_id":null,"gplace_url":"https://maps.google.com/?cid=14746473132040358080","dealerID":63972,"trusted":false,"image_id":"v1597283959/hyundai_RM.png","phone":"9136249026","cityStateSlug":"merriam.ks","slug":"Merriam.KS/reed+hyundai+of+kansas+city","location":"39.0006161,-94.696113","brandsList":["hyundai"]},{"id":3662,"crm_id":67036537,"name":"Dale Willey Automotive","dealerSlug":"dale+willey+automotive","city_state_slug":"Lawrence.KS","brand":"Buick,Chevrolet,GMC","website":"www.dalewilleyauto.com","address":"2840 Iowa St","city":"Lawrence","state":"KS","zip":66046,"latitude":38.9313373,"longitude":-95.2593291,"phone_number_service":"7857271125","phone_number_main":"7858435200","service_hours":"Mo-Fr 07:00 - 18:00 | Sa 08:00 - 14:00","utc_offset":"-300","gplace_id":null,"gplace_url":"https://maps.google.com/?cid=5783640755858840840","dealerID":64007,"trusted":false,"image_id":"v1597283981/buick_RM.png","phone":"7857271125","cityStateSlug":"lawrence.ks","slug":"Lawrence.KS/dale+willey+automotive","location":"38.9313373,-95.2593291","brandsList":["buick","chevrolet","gmc"]},{"id":12017,"crm_id":67036555,"name":"Raber Ford","dealerSlug":"raber+ford","city_state_slug":"Wellington.KS","brand":"Ford","website":"www.raberford.com","address":"902 E 16th St","city":"Wellington","state":"KS","zip":67152,"latitude":37.2748825,"longitude":-97.3870398,"phone_number_service":"6203265915","phone_number_main":"6203265915","service_hours":"Mo-Fr 08:00 - 17:00","utc_offset":"-300","gplace_id":null,"gplace_url":"https://maps.google.com/?cid=17817996292278268933","dealerID":64012,"trusted":false,"image_id":"v1597283967/ford_RM.png","phone":"6203265915","cityStateSlug":"wellington.ks","slug":"Wellington.KS/raber+ford","location":"37.2748825,-97.3870398","brandsList":["ford"]},{"id":9966,"crm_id":67036906,"name":"Midway Motors Buick Chevrolet in Hillsboro","dealerSlug":"midway+motors+buick+chevrolet+in+hillsboro","city_state_slug":"Hillsboro.KS","brand":"Buick,Chevrolet","website":"www.midwaymotorshillsboro.com","address":"614 N Ash St","city":"Hillsboro","state":"KS","zip":67063,"latitude":38.3613,"longitude":-97.205517,"phone_number_service":"6209473117","phone_number_main":"6202664433","service_hours":"Mo-Fr 07:30 - 17:30 | Sa 07:30 - 12:00","utc_offset":"-300","gplace_id":null,"gplace_url":"https://maps.google.com/?cid=969585181866492072","dealerID":64112,"trusted":false,"image_id":"v1597283981/buick_RM.png","phone":"6209473117","cityStateSlug":"hillsboro.ks","slug":"Hillsboro.KS/midway+motors+buick+chevrolet+in+hillsboro","location":"38.3613,-97.205517","brandsList":["buick","chevrolet"]},{"id":9291,"crm_id":67037407,"name":"Marmie Ford","dealerSlug":"marmie+ford","city_state_slug":"Great-Bend.KS","brand":"Ford","website":"www.marmies.com","address":"1815 10th St","city":"Great Bend","state":"KS","zip":67530,"latitude":38.360958,"longitude":-98.7632598,"phone_number_service":"8884343510","phone_number_main":"8002844941","service_hours":"Mo-Fr 08:00 - 17:00 | Sa 08:00 - 12:00","utc_offset":"-300","gplace_id":null,"gplace_url":"https://maps.google.com/?cid=4183628755118246926","dealerID":64252,"trusted":false,"image_id":"v1597283967/ford_RM.png","phone":"8884343510","cityStateSlug":"great-bend.ks","slug":"Great-Bend.KS/marmie+ford","location":"38.360958,-98.7632598","brandsList":["ford"]},{"id":8954,"crm_id":67037989,"name":"Long McArthur Ford","dealerSlug":"long+mcarthur+ford","city_state_slug":"Salina.KS","brand":"Ford","website":"www.long-mcarthur.com","address":"3450 S 9th St","city":"Salina","state":"KS","zip":67401,"latitude":38.7727634,"longitude":-97.6144315,"phone_number_service":"7858232237","phone_number_main":"7858232237","service_hours":"Mo-Fr 07:00 - 17:00 | Sa 07:00 - 16:00","utc_offset":"-300","gplace_id":null,"gplace_url":"https://maps.google.com/?cid=13104432445426457748","dealerID":64418,"trusted":false,"image_id":"v1597283967/ford_RM.png","phone":"7858232237","cityStateSlug":"salina.ks","slug":"Salina.KS/long+mcarthur+ford","location":"38.7727634,-97.6144315","brandsList":["ford"]},{"id":9462,"crm_id":67037992,"name":"McCarthy Chevrolet","dealerSlug":"mccarthy+chevrolet","city_state_slug":"Olathe.KS","brand":"Chevrolet","website":"www.mccarthychevykc.com","address":"675 N Rawhide","city":"Olathe","state":"KS","zip":66061,"latitude":38.8888789,"longitude":-94.7914682,"phone_number_service":"9133247266","phone_number_main":"9133247200","service_hours":"Mo-Fr 07:00 - 18:00 | Sa 07:00 - 15:00","utc_offset":"-300","gplace_id":null,"gplace_url":"https://maps.google.com/?cid=13626171479466887307","dealerID":64419,"trusted":false,"image_id":"v1597284079/chevy_ms.png","phone":"9133247266","cityStateSlug":"olathe.ks","slug":"Olathe.KS/mccarthy+chevrolet","location":"38.8888789,-94.7914682","brandsList":["chevrolet"]},{"id":9889,"crm_id":67038046,"name":"Merle Kelly Ford","dealerSlug":"merle+kelly+ford","city_state_slug":"Chanute.KS","brand":"Ford","website":"www.merlekellyford.com","address":"3501 S Santa Fe Ave","city":"Chanute","state":"KS","zip":66720,"latitude":37.6451438,"longitude":-95.453491,"phone_number_service":"8884148990","phone_number_main":"6204310100","service_hours":"Mo-Fr 07:30 - 17:30","utc_offset":"-300","gplace_id":null,"gplace_url":"https://maps.google.com/?cid=1567560196280371934","dealerID":64434,"trusted":false,"image_id":"v1597283967/ford_RM.png","phone":"8884148990","cityStateSlug":"chanute.ks","slug":"Chanute.KS/merle+kelly+ford","location":"37.6451438,-95.453491","brandsList":["ford"]},{"id":14317,"crm_id":67038139,"name":"Tom Davis Chevrolet Buick GMC Cadillac","dealerSlug":"tom+davis+chevrolet+buick+gmc+cadillac","city_state_slug":"Parsons.KS","brand":"Buick,Cadillac,Chevrolet,GMC","website":"www.greencountryautogroup.com","address":"2831 N 16th St","city":"Parsons","state":"KS","zip":67357,"latitude":37.3683082,"longitude":-95.2575888,"phone_number_service":"6208600751","phone_number_main":"6204211200","service_hours":"Mo-Fr 07:30 - 17:30 | Sa 08:30 - 14:00","utc_offset":"-300","gplace_id":null,"gplace_url":"https://maps.google.com/?cid=8222472512129463314","dealerID":64455,"trusted":false,"image_id":"v1597283981/buick_RM.png","phone":"6208600751","cityStateSlug":"parsons.ks","slug":"Parsons.KS/tom+davis+chevrolet+buick+gmc+cadillac","location":"37.3683082,-95.2575888","brandsList":["buick","cadillac","chevrolet","gmc"]},{"id":2090,"crm_id":67038208,"name":"Branine Chevrolet Buick","dealerSlug":"branine+chevrolet+buick","city_state_slug":"Osage-City.KS","brand":"Buick,Chevrolet","website":"braninechevybuick.com","address":"425 Market St","city":"Osage City","state":"KS","zip":66523,"latitude":38.6344528,"longitude":-95.8282928,"phone_number_service":"7855283101","phone_number_main":"7855283101","service_hours":"Mo-Fr 08:00 - 18:00 | Sa 08:00 - 13:00","utc_offset":"-300","gplace_id":null,"gplace_url":"https://maps.google.com/?cid=14984151586659962347","dealerID":64474,"trusted":false,"image_id":"v1597283981/buick_RM.png","phone":"7855283101","cityStateSlug":"osage-city.ks","slug":"Osage-City.KS/branine+chevrolet+buick","location":"38.6344528,-95.8282928","brandsList":["buick","chevrolet"]},{"id":8656,"crm_id":67038565,"name":"Lewis Chevrolet Buick of Liberal","dealerSlug":"lewis+chevrolet+buick+of+liberal","city_state_slug":"Liberal.KS","brand":"Buick,Chevrolet","website":"www.lewisbuickchevrolet.com","address":"202 N Grant Avenue","city":"Liberal","state":"KS","zip":67901,"latitude":37.0400804,"longitude":-100.9273559,"phone_number_service":"6202344044","phone_number_main":"6202757171","service_hours":"Mo-Fr 07:30 - 17:30 | Sa 08:00 - 12:00","utc_offset":"-300","gplace_id":null,"gplace_url":"https://maps.google.com/?cid=15838142956328866876","dealerID":64574,"trusted":false,"image_id":"v1597283981/buick_RM.png","phone":"6202344044","cityStateSlug":"liberal.ks","slug":"Liberal.KS/lewis+chevrolet+buick+of+liberal","location":"37.0400804,-100.9273559","brandsList":["buick","chevrolet"]},{"id":1768,"crm_id":67038607,"name":"BMW of Topeka","dealerSlug":"bmw+of+topeka","city_state_slug":"Topeka.KS","brand":"BMW","website":"www.bmwtopeka.com","address":"3030 S Kansas Ave","city":"Topeka","state":"KS","zip":66611,"latitude":39.012826,"longitude":-95.6812891,"phone_number_service":"7852668480","phone_number_main":"7852668480","service_hours":"Mo-Fr 07:30 - 18:00 | Sa 09:00 - 13:00","utc_offset":"-300","gplace_id":null,"gplace_url":"https://maps.google.com/?cid=14119069636751314802","dealerID":64585,"trusted":false,"image_id":"v1597283982/bmw_RM.png","phone":"7852668480","cityStateSlug":"topeka.ks","slug":"Topeka.KS/bmw+of+topeka","location":"39.012826,-95.6812891","brandsList":["bmw"]},{"id":3533,"crm_id":67039168,"name":"Crow-Moddie Ford","dealerSlug":"crow+moddie+ford","city_state_slug":"Burlington.KS","brand":"Ford","website":"www.crowmoddieford.com","address":"1212 S 4th St","city":"Burlington","state":"KS","zip":66839,"latitude":38.1842676,"longitude":-95.7397257,"phone_number_service":"8443390036","phone_number_main":"6203642197","service_hours":"Mo-Fr 07:00 - 18:00 | Sa 08:00 - 13:00","utc_offset":"-300","gplace_id":null,"gplace_url":"https://maps.google.com/?cid=3200204626317159753","dealerID":64740,"trusted":false,"image_id":"v1597283967/ford_RM.png","phone":"8443390036","cityStateSlug":"burlington.ks","slug":"Burlington.KS/crow+moddie+ford","location":"38.1842676,-95.7397257","brandsList":["ford"]},{"id":8658,"crm_id":67039378,"name":"Lewis Chevrolet of Dodge City","dealerSlug":"lewis+chevrolet+of+dodge+city","city_state_slug":"Dodge-City.KS","brand":"Chevrolet","website":"www.lewischevroletofdodgecity.com","address":"900 S 2nd Ave","city":"Dodge City","state":"KS","zip":67801,"latitude":37.7359705,"longitude":-100.0187309,"phone_number_service":"6206824591","phone_number_main":"6206824599","service_hours":"Mo-Fr 07:30 - 17:30 | Sa 08:00 - 12:00","utc_offset":"-300","gplace_id":null,"gplace_url":"https://maps.google.com/?cid=6002262109244527804","dealerID":64792,"trusted":false,"image_id":"v1597284079/chevy_ms.png","phone":"6206824591","cityStateSlug":"dodge-city.ks","slug":"Dodge-City.KS/lewis+chevrolet+of+dodge+city","location":"37.7359705,-100.0187309","brandsList":["chevrolet"]},{"id":8179,"crm_id":67039657,"name":"Laird Noller Lawrence Ford","dealerSlug":"laird+noller+lawrence+ford","city_state_slug":"Lawrence.KS","brand":"Ford","website":"www.lairdnollerautomotive.com","address":"935 W 23rd St","city":"Lawrence","state":"KS","zip":66046,"latitude":38.942379,"longitude":-95.2459444,"phone_number_service":"8778648441","phone_number_main":"8884408295","service_hours":"Mo-Fr 07:00 - 18:00 | Sa 08:00 - 15:00","utc_offset":"-300","gplace_id":null,"gplace_url":"https://maps.google.com/?cid=2057143145698484399","dealerID":64875,"trusted":false,"image_id":"v1597283967/ford_RM.png","phone":"8778648441","cityStateSlug":"lawrence.ks","slug":"Lawrence.KS/laird+noller+lawrence+ford","location":"38.942379,-95.2459444","brandsList":["ford"]},{"id":3267,"crm_id":67039858,"name":"Conklin Chevrolet Salina","dealerSlug":"conklin+chevrolet+salina","city_state_slug":"Salina.KS","brand":"Cadillac,Chevrolet","website":"www.conklinchevroletsalina.com","address":"2700 S 9th St","city":"Salina","state":"KS","zip":67401,"latitude":38.7901768,"longitude":-97.6144045,"phone_number_service":"7859144356","phone_number_main":"7852013517","service_hours":"Mo-Fr 07:00 - 18:00 | Sa 08:00 - 13:00","utc_offset":"-300","gplace_id":null,"gplace_url":"https://maps.google.com/?cid=15860521205182560063","dealerID":64927,"trusted":false,"image_id":"v1597283980/cadillac.png","phone":"7859144356","cityStateSlug":"salina.ks","slug":"Salina.KS/conklin+chevrolet+salina","location":"38.7901768,-97.6144045","brandsList":["cadillac","chevrolet"]},{"id":13109,"crm_id":67040236,"name":"Shawnee Mission Ford","dealerSlug":"shawnee+mission+ford","city_state_slug":"Shawnee.KS","brand":"Ford","website":"www.shawneemissionfordks.com","address":"11501 W. Shawnee Mission Pkwy","city":"Shawnee","state":"KS","zip":66203,"latitude":39.0137658,"longitude":-94.719831,"phone_number_service":"8884093815","phone_number_main":"9136310000","service_hours":"Mo-Fr 07:00 - 18:00 | Sa 07:00 - 16:00","utc_offset":"-300","gplace_id":null,"gplace_url":"https://maps.google.com/?cid=10368333784472814157","dealerID":65023,"trusted":false,"image_id":"v1597283967/ford_RM.png","phone":"8884093815","cityStateSlug":"shawnee.ks","slug":"Shawnee.KS/shawnee+mission+ford","location":"39.0137658,-94.719831","brandsList":["ford"]},{"id":1049,"crm_id":67040599,"name":"Baron MINI","dealerSlug":"baron+mini","city_state_slug":"Merriam.KS","brand":"MINI","website":"www.baronmini.com","address":"9000 Shawnee Mission Pkwy","city":"Merriam","state":"KS","zip":66202,"latitude":39.0157012,"longitude":-94.6902282,"phone_number_service":"8559971552","phone_number_main":"9137225100","service_hours":"Mo-Fr 07:00 - 18:00 | Sa 08:00 - 17:00","utc_offset":"-300","gplace_id":null,"gplace_url":"https://maps.google.com/?cid=14453565867931459907","dealerID":65128,"trusted":false,"image_id":"v1597283930/mini_RM.png","phone":"8559971552","cityStateSlug":"merriam.ks","slug":"Merriam.KS/baron+mini","location":"39.0157012,-94.6902282","brandsList":["mini"]},{"id":9303,"crm_id":67041691,"name":"Marshall Nissan","dealerSlug":"marshall+nissan","city_state_slug":"Salina.KS","brand":"Nissan","website":"www.marshallnissan.com","address":"3550 S 9th St","city":"Salina","state":"KS","zip":67401,"latitude":38.7708462,"longitude":-97.6142789,"phone_number_service":"8003950455","phone_number_main":"7858279641","service_hours":"Mo-Fr 07:30 - 17:30 | Sa 08:00 - 12:00","utc_offset":"-300","gplace_id":null,"gplace_url":"https://maps.google.com/?cid=15118450699644670408","dealerID":65405,"trusted":false,"image_id":"v1597283926/nissan_RM.png","phone":"8003950455","cityStateSlug":"salina.ks","slug":"Salina.KS/marshall+nissan","location":"38.7708462,-97.6142789","brandsList":["nissan"]},{"id":6378,"crm_id":67041874,"name":"Herl Chevrolet GMC","dealerSlug":"herl+chevrolet+gmc","city_state_slug":"Goodland.KS","brand":"Chevrolet,GMC","website":"www.herlchev.com","address":"2103 Enterprise","city":"Goodland","state":"KS","zip":67735,"latitude":39.3350945,"longitude":-101.7242788,"phone_number_service":"7858900000","phone_number_main":"7858900000","service_hours":"Mo-Fr 08:00 - 17:00 | Sa 08:00 - 12:00","utc_offset":"-360","gplace_id":null,"gplace_url":"https://maps.google.com/?cid=9387490515245850773","dealerID":65451,"trusted":false,"image_id":"v1597284079/chevy_ms.png","phone":"7858900000","cityStateSlug":"goodland.ks","slug":"Goodland.KS/herl+chevrolet+gmc","location":"39.3350945,-101.7242788","brandsList":["chevrolet","gmc"]},{"id":7228,"crm_id":67041913,"name":"Jay Hatfield Chevrolet Buick","dealerSlug":"jay+hatfield+chevrolet+buick","city_state_slug":"Columbus.KS","brand":"Buick,Chevrolet","website":"www.jayhatfieldchevy.net","address":"200 S E Ave","city":"Columbus","state":"KS","zip":66725,"latitude":37.1689603,"longitude":-94.8312991,"phone_number_service":"6209530234","phone_number_main":"6204292636","service_hours":"Mo-Fr 07:30 - 17:30 | Sa 08:00 - 17:00","utc_offset":"-300","gplace_id":null,"gplace_url":"https://maps.google.com/?cid=163617535201740683","dealerID":65462,"trusted":false,"image_id":"v1597283981/buick_RM.png","phone":"6209530234","cityStateSlug":"columbus.ks","slug":"Columbus.KS/jay+hatfield+chevrolet+buick","location":"37.1689603,-94.8312991","brandsList":["buick","chevrolet"]},{"id":8992,"crm_id":67042477,"name":"Louisburg Ford","dealerSlug":"louisburg+ford","city_state_slug":"Louisburg.KS","brand":"Ford","website":"www.louisburgford.com","address":"111 Fairlane Dr","city":"Louisburg","state":"KS","zip":66053,"latitude":38.6199576,"longitude":-94.6984815,"phone_number_service":"9138374311","phone_number_main":"9138374311","service_hours":"Mo-Fr 07:00 - 18:00 | Sa 08:00 - 16:00","utc_offset":"-300","gplace_id":null,"gplace_url":"https://maps.google.com/?cid=5830233054003315633","dealerID":65612,"trusted":false,"image_id":"v1597283967/ford_RM.png","phone":"9138374311","cityStateSlug":"louisburg.ks","slug":"Louisburg.KS/louisburg+ford","location":"38.6199576,-94.6984815","brandsList":["ford"]},{"id":4105,"crm_id":67043242,"name":"Don Hattan Chevrolet","dealerSlug":"don+hattan+chevrolet","city_state_slug":"Wichita.KS","brand":"Chevrolet","website":"www.donhattanchevrolet.com/","address":"6000 Hattan Dr","city":"Wichita","state":"KS","zip":67219,"latitude":37.7934875,"longitude":-97.3270568,"phone_number_service":"3165588884","phone_number_main":"3167441275","service_hours":"Mo-Fr 07:00 - 18:00 | Sa 08:00 - 14:00","utc_offset":"-300","gplace_id":null,"gplace_url":"https://maps.google.com/?cid=9617267946492564914","dealerID":65836,"trusted":false,"image_id":"v1597284079/chevy_ms.png","phone":"3165588884","cityStateSlug":"wichita.ks","slug":"Wichita.KS/don+hattan+chevrolet","location":"37.7934875,-97.3270568","brandsList":["chevrolet"]},{"id":5031,"crm_id":67045393,"name":"Foss Motor Company","dealerSlug":"foss+motor+company","city_state_slug":"Liberal.KS","brand":"Ford","website":"www.fossford.com","address":"502 E Pancake Blvd","city":"Liberal","state":"KS","zip":67901,"latitude":37.0314962,"longitude":-100.9158118,"phone_number_service":"8886995276","phone_number_main":"6206243886","service_hours":"Mo-Fr 08:00 - 18:00 | Sa 09:00 - 14:00","utc_offset":"-300","gplace_id":null,"gplace_url":"https://maps.google.com/?cid=14734866424375532765","dealerID":66414,"trusted":false,"image_id":"v1597283967/ford_RM.png","phone":"8886995276","cityStateSlug":"liberal.ks","slug":"Liberal.KS/foss+motor+company","location":"37.0314962,-100.9158118","brandsList":["ford"]},{"id":3664,"crm_id":67045570,"name":"Dale Willey Honda","dealerSlug":"dale+willey+honda","city_state_slug":"Lawrence.KS","brand":"Honda","website":"www.dalewilleyhonda.com","address":"2112 W 29th Terrace","city":"Lawrence","state":"KS","zip":66047,"latitude":38.93076,"longitude":-95.261997,"phone_number_service":"7858430550","phone_number_main":"7858430550","service_hours":"Mo-Fr 07:00 - 18:00 | Sa 08:00 - 14:00","utc_offset":"-300","gplace_id":null,"gplace_url":"https://maps.google.com/?cid=13989254525943808665","dealerID":66466,"trusted":false,"image_id":"v1597284047/honda_ms.png","phone":"7858430550","cityStateSlug":"lawrence.ks","slug":"Lawrence.KS/dale+willey+honda","location":"38.93076,-95.261997","brandsList":["honda"]},{"id":9468,"crm_id":67045576,"name":"McCarthy Subaru of Lawrence","dealerSlug":"mccarthy+subaru+of+lawrence","city_state_slug":"Lawrence.KS","brand":"Subaru","website":"www.mccarthysubaruoflawrence.com","address":"2233 W 29th Terrace","city":"Lawrence","state":"KS","zip":66047,"latitude":38.9297756,"longitude":-95.2630806,"phone_number_service":"8558945155","phone_number_main":"7858567127","service_hours":"Mo-Fr 07:00 - 18:00 | Sa 07:00 - 15:00","utc_offset":"-300","gplace_id":null,"gplace_url":"https://maps.google.com/?cid=15048115879430762465","dealerID":66468,"trusted":false,"image_id":"v1597283982/subaru_ms.png","phone":"8558945155","cityStateSlug":"lawrence.ks","slug":"Lawrence.KS/mccarthy+subaru+of+lawrence","location":"38.9297756,-95.2630806","brandsList":["subaru"]},{"id":7546,"crm_id":67045597,"name":"John Hoffer Chrysler Jeep","dealerSlug":"john+hoffer+chrysler+jeep","city_state_slug":"Topeka.KS","brand":"Chrysler,Jeep","website":"www.johnhofferchryslerjeep.com","address":"3220 Topeka Boulevard","city":"Topeka","state":"KS","zip":66611,"latitude":39.0097035,"longitude":-95.6868614,"phone_number_service":"7854228488","phone_number_main":"7852663333","service_hours":"Mo-Fr 08:00 - 17:00 | Sa 08:30 - 12:00","utc_offset":"-300","gplace_id":null,"gplace_url":"https://maps.google.com/?cid=502906421272375224","dealerID":66474,"trusted":false,"image_id":"v1597283975/chrysler_RM.png","phone":"7854228488","cityStateSlug":"topeka.ks","slug":"Topeka.KS/john+hoffer+chrysler+jeep","location":"39.0097035,-95.6868614","brandsList":["chrysler","jeep"]},{"id":12535,"crm_id":67045867,"name":"Romans Chevrolet Buick","dealerSlug":"romans+chevrolet+buick","city_state_slug":"Independence.KS","brand":"Buick,Chevrolet","website":"www.romansgm.com","address":"2313 W Main St","city":"Independence","state":"KS","zip":67301,"latitude":37.2239045,"longitude":-95.7362456,"phone_number_service":"6203314700","phone_number_main":"6203314700","service_hours":"Mo-Fr 08:00 - 17:30","utc_offset":"-300","gplace_id":null,"gplace_url":"https://maps.google.com/?cid=3604765192327712566","dealerID":66535,"trusted":false,"image_id":"v1597283981/buick_RM.png","phone":"6203314700","cityStateSlug":"independence.ks","slug":"Independence.KS/romans+chevrolet+buick","location":"37.2239045,-95.7362456","brandsList":["buick","chevrolet"]},{"id":10453,"crm_id":67046047,"name":"Murdock Mitsubishi","dealerSlug":"murdock+mitsubishi","city_state_slug":"Manhattan.KS","brand":"Mitsubishi","website":"www.murdockmitsubishi.com","address":"600 McCall Rd Suite A","city":"Manhattan","state":"KS","zip":66502,"latitude":39.1882595,"longitude":-96.5469556,"phone_number_service":"7852608126","phone_number_main":"7852586101","service_hours":"Mo-Fr 07:30 - 18:00 | Sa 08:00 - 12:00","utc_offset":"-300","gplace_id":null,"gplace_url":"https://maps.google.com/?cid=8978796021922937933","dealerID":66586,"trusted":false,"image_id":"v1597283928/mitsubishi.png","phone":"7852608126","cityStateSlug":"manhattan.ks","slug":"Manhattan.KS/murdock+mitsubishi","location":"39.1882595,-96.5469556","brandsList":["mitsubishi"]},{"id":10452,"crm_id":67046116,"name":"Murdock Manhattan Chevrolet-Cadillac","dealerSlug":"murdock+manhattan+chevrolet+cadillac","city_state_slug":"Manhattan.KS","brand":"Cadillac,Chevrolet","website":"www.murdockchevroletcadillac.com","address":"600 McCall Rd","city":"Manhattan","state":"KS","zip":66502,"latitude":39.1887931,"longitude":-96.5466232,"phone_number_service":"8667022814","phone_number_main":"7857830639","service_hours":"Mo-Fr 07:30 - 18:00 | Sa 08:00 - 12:00","utc_offset":"-300","gplace_id":null,"gplace_url":"https://maps.google.com/?cid=9974188347685805382","dealerID":66602,"trusted":false,"image_id":"v1597283980/cadillac.png","phone":"8667022814","cityStateSlug":"manhattan.ks","slug":"Manhattan.KS/murdock+manhattan+chevrolet+cadillac","location":"39.1887931,-96.5466232","brandsList":["cadillac","chevrolet"]},{"id":12725,"crm_id":67047388,"name":"Rusty Eck Ford","dealerSlug":"rusty+eck+ford","city_state_slug":"Wichita.KS","brand":"Ford","website":"www.rustyeckford.com","address":"7310 East Kellogg Avenue","city":"Wichita","state":"KS","zip":67207,"latitude":37.6805768,"longitude":-97.252103,"phone_number_service":"3165308637","phone_number_main":"3166859211","service_hours":"Mo-Fr 07:00 - 18:00 | Sa 07:00 - 15:00","utc_offset":"-300","gplace_id":null,"gplace_url":"https://maps.google.com/?cid=17524635652213578485","dealerID":66939,"trusted":false,"image_id":"v1597283967/ford_RM.png","phone":"3165308637","cityStateSlug":"wichita.ks","slug":"Wichita.KS/rusty+eck+ford","location":"37.6805768,-97.252103","brandsList":["ford"]},{"id":1175,"crm_id":67047529,"name":"Beckman Motors","dealerSlug":"beckman+motors","city_state_slug":"Garnett.KS","brand":"Buick,Chevrolet","website":"www.beckmanmotorsgarnett.com","address":"701 N Maple St","city":"Garnett","state":"KS","zip":66032,"latitude":38.2899236,"longitude":-95.2500405,"phone_number_service":"8882801422","phone_number_main":"8557205859","service_hours":"Mo-Fr 07:30 - 17:00 | Sa 07:00 - 16:00","utc_offset":"-300","gplace_id":null,"gplace_url":"https://maps.google.com/?cid=10201280593849236249","dealerID":66982,"trusted":false,"image_id":"v1597283981/buick_RM.png","phone":"8882801422","cityStateSlug":"garnett.ks","slug":"Garnett.KS/beckman+motors","location":"38.2899236,-95.2500405","brandsList":["buick","chevrolet"]},{"id":2186,"crm_id":67048072,"name":"Brown Chevrolet Buick","dealerSlug":"brown+chevrolet+buick","city_state_slug":"Wamego.KS","brand":"Buick,Chevrolet","website":"www.brownchevroletbuick.com","address":"907 4th St","city":"Wamego","state":"KS","zip":66547,"latitude":39.2006863,"longitude":-96.309221,"phone_number_service":"8666229841","phone_number_main":"7854561227","service_hours":"Mo-Fr 08:00 - 17:00","utc_offset":"-300","gplace_id":null,"gplace_url":"https://maps.google.com/?cid=10490208556889550271","dealerID":67123,"trusted":false,"image_id":"v1597283981/buick_RM.png","phone":"8666229841","cityStateSlug":"wamego.ks","slug":"Wamego.KS/brown+chevrolet+buick","location":"39.2006863,-96.309221","brandsList":["buick","chevrolet"]},{"id":2031,"crm_id":67048075,"name":"Bowe Chevrolet Buick","dealerSlug":"bowe+chevrolet+buick","city_state_slug":"Medicine-Lodge.KS","brand":"Buick,Chevrolet","website":"www.bowechevy.com","address":"201-205 E. Fowler","city":"Medicine Lodge","state":"KS","zip":67104,"latitude":37.2755212,"longitude":-98.5771239,"phone_number_service":"6202622897","phone_number_main":"6208865146","service_hours":"Mo-Fr 07:30 - 18:00 | Sa 07:30 - 12:00","utc_offset":"-300","gplace_id":null,"gplace_url":"https://maps.google.com/?cid=13259539804425884029","dealerID":67124,"trusted":false,"image_id":"v1597283981/buick_RM.png","phone":"6202622897","cityStateSlug":"medicine-lodge.ks","slug":"Medicine-Lodge.KS/bowe+chevrolet+buick","location":"37.2755212,-98.5771239","brandsList":["buick","chevrolet"]},{"id":10978,"crm_id":67048093,"name":"Olathe Subaru","dealerSlug":"olathe+subaru","city_state_slug":"Olathe.KS","brand":"Subaru","website":"www.olathesubaru.com","address":"505 S Fir St","city":"Olathe","state":"KS","zip":66061,"latitude":38.8771294,"longitude":-94.7942171,"phone_number_service":"8884845723","phone_number_main":"8889052246","service_hours":"Mo-Fr 08:00 - 17:30 | Sa 08:00 - 17:30","utc_offset":"-300","gplace_id":null,"gplace_url":"https://maps.google.com/?cid=12686218518888035636","dealerID":67130,"trusted":false,"image_id":"v1597283982/subaru_ms.png","phone":"8884845723","cityStateSlug":"olathe.ks","slug":"Olathe.KS/olathe+subaru","location":"38.8771294,-94.7942171","brandsList":["subaru"]},{"id":8027,"crm_id":67048123,"name":"Kline Motors","dealerSlug":"kline+motors","city_state_slug":"Winfield.KS","brand":"Ford","website":"www.klinemotors.com","address":"1721 Main St","city":"Winfield","state":"KS","zip":67156,"latitude":37.2312787,"longitude":-96.997532,"phone_number_service":"8887061092","phone_number_main":"6202212040","service_hours":"Mo-Fr 07:30 - 17:30","utc_offset":"-300","gplace_id":null,"gplace_url":"https://maps.google.com/?cid=16896036052714910262","dealerID":67139,"trusted":false,"image_id":"v1597283967/ford_RM.png","phone":"8887061092","cityStateSlug":"winfield.ks","slug":"Winfield.KS/kline+motors","location":"37.2312787,-96.997532","brandsList":["ford"]},{"id":2260,"crm_id":67048345,"name":"Bud Brown Volkswagen","dealerSlug":"bud+brown+volkswagen","city_state_slug":"Olathe.KS","brand":"Volkswagen","website":"www.budbrownvw.com","address":"925 N Rawhide Dr","city":"Olathe","state":"KS","zip":66061,"latitude":38.8937711,"longitude":-94.7893846,"phone_number_service":"8554802288","phone_number_main":"9132540100","service_hours":"Mo-Fr 07:00 - 18:00 | Sa 08:00 - 16:00","utc_offset":"-300","gplace_id":null,"gplace_url":"https://maps.google.com/?cid=422857188714127596","dealerID":67197,"trusted":false,"image_id":"v1597283902/volkswagen.png","phone":"8554802288","cityStateSlug":"olathe.ks","slug":"Olathe.KS/bud+brown+volkswagen","location":"38.8937711,-94.7893846","brandsList":["volkswagen"]},{"id":4198,"crm_id":67048759,"name":"Doug Reh Chevrolet","dealerSlug":"doug+reh+chevrolet","city_state_slug":"Pratt.KS","brand":"Buick,Chevrolet","website":"www.dougrehchevrolet.com","address":"1501 E 1st St","city":"Pratt","state":"KS","zip":67124,"latitude":37.6452619,"longitude":-98.7205171,"phone_number_service":"8774725037","phone_number_main":"6206725633","service_hours":"Mo-Fr 08:00 - 18:00 | Sa 08:00 - 12:00","utc_offset":"-300","gplace_id":null,"gplace_url":"https://maps.google.com/?cid=11654307637116207614","dealerID":67302,"trusted":false,"image_id":"v1597283981/buick_RM.png","phone":"8774725037","cityStateSlug":"pratt.ks","slug":"Pratt.KS/doug+reh+chevrolet","location":"37.6452619,-98.7205171","brandsList":["buick","chevrolet"]},{"id":9632,"crm_id":67048888,"name":"Mel Hambelton Ford","dealerSlug":"mel+hambelton+ford","city_state_slug":"Wichita.KS","brand":"Ford","website":"www.mhford.com","address":"11771 W Kellogg Dr","city":"Wichita","state":"KS","zip":67209,"latitude":37.6632834,"longitude":-97.4779022,"phone_number_service":"8884891719","phone_number_main":"3164623673","service_hours":"Mo-Fr 07:00 - 19:00 | Sa 08:00 - 17:00","utc_offset":"-300","gplace_id":null,"gplace_url":"https://maps.google.com/?cid=7064615892423405097","dealerID":67339,"trusted":false,"image_id":"v1597283967/ford_RM.png","phone":"8884891719","cityStateSlug":"wichita.ks","slug":"Wichita.KS/mel+hambelton+ford","location":"37.6632834,-97.4779022","brandsList":["ford"]},{"id":7206,"crm_id":67049032,"name":"James Motor Co","dealerSlug":"james+motor+co","city_state_slug":"Hays.KS","brand":"Buick,Cadillac,Chevrolet,GMC","website":"www.jamesmotor.com","address":"108 E 13th St","city":"Hays","state":"KS","zip":67601,"latitude":38.8729788,"longitude":-99.3288395,"phone_number_service":"8004405923","phone_number_main":"7856253481","service_hours":"Mo-Fr 08:00 - 17:30 | Sa 08:00 - 12:00","utc_offset":"-300","gplace_id":null,"gplace_url":"https://maps.google.com/?cid=14177343744086463517","dealerID":67375,"trusted":false,"image_id":"v1597283981/buick_RM.png","phone":"8004405923","cityStateSlug":"hays.ks","slug":"Hays.KS/james+motor+co","location":"38.8729788,-99.3288395","brandsList":["buick","cadillac","chevrolet","gmc"]},{"id":10977,"crm_id":67049281,"name":"Olathe Ford Lincoln","dealerSlug":"olathe+ford+lincoln","city_state_slug":"Olathe.KS","brand":"Ford,Lincoln","website":"olatheford.com","address":"1845 EAST SANTA FE","city":"Olathe","state":"KS","zip":66062,"latitude":38.8828141,"longitude":-94.7856243,"phone_number_service":"8558901832","phone_number_main":"9137820881","service_hours":"Mo-Fr 07:00 - 18:00 | Sa 07:00 - 17:00","utc_offset":"-300","gplace_id":null,"gplace_url":"https://maps.google.com/?cid=2436868260480151074","dealerID":67450,"trusted":false,"image_id":"v1597283967/ford_RM.png","phone":"8558901832","cityStateSlug":"olathe.ks","slug":"Olathe.KS/olathe+ford+lincoln","location":"38.8828141,-94.7856243","brandsList":["ford","lincoln"]},{"id":9337,"crm_id":67049386,"name":"Maserati of Kansas City","dealerSlug":"maserati+of+kansas+city","city_state_slug":"Merriam.KS","brand":"Maserati","website":"www.maseratiofkansascity.com","address":"9410 W. 65th St.","city":"Merriam","state":"KS","zip":66203,"latitude":39.0114823,"longitude":-94.6969787,"phone_number_service":"9137529035","phone_number_main":"9136773300","service_hours":"Mo-Fr 08:00 - 17:30 | Sa 08:00 - 11:30","utc_offset":"-300","gplace_id":null,"gplace_url":"https://maps.google.com/?cid=10960847652300314116","dealerID":67478,"trusted":false,"image_id":"v1597283940/maserati_RM.png","phone":"9137529035","cityStateSlug":"merriam.ks","slug":"Merriam.KS/maserati+of+kansas+city","location":"39.0114823,-94.6969787","brandsList":["maserati"]},{"id":400,"crm_id":67049392,"name":"Aristocrat Motors","dealerSlug":"aristocrat+motors","city_state_slug":"Merriam.KS","brand":"Mercedes-Benz","website":"www.aristocratmercedes-benz.com","address":"9400 W 65th St","city":"Merriam","state":"KS","zip":66203,"latitude":39.0118243,"longitude":-94.6946393,"phone_number_service":"8559791826","phone_number_main":"9136773300","service_hours":"Mo-Fr 08:00 - 17:00 | Sa 08:00 - 12:00","utc_offset":"-300","gplace_id":null,"gplace_url":"https://maps.google.com/?cid=10960847652300314116","dealerID":67480,"trusted":false,"image_id":"v1597283934/mercedes_RM.png","phone":"8559791826","cityStateSlug":"merriam.ks","slug":"Merriam.KS/aristocrat+motors","location":"39.0118243,-94.6946393","brandsList":["mercedes-benz"]},{"id":11679,"crm_id":67049395,"name":"Porsche Kansas City","dealerSlug":"porsche+kansas+city","city_state_slug":"Merriam.KS","brand":"Porsche","website":"www.porschekansascity.com","address":"9400 W 65th St","city":"Merriam","state":"KS","zip":66203,"latitude":39.0118243,"longitude":-94.6946393,"phone_number_service":"9135384399","phone_number_main":"9136773300","service_hours":"Mo-Fr 08:00 - 17:30 | Sa 08:00 - 17:30","utc_offset":"-300","gplace_id":null,"gplace_url":"https://maps.google.com/?cid=10960847652300314116","dealerID":67481,"trusted":false,"image_id":"v1597283919/porsche.jpg","phone":"9135384399","cityStateSlug":"merriam.ks","slug":"Merriam.KS/porsche+kansas+city","location":"39.0118243,-94.6946393","brandsList":["porsche"]},{"id":5497,"crm_id":67051129,"name":"George Tubbs & Sons Ford Sales","dealerSlug":"george+tubbs+and+sons+ford+sales","city_state_slug":"Colby.KS","brand":"Ford","website":"www.fordcarsofcolby.com","address":"810 South Range","city":"Colby","state":"KS","zip":67701,"latitude":39.3878712,"longitude":-101.0554633,"phone_number_service":"7854606746","phone_number_main":"8003693673","service_hours":"Mo-Fr 08:00 - 18:00 | Sa 08:00 - 16:00","utc_offset":"-300","gplace_id":null,"gplace_url":"https://maps.google.com/?cid=2295792963056787445","dealerID":67960,"trusted":false,"image_id":"v1597283967/ford_RM.png","phone":"7854606746","cityStateSlug":"colby.ks","slug":"Colby.KS/george+tubbs+and+sons+ford+sales","location":"39.3878712,-101.0554633","brandsList":["ford"]},{"id":10002,"crm_id":67052314,"name":"Mike Carpino Ford","dealerSlug":"mike+carpino+ford","city_state_slug":"Columbus.KS","brand":"Ford","website":"www.mikecarpinoford.com","address":"715 Northeast Ave","city":"Columbus","state":"KS","zip":66725,"latitude":37.1777669,"longitude":-94.8325821,"phone_number_service":"8004589063","phone_number_main":"8004622390","service_hours":"Mo-Fr 07:30 - 17:30 | Sa 08:00 - 12:00","utc_offset":"-300","gplace_id":null,"gplace_url":"https://maps.google.com/?cid=5838188357838576083","dealerID":68279,"trusted":false,"image_id":"v1597283967/ford_RM.png","phone":"8004589063","cityStateSlug":"columbus.ks","slug":"Columbus.KS/mike+carpino+ford","location":"37.1777669,-94.8325821","brandsList":["ford"]},{"id":3270,"crm_id":67052530,"name":"Conklin Honda Hutchinson","dealerSlug":"conklin+honda+hutchinson","city_state_slug":"Hutchinson.KS","brand":"Honda","website":"www.conklinhondahutchinson.com","address":"1400 East 11th Avenue","city":"Hutchinson","state":"KS","zip":67501,"latitude":38.0655752,"longitude":-97.9022954,"phone_number_service":"8774600195","phone_number_main":"6207084102","service_hours":"Mo-Fr 07:30 - 18:00 | Sa 08:00 - 12:00","utc_offset":"-300","gplace_id":null,"gplace_url":"https://maps.google.com/?cid=2126685254710776897","dealerID":68341,"trusted":false,"image_id":"v1597284047/honda_ms.png","phone":"8774600195","cityStateSlug":"hutchinson.ks","slug":"Hutchinson.KS/conklin+honda+hutchinson","location":"38.0655752,-97.9022954","brandsList":["honda"]},{"id":3265,"crm_id":67052533,"name":"Conklin Buick GMC Hutchinson","dealerSlug":"conklin+buick+gmc+hutchinson","city_state_slug":"Hutchinson.KS","brand":"Buick,GMC","website":"www.conklinbuickgmchutchinson.com","address":"1400 E 11th Ave","city":"Hutchinson","state":"KS","zip":67501,"latitude":38.0653242,"longitude":-97.9026981,"phone_number_service":"6207084440","phone_number_main":"6207084102","service_hours":"Mo-Fr 07:30 - 18:00 | Sa 08:00 - 12:00","utc_offset":"-300","gplace_id":null,"gplace_url":"https://maps.google.com/?cid=120618102523606033","dealerID":68342,"trusted":false,"image_id":"v1597283981/buick_RM.png","phone":"6207084440","cityStateSlug":"hutchinson.ks","slug":"Hutchinson.KS/conklin+buick+gmc+hutchinson","location":"38.0653242,-97.9026981","brandsList":["buick","gmc"]},{"id":3273,"crm_id":67052539,"name":"Conklin Nissan Hutchinson","dealerSlug":"conklin+nissan+hutchinson","city_state_slug":"Hutchinson.KS","brand":"Nissan","website":"www.conklinnissanhutchinson.com","address":"1400 E 11th","city":"Hutchinson","state":"KS","zip":67501,"latitude":38.0656035,"longitude":-97.9019916,"phone_number_service":"8667829801","phone_number_main":"6206624467","service_hours":"Mo-Fr 07:30 - 18:00 | Sa 08:00 - 12:00","utc_offset":"-300","gplace_id":null,"gplace_url":"https://maps.google.com/?cid=7846040260112383179","dealerID":68344,"trusted":false,"image_id":"v1597283926/nissan_RM.png","phone":"8667829801","cityStateSlug":"hutchinson.ks","slug":"Hutchinson.KS/conklin+nissan+hutchinson","location":"38.0656035,-97.9019916","brandsList":["nissan"]},{"id":6172,"crm_id":67052626,"name":"Hatchett Hyundai East","dealerSlug":"hatchett+hyundai+east","city_state_slug":"Wichita.KS","brand":"Hyundai","website":"www.hatchetthyundaieast.com","address":"11200 E Central Ave","city":"Wichita","state":"KS","zip":67206,"latitude":37.694724,"longitude":-97.20709,"phone_number_service":"3162023847","phone_number_main":"3169777800","service_hours":"Mo-Fr  07:00 - 18:00 | Sa 08:00 - 13:00","utc_offset":"-300","gplace_id":null,"gplace_url":"https://maps.google.com/?cid=12876908291271635583","dealerID":68369,"trusted":false,"image_id":"v1597283959/hyundai_RM.png","phone":"3162023847","cityStateSlug":"wichita.ks","slug":"Wichita.KS/hatchett+hyundai+east","location":"37.694724,-97.20709","brandsList":["hyundai"]},{"id":2482,"crm_id":67054285,"name":"Capital City Nissan of Topeka","dealerSlug":"capital+city+nissan+of+topeka","city_state_slug":"Topeka.KS","brand":"Nissan","website":"www.capnissan.com","address":"1980 SW Topeka Blvd","city":"Topeka","state":"KS","zip":66612,"latitude":39.0330471,"longitude":-95.6824924,"phone_number_service":"7852676700","phone_number_main":"7852676700","service_hours":"Mo-Sa 07:00 - 18:00","utc_offset":"-300","gplace_id":null,"gplace_url":"https://maps.google.com/?cid=7396291062849355965","dealerID":68827,"trusted":false,"image_id":"v1597283926/nissan_RM.png","phone":"7852676700","cityStateSlug":"topeka.ks","slug":"Topeka.KS/capital+city+nissan+of+topeka","location":"39.0330471,-95.6824924","brandsList":["nissan"]},{"id":8667,"crm_id":67054291,"name":"Lewis Toyota of Topeka","dealerSlug":"lewis+toyota+of+topeka","city_state_slug":"Topeka.KS","brand":"Toyota","website":"www.lewistoyota.com","address":"2951 SW Fairlawn Rd","city":"Topeka","state":"KS","zip":66614,"latitude":39.0121303,"longitude":-95.7447686,"phone_number_service":"7857836876","phone_number_main":"7852732220","service_hours":"Mo-Fr 07:30 - 17:30 | Sa 07:30 - 12:00","utc_offset":"-300","gplace_id":null,"gplace_url":"https://maps.google.com/?cid=3136175207426870801","dealerID":68829,"trusted":false,"image_id":"v1597284039/toyota_ms.png","phone":"7857836876","cityStateSlug":"topeka.ks","slug":"Topeka.KS/lewis+toyota+of+topeka","location":"39.0121303,-95.7447686","brandsList":["toyota"]},{"id":12084,"crm_id":67054378,"name":"Randy Curnow Buick GMC","dealerSlug":"randy+curnow+buick+gmc","city_state_slug":"Kansas-City.KS","brand":"Buick,GMC","website":"www.randycurnow.com","address":"7707 State Ave","city":"Kansas City","state":"KS","zip":66112,"latitude":39.115912,"longitude":-94.758471,"phone_number_service":"9138715334","phone_number_main":"9135358700","service_hours":"Mo-Fr 07:30 - 18:00| Sa 08:00 - 14:00","utc_offset":"-300","gplace_id":null,"gplace_url":"https://maps.google.com/?cid=5442776111158951078","dealerID":68851,"trusted":false,"image_id":"v1597283981/buick_RM.png","phone":"9138715334","cityStateSlug":"kansas-city.ks","slug":"Kansas-City.KS/randy+curnow+buick+gmc","location":"39.115912,-94.758471","brandsList":["buick","gmc"]},{"id":12204,"crm_id":67054792,"name":"Reedy Ford","dealerSlug":"reedy+ford","city_state_slug":"Arkansas-City.KS","brand":"Ford","website":"www.reedyfordonline.com","address":"3319 N Summit St","city":"Arkansas City","state":"KS","zip":67005,"latitude":37.0985382,"longitude":-97.0414006,"phone_number_service":"8886561719","phone_number_main":"6204424800","service_hours":"Mo-Fr 07:30 - 17:30","utc_offset":"-300","gplace_id":null,"gplace_url":"https://maps.google.com/?cid=11428297449032595256","dealerID":68970,"trusted":false,"image_id":"v1597283967/ford_RM.png","phone":"8886561719","cityStateSlug":"arkansas-city.ks","slug":"Arkansas-City.KS/reedy+ford","location":"37.0985382,-97.0414006","brandsList":["ford"]},{"id":3382,"crm_id":67054915,"name":"Countryside Motors, Chevrolet & Buick","dealerSlug":"countryside+motors+chevrolet+and+buick","city_state_slug":"Wellington.KS","brand":"Buick,Chevrolet","website":"www.drivecountryside.com","address":"701 E 16th St","city":"Wellington","state":"KS","zip":67152,"latitude":37.27586,"longitude":-97.3899816,"phone_number_service":"6203267433","phone_number_main":"6203267433","service_hours":"","utc_offset":"-300","gplace_id":null,"gplace_url":"https://maps.google.com/?cid=3447512382394110236","dealerID":69003,"trusted":false,"image_id":"v1597283981/buick_RM.png","phone":"6203267433","cityStateSlug":"wellington.ks","slug":"Wellington.KS/countryside+motors+chevrolet+and+buick","location":"37.27586,-97.3899816","brandsList":["buick","chevrolet"]},{"id":3135,"crm_id":67055890,"name":"Cody Foster Buick GMC Cadillac","dealerSlug":"cody+foster+buick+gmc+cadillac","city_state_slug":"El-Dorado.KS","brand":"Buick,Cadillac,Chevrolet,GMC","website":"www.codyfostermotors.com","address":"2670 W Central Ave","city":"El Dorado","state":"KS","zip":67042,"latitude":37.8182683,"longitude":-96.889168,"phone_number_service":"3163134488","phone_number_main":"3163212820","service_hours":"Mo-Fr 08:00 - 17:30","utc_offset":"-300","gplace_id":null,"gplace_url":"https://maps.google.com/?cid=9104507957783579156","dealerID":69271,"trusted":false,"image_id":"v1597283981/buick_RM.png","phone":"3163134488","cityStateSlug":"el-dorado.ks","slug":"El-Dorado.KS/cody+foster+buick+gmc+cadillac","location":"37.8182683,-96.889168","brandsList":["buick","cadillac","chevrolet","gmc"]},{"id":12937,"crm_id":67056163,"name":"Scholfield Honda","dealerSlug":"scholfield+honda","city_state_slug":"Wichita.KS","brand":"Honda","website":"scholfieldautoservice.com","address":"8880 W Central Ave","city":"Wichita","state":"KS","zip":67212,"latitude":37.6945317,"longitude":-97.445995,"phone_number_service":"3167291300","phone_number_main":"3167291300","service_hours":"Mo-Fr 07:00 - 18:00 | Sa 08:00 - 13:00","utc_offset":"-300","gplace_id":null,"gplace_url":"https://maps.google.com/?cid=3419808295062243344","dealerID":69338,"trusted":false,"image_id":"v1597284047/honda_ms.png","phone":"3167291300","cityStateSlug":"wichita.ks","slug":"Wichita.KS/scholfield+honda","location":"37.6945317,-97.445995","brandsList":["honda"]},{"id":8914,"crm_id":67056574,"name":"Little Apple Toyota","dealerSlug":"little+apple+toyota","city_state_slug":"Manhattan.KS","brand":"Toyota","website":"www.littleappletoyota.net","address":"2828 Amherst Ave","city":"Manhattan","state":"KS","zip":66502,"latitude":39.181738,"longitude":-96.607916,"phone_number_service":"7855397441","phone_number_main":"7855397441","service_hours":"Mo 07:30 - 18:00 | Tu 07:30 - 18:00 | We 07:30 - 18:00 | Th 07:30 - 18:00 | Fr 08:00 - 16:00 | Sa 08:00 - 16:00","utc_offset":"-300","gplace_id":null,"gplace_url":"https://maps.google.com/?cid=17419814877060851500","dealerID":69446,"trusted":false,"image_id":"v1597284039/toyota_ms.png","phone":"7855397441","cityStateSlug":"manhattan.ks","slug":"Manhattan.KS/little+apple+toyota","location":"39.181738,-96.607916","brandsList":["toyota"]},{"id":11985,"crm_id":67057396,"name":"Quality Motors Chrysler Dodge Jeep RAM","dealerSlug":"quality+motors+chrysler+dodge+jeep+ram","city_state_slug":"Independence.KS","brand":"Chrysler,Dodge,Jeep,RAM","website":"www.qualityofindep.com/","address":"2022 W Main St","city":"Independence","state":"KS","zip":67301,"latitude":37.224051,"longitude":-95.732156,"phone_number_service":"6203316090","phone_number_main":"6203316090","service_hours":"Mo-Fr 07:30 - 17:30","utc_offset":"-300","gplace_id":null,"gplace_url":"https://maps.google.com/?cid=3140900292287464183","dealerID":69669,"trusted":false,"image_id":"v1597283975/chrysler_RM.png","phone":"6203316090","cityStateSlug":"independence.ks","slug":"Independence.KS/quality+motors+chrysler+dodge+jeep+ram","location":"37.224051,-95.732156","brandsList":["chrysler","dodge","jeep","ram"]},{"id":2136,"crm_id":67057717,"name":"Briggs Kia Topeka","dealerSlug":"briggs+kia+topeka","city_state_slug":"Topeka.KS","brand":"Kia","website":"www.briggskia.com","address":"3137 S Kansas Ave","city":"Topeka","state":"KS","zip":66611,"latitude":39.0107808,"longitude":-95.6826543,"phone_number_service":"7852468021","phone_number_main":"7852468020","service_hours":"Mo-Fr 07:00 - 18:00 | Sa 08:00 - 16:00","utc_offset":"-300","gplace_id":null,"gplace_url":"https://maps.google.com/?cid=13685550355695819982","dealerID":69754,"trusted":false,"image_id":"v1597283948/kia_RM.png","phone":"7852468021","cityStateSlug":"topeka.ks","slug":"Topeka.KS/briggs+kia+topeka","location":"39.0107808,-95.6826543","brandsList":["kia"]},{"id":3257,"crm_id":67057780,"name":"Concordia Chevrolet & Buick","dealerSlug":"concordia+chevrolet+and+buick","city_state_slug":"Concordia.KS","brand":"Buick,Chevrolet","website":"www.concordiachevybuick.com","address":"1201 East 6th Street","city":"Concordia","state":"KS","zip":66901,"latitude":39.5723486,"longitude":-97.6423508,"phone_number_service":"7852437283","phone_number_main":"7852434380","service_hours":"Mo-Fr 08:00 - 17:00","utc_offset":"-300","gplace_id":null,"gplace_url":"https://maps.google.com/?cid=2131813874693145939","dealerID":69772,"trusted":false,"image_id":"v1597283981/buick_RM.png","phone":"7852437283","cityStateSlug":"concordia.ks","slug":"Concordia.KS/concordia+chevrolet+and+buick","location":"39.5723486,-97.6423508","brandsList":["buick","chevrolet"]},{"id":4680,"crm_id":67058263,"name":"Farm Country Ford","dealerSlug":"farm+country+ford","city_state_slug":"Concordia.KS","brand":"Ford","website":"farmcountryford.com","address":"1510 E 6th","city":"Concordia","state":"KS","zip":66901,"latitude":39.5709083,"longitude":-97.639879,"phone_number_service":"7852431220","phone_number_main":"7852431220","service_hours":"Mo-Fr 08:00 - 17:00","utc_offset":"-300","gplace_id":null,"gplace_url":"https://maps.google.com/?cid=16785945171179307343","dealerID":69916,"trusted":false,"image_id":"v1597283967/ford_RM.png","phone":"7852431220","cityStateSlug":"concordia.ks","slug":"Concordia.KS/farm+country+ford","location":"39.5709083,-97.639879","brandsList":["ford"]},{"id":2131,"crm_id":67058506,"name":"Briggs Buick GMC","dealerSlug":"briggs+buick+gmc","city_state_slug":"Manhattan.KS","brand":"Buick,GMC","website":"www.briggsbuickgmc.com","address":"2312 Stagg Hill Rd","city":"Manhattan","state":"KS","zip":66502,"latitude":39.1682806,"longitude":-96.5977122,"phone_number_service":"7857894361","phone_number_main":"7857893157","service_hours":"Mo-Fr 07:00 - 18:00 | Sa 07:30 - 16:00","utc_offset":"-300","gplace_id":null,"gplace_url":"https://maps.google.com/?cid=558179643885514792","dealerID":69984,"trusted":false,"image_id":"v1597283981/buick_RM.png","phone":"7857894361","cityStateSlug":"manhattan.ks","slug":"Manhattan.KS/briggs+buick+gmc","location":"39.1682806,-96.5977122","brandsList":["buick","gmc"]},{"id":6279,"crm_id":67058797,"name":"Hendrick Lexus Kansas City","dealerSlug":"hendrick+lexus+kansas+city","city_state_slug":"Merriam.KS","brand":"Lexus","website":"www.hendricklexuskansascity.com","address":"6935 W Frontage Rd","city":"Merriam","state":"KS","zip":66203,"latitude":39.0045824,"longitude":-94.6962851,"phone_number_service":"8887218829","phone_number_main":"8163326461","service_hours":"Mo-Fr 07:00 - 18:00 | Sa 08:00 - 17:00","utc_offset":"-300","gplace_id":null,"gplace_url":"https://maps.google.com/?cid=7757195573189668406","dealerID":70071,"trusted":false,"image_id":"v1597284042/lexus_ms.png","phone":"8887218829","cityStateSlug":"merriam.ks","slug":"Merriam.KS/hendrick+lexus+kansas+city","location":"39.0045824,-94.6962851","brandsList":["lexus"]},{"id":7565,"crm_id":67059271,"name":"John North Ford","dealerSlug":"john+north+ford","city_state_slug":"Emporia.KS","brand":"Ford","website":"www.jnford.net","address":"3002 W. Highway 50","city":"Emporia","state":"KS","zip":66801,"latitude":38.4115384,"longitude":-96.222296,"phone_number_service":"8667989658","phone_number_main":"6203431700","service_hours":"Mo-Fr 07:30 - 17:30 | Sa 08:00 - 13:00","utc_offset":"-300","gplace_id":null,"gplace_url":"https://maps.google.com/?cid=4491213781336425182","dealerID":70199,"trusted":false,"image_id":"v1597283967/ford_RM.png","phone":"8667989658","cityStateSlug":"emporia.ks","slug":"Emporia.KS/john+north+ford","location":"38.4115384,-96.222296","brandsList":["ford"]},{"id":7566,"crm_id":67059277,"name":"John North Nissan","dealerSlug":"john+north+nissan","city_state_slug":"Emporia.KS","brand":"Nissan","website":"www.johnnorthnissan.com","address":"3002 W Hwy 50","city":"Emporia","state":"KS","zip":66801,"latitude":38.411525,"longitude":-96.2223011,"phone_number_service":"8662079625","phone_number_main":"6203431700","service_hours":"Mo-Fr 07:30 - 17:30 | Sa 08:00 - 13:00","utc_offset":"-300","gplace_id":null,"gplace_url":"https://maps.google.com/?cid=6746779114666109532","dealerID":70201,"trusted":false,"image_id":"v1597283926/nissan_RM.png","phone":"8662079625","cityStateSlug":"emporia.ks","slug":"Emporia.KS/john+north+nissan","location":"38.411525,-96.2223011","brandsList":["nissan"]},{"id":8392,"crm_id":67059286,"name":"Lang Chevrolet Buick GMC","dealerSlug":"lang+chevrolet+buick+gmc","city_state_slug":"Paola.KS","brand":"Buick,Chevrolet,GMC","website":"www.langchevy.net","address":"32575 Old Kansas City Rd","city":"Paola","state":"KS","zip":66071,"latitude":38.5366151,"longitude":-94.889758,"phone_number_service":"8776642294","phone_number_main":"9139378087","service_hours":"Mo-Fr 07:30 - 17:30","utc_offset":"-300","gplace_id":null,"gplace_url":"https://maps.google.com/?cid=13155143347653765105","dealerID":70204,"trusted":false,"image_id":"v1597283981/buick_RM.png","phone":"8776642294","cityStateSlug":"paola.ks","slug":"Paola.KS/lang+chevrolet+buick+gmc","location":"38.5366151,-94.889758","brandsList":["buick","chevrolet","gmc"]},{"id":14654,"crm_id":67059580,"name":"Tumminia Mazda","dealerSlug":"tumminia+mazda","city_state_slug":"Olathe.KS","brand":"Mazda","website":"tumminiamazda.com","address":"1551 S Hamilton Cir","city":"Olathe","state":"KS","zip":66061,"latitude":38.8588521,"longitude":-94.8146088,"phone_number_service":"9137803500","phone_number_main":"9137803500","service_hours":"Mo-Fr 07:30 - 17:30 | Sa 07:30 - 15:00","utc_offset":"-300","gplace_id":null,"gplace_url":"https://maps.google.com/?cid=9890714119547968761","dealerID":70280,"trusted":false,"image_id":"v1597283937/mazda.png","phone":"9137803500","cityStateSlug":"olathe.ks","slug":"Olathe.KS/tumminia+mazda","location":"38.8588521,-94.8146088","brandsList":["mazda"]},{"id":2138,"crm_id":67059868,"name":"Briggs Subaru of Topeka","dealerSlug":"briggs+subaru+of+topeka","city_state_slug":"Topeka.KS","brand":"Subaru","website":"www.briggssubarutopeka.com","address":"3115 S Kansas Ave","city":"Topeka","state":"KS","zip":66611,"latitude":39.0116378,"longitude":-95.6825213,"phone_number_service":"8887744697","phone_number_main":"7852468009","service_hours":"Mo-Fr 07:00 - 18:00 | Sa 08:00 - 16:00","utc_offset":"-300","gplace_id":null,"gplace_url":"https://maps.google.com/?cid=14453838173642110564","dealerID":70358,"trusted":false,"image_id":"v1597283982/subaru_ms.png","phone":"8887744697","cityStateSlug":"topeka.ks","slug":"Topeka.KS/briggs+subaru+of+topeka","location":"39.0116378,-95.6825213","brandsList":["subaru"]},{"id":8913,"crm_id":67060282,"name":"Little Apple Honda","dealerSlug":"little+apple+honda","city_state_slug":"Manhattan.KS","brand":"Honda","website":"www.littleapplehonda.net","address":"2828 Amherst Ave","city":"Manhattan","state":"KS","zip":66502,"latitude":39.181738,"longitude":-96.607916,"phone_number_service":"7855397441","phone_number_main":"7855397441","service_hours":"Mo-Fr 07:30 - 18:00 | Sa 08:00 - 16:00","utc_offset":"-300","gplace_id":null,"gplace_url":"https://maps.google.com/?cid=17419814877060851500","dealerID":70475,"trusted":false,"image_id":"v1597284047/honda_ms.png","phone":"7855397441","cityStateSlug":"manhattan.ks","slug":"Manhattan.KS/little+apple+honda","location":"39.181738,-96.607916","brandsList":["honda"]},{"id":10251,"crm_id":67060303,"name":"Molle Chevrolet Buick GMC","dealerSlug":"molle+chevrolet+buick+gmc","city_state_slug":"Frontenac.KS","brand":"Buick,Chevrolet,GMC","website":"www.molleautomotive.net","address":"1015 N. Highway 69","city":"Frontenac","state":"KS","zip":66763,"latitude":37.4583473,"longitude":-94.7056803,"phone_number_service":"6206704233","phone_number_main":"6202314800","service_hours":"Mo-Fr 07:30 - 17:00 | Sa 08:00 - 12:00","utc_offset":"-300","gplace_id":null,"gplace_url":"https://maps.google.com/?cid=17182425692413214999","dealerID":70482,"trusted":false,"image_id":"v1597283981/buick_RM.png","phone":"6206704233","cityStateSlug":"frontenac.ks","slug":"Frontenac.KS/molle+chevrolet+buick+gmc","location":"37.4583473,-94.7056803","brandsList":["buick","chevrolet","gmc"]},{"id":1460,"crm_id":67060309,"name":"Bill George's Olathe Kia","dealerSlug":"bill+georges+olathe+kia","city_state_slug":"Olathe.KS","brand":"Kia","website":"www.olathekia.com","address":"130 N Fir St","city":"Olathe","state":"KS","zip":66061,"latitude":38.8827637,"longitude":-94.7926351,"phone_number_service":"9133906800","phone_number_main":"9133906800","service_hours":"Mo-Fr 08:00 - 17:30 | Sa 08:00 - 17:30","utc_offset":"-300","gplace_id":null,"gplace_url":"https://maps.google.com/?cid=16429601917696028434","dealerID":70484,"trusted":false,"image_id":"v1597283948/kia_RM.png","phone":"9133906800","cityStateSlug":"olathe.ks","slug":"Olathe.KS/bill+georges+olathe+kia","location":"38.8827637,-94.7926351","brandsList":["kia"]},{"id":5315,"crm_id":67060528,"name":"G&G Car and Truck Supercenters","dealerSlug":"gandg+car+and+truck+supercenters","city_state_slug":"Dodge-City.KS","brand":"Buick,GMC","website":"www.buygggmautos.com","address":"308 S 2nd Ave","city":"Dodge City","state":"KS","zip":67801,"latitude":37.7440356,"longitude":-100.0190566,"phone_number_service":"8666843268","phone_number_main":"6202421281","service_hours":"Mo-Fr 07:30 - 17:30","utc_offset":"-300","gplace_id":null,"gplace_url":"https://maps.google.com/?cid=14271972967837365394","dealerID":70540,"trusted":false,"image_id":"v1597283981/buick_RM.png","phone":"8666843268","cityStateSlug":"dodge-city.ks","slug":"Dodge-City.KS/gandg+car+and+truck+supercenters","location":"37.7440356,-100.0190566","brandsList":["buick","gmc"]},{"id":5313,"crm_id":67060534,"name":"G & G","dealerSlug":"g+and+g","city_state_slug":"Dodge-City.KS","brand":"Buick,GMC","website":"www.buyggautos.com","address":"404 S 2nd Ave","city":"Dodge City","state":"KS","zip":67801,"latitude":37.742877,"longitude":-100.0198385,"phone_number_service":"8884397218","phone_number_main":"6202254126","service_hours":"Mo-Fr 07:30 - 17:30","utc_offset":"-300","gplace_id":null,"gplace_url":"https://maps.google.com/?cid=3972947980648964503","dealerID":70542,"trusted":false,"image_id":"v1597283981/buick_RM.png","phone":"8884397218","cityStateSlug":"dodge-city.ks","slug":"Dodge-City.KS/g+and+g","location":"37.742877,-100.0198385","brandsList":["buick","gmc"]},{"id":7369,"crm_id":67060921,"name":"Jim Clark Chevrolet-cadillac","dealerSlug":"jim+clark+chevrolet+cadillac","city_state_slug":"Junction-City.KS","brand":"Cadillac,Chevrolet","website":"www.jimclarkchevroletcadillac.com","address":"911 Goldenbelt Blvd","city":"Junction City","state":"KS","zip":66441,"latitude":39.0028743,"longitude":-96.8463842,"phone_number_service":"8778323407","phone_number_main":"7852619642","service_hours":"Mo-Fr 07:30 - 17:30 | Sa 08:00 - 16:00","utc_offset":"-300","gplace_id":null,"gplace_url":"https://maps.google.com/?cid=8479989689808733678","dealerID":70650,"trusted":false,"image_id":"v1597283980/cadillac.png","phone":"8778323407","cityStateSlug":"junction-city.ks","slug":"Junction-City.KS/jim+clark+chevrolet+cadillac","location":"39.0028743,-96.8463842","brandsList":["cadillac","chevrolet"]},{"id":1176,"crm_id":67072117,"name":"Beckman Motors","dealerSlug":"beckman+motors","city_state_slug":"Garnett.KS","brand":"Ford","website":"www.beckmanfordinc.com","address":"701 N Maple St","city":"Garnett","state":"KS","zip":66032,"latitude":38.2899236,"longitude":-95.2500405,"phone_number_service":"8883752301","phone_number_main":"8557205859","service_hours":"Mo-Fr 07:30 - 17:00","utc_offset":"-300","gplace_id":null,"gplace_url":"https://maps.google.com/?cid=10201280593849236249","dealerID":73138,"trusted":false,"image_id":"v1597283967/ford_RM.png","phone":"8883752301","cityStateSlug":"garnett.ks","slug":"Garnett.KS/beckman+motors","location":"38.2899236,-95.2500405","brandsList":["ford"]},{"id":13462,"crm_id":67072129,"name":"Speedway Chrysler Dodge Jeep RAM","dealerSlug":"speedway+chrysler+dodge+jeep+ram","city_state_slug":"Lansing.KS","brand":"Chrysler,Dodge,Jeep,RAM","website":"www.speedwayautogroup.com","address":"555 N Main St","city":"Lansing","state":"KS","zip":66043,"latitude":39.258069,"longitude":-94.901306,"phone_number_service":"8445148469","phone_number_main":"9137279400","service_hours":"Mo-Fr 07:00 - 18:00 | Sa 08:00-17:00","utc_offset":"-300","gplace_id":null,"gplace_url":"https://maps.google.com/?cid=12764195970874510547","dealerID":73139,"trusted":false,"image_id":"v1597283975/chrysler_RM.png","phone":"8445148469","cityStateSlug":"lansing.ks","slug":"Lansing.KS/speedway+chrysler+dodge+jeep+ram","location":"39.258069,-94.901306","brandsList":["chrysler","dodge","jeep","ram"]},{"id":3571,"crm_id":67072141,"name":"Crown Volkswagen","dealerSlug":"crown+volkswagen","city_state_slug":"Lawrence.KS","brand":"Volkswagen","website":"www.crownmotorsvw.com","address":"3400 South Iowa Street","city":"Lawrence","state":"KS","zip":66046,"latitude":38.92225,"longitude":-95.259232,"phone_number_service":"7855033771","phone_number_main":"7855033968","service_hours":"Mo-Fr 07:30 - 18:00 | Sa 07:30 - 13:00","utc_offset":"-300","gplace_id":null,"gplace_url":"https://maps.google.com/?cid=12282912474015501919","dealerID":73140,"trusted":false,"image_id":"v1597283902/volkswagen.png","phone":"7855033771","cityStateSlug":"lawrence.ks","slug":"Lawrence.KS/crown+volkswagen","location":"38.92225,-95.259232","brandsList":["volkswagen"]},{"id":3569,"crm_id":67072147,"name":"Crown Toyota of Lawrence","dealerSlug":"crown+toyota+of+lawrence","city_state_slug":"Lawrence.KS","brand":"Toyota","website":"www.crowntoyotaoflawrence.com","address":"3430 Iowa St","city":"Lawrence","state":"KS","zip":66046,"latitude":38.921499,"longitude":-95.25816,"phone_number_service":"7853123802","phone_number_main":"7858437700","service_hours":"Mo-Fr 07:30 - 18:00 | Sa 08:00 - 16:00","utc_offset":"-300","gplace_id":null,"gplace_url":"https://maps.google.com/?cid=8949255838601793014","dealerID":73141,"trusted":false,"image_id":"v1597284039/toyota_ms.png","phone":"7853123802","cityStateSlug":"lawrence.ks","slug":"Lawrence.KS/crown+toyota+of+lawrence","location":"38.921499,-95.25816","brandsList":["toyota"]},{"id":6307,"crm_id":67072174,"name":"Henry Martens Chevrolet Buick GMC","dealerSlug":"henry+martens+chevrolet+buick+gmc","city_state_slug":"Leavenworth.KS","brand":"Buick,Chevrolet,GMC","website":"www.martenschevy.com","address":"315 Choctaw St","city":"Leavenworth","state":"KS","zip":66048,"latitude":39.3160092,"longitude":-94.9122803,"phone_number_service":"9138284944","phone_number_main":"9138284124","service_hours":"Mo-Fr 07:00 - 17:00 | Sa 08:00 - 13:00","utc_offset":"-300","gplace_id":null,"gplace_url":"https://maps.google.com/?cid=8909594299387811545","dealerID":73142,"trusted":false,"image_id":"v1597283981/buick_RM.png","phone":"9138284944","cityStateSlug":"leavenworth.ks","slug":"Leavenworth.KS/henry+martens+chevrolet+buick+gmc","location":"39.3160092,-94.9122803","brandsList":["buick","chevrolet","gmc"]},{"id":15753,"crm_id":67072186,"name":"Zeck Ford","dealerSlug":"zeck+ford","city_state_slug":"Leavenworth.KS","brand":"Ford","website":"www.zeckford.com","address":"4501 S 4th St","city":"Leavenworth","state":"KS","zip":66048,"latitude":39.2733449,"longitude":-94.8989512,"phone_number_service":"8446455448","phone_number_main":"9137271650","service_hours":"Mo-Fr 08:00 - 17:00","utc_offset":"-300","gplace_id":null,"gplace_url":"https://maps.google.com/?cid=12185355869320137140","dealerID":73143,"trusted":false,"image_id":"v1597283967/ford_RM.png","phone":"8446455448","cityStateSlug":"leavenworth.ks","slug":"Leavenworth.KS/zeck+ford","location":"39.2733449,-94.8989512","brandsList":["ford"]},{"id":9467,"crm_id":67072213,"name":"McCarthy Olathe Nissan","dealerSlug":"mccarthy+olathe+nissan","city_state_slug":"Olathe.KS","brand":"Nissan","website":"www.mccarthynissan.com","address":"683 N Rawhide","city":"Olathe","state":"KS","zip":66061,"latitude":38.8903425,"longitude":-94.7907229,"phone_number_service":"9133247377","phone_number_main":"9133247377","service_hours":"Mo-Fr 07:00 - 18:00 | Sa 07:00 - 15:00","utc_offset":"-300","gplace_id":null,"gplace_url":"https://maps.google.com/?cid=16051204654240701098","dealerID":73144,"trusted":false,"image_id":"v1597283926/nissan_RM.png","phone":"9133247377","cityStateSlug":"olathe.ks","slug":"Olathe.KS/mccarthy+olathe+nissan","location":"38.8903425,-94.7907229","brandsList":["nissan"]},{"id":6632,"crm_id":67072228,"name":"Honda of Olathe","dealerSlug":"honda+of+olathe","city_state_slug":"Olathe.KS","brand":"Honda","website":"www.hondaofolathe.com","address":"1000 N Rogers Rd","city":"Olathe","state":"KS","zip":66062,"latitude":38.8975872,"longitude":-94.7846252,"phone_number_service":"9132988334","phone_number_main":"9137823636","service_hours":"Mo-Fr 07:00-18:00 | Sa 07:00-16:00","utc_offset":"-300","gplace_id":null,"gplace_url":"https://maps.google.com/?cid=7857097375987851702","dealerID":73145,"trusted":false,"image_id":"v1597284047/honda_ms.png","phone":"9132988334","cityStateSlug":"olathe.ks","slug":"Olathe.KS/honda+of+olathe","location":"38.8975872,-94.7846252","brandsList":["honda"]},{"id":10976,"crm_id":67072237,"name":"Olathe Dodge Chrysler Jeep RAM","dealerSlug":"olathe+dodge+chrysler+jeep+ram","city_state_slug":"Olathe.KS","brand":"Chrysler,Dodge,Jeep,RAM","website":"www.olathedodgechryslerjeep.net","address":"15500 W 117th St","city":"Olathe","state":"KS","zip":66062,"latitude":38.9163558,"longitude":-94.7631961,"phone_number_service":"8559251108","phone_number_main":"9137803700","service_hours":"Mo-Fr 07:00 - 18:00 | Sa 08:00 - 17:00","utc_offset":"-300","gplace_id":null,"gplace_url":"https://maps.google.com/?cid=2982079260427855452","dealerID":73146,"trusted":false,"image_id":"v1597283975/chrysler_RM.png","phone":"8559251108","cityStateSlug":"olathe.ks","slug":"Olathe.KS/olathe+dodge+chrysler+jeep+ram","location":"38.9163558,-94.7631961","brandsList":["chrysler","dodge","jeep","ram"]},{"id":10622,"crm_id":67072261,"name":"New Century Dodge Chrysler Jeep","dealerSlug":"new+century+dodge+chrysler+jeep","city_state_slug":"Paola.KS","brand":"Chrysler,Dodge,Jeep,RAM","website":"www.newcenturydodgechryslerjeep.com","address":"807 Baptiste Dr","city":"Paola","state":"KS","zip":66071,"latitude":38.5749846,"longitude":-94.8664173,"phone_number_service":"9137387229","phone_number_main":"9132945306","service_hours":"Mo-Fr 07:00 - 18:00 | Sa 07:45 - 12:00","utc_offset":"-300","gplace_id":null,"gplace_url":"https://maps.google.com/?cid=11772938781837926206","dealerID":73147,"trusted":false,"image_id":"v1597283975/chrysler_RM.png","phone":"9137387229","cityStateSlug":"paola.ks","slug":"Paola.KS/new+century+dodge+chrysler+jeep","location":"38.5749846,-94.8664173","brandsList":["chrysler","dodge","jeep","ram"]},{"id":3434,"crm_id":67072270,"name":"Cox Motor Company","dealerSlug":"cox+motor+company","city_state_slug":"Pleasanton.KS","brand":"Ford","website":"www.coxmotor.com","address":"427 Cobra Drive","city":"Pleasanton","state":"KS","zip":66075,"latitude":38.1817604,"longitude":-94.703118,"phone_number_service":"8668701288","phone_number_main":"9133528521","service_hours":"Mo-Fr 08:00 - 17:00 | Sa 08:00 - 13:00","utc_offset":"-300","gplace_id":null,"gplace_url":"https://maps.google.com/?cid=10804664519509751421","dealerID":73148,"trusted":false,"image_id":"v1597283967/ford_RM.png","phone":"8668701288","cityStateSlug":"pleasanton.ks","slug":"Pleasanton.KS/cox+motor+company","location":"38.1817604,-94.703118","brandsList":["ford"]},{"id":8581,"crm_id":67072276,"name":"Legends Toyota","dealerSlug":"legends+toyota","city_state_slug":"Kansas-City.KS","brand":"Toyota","website":"www.legendstoyota.com","address":"10100 Parallel Pkwy","city":"Kansas City","state":"KS","zip":66109,"latitude":39.1296747,"longitude":-94.8128625,"phone_number_service":"9132677929","phone_number_main":"9132998600","service_hours":"Mo 07:00 - 19:00 | Tu 07:00 - 19:00 | We 07:00 - 19:00 | Th 07:00 - 19:00 | Fri 07:00 - 18:00 | Sa 07:00 - 18:00","utc_offset":"-300","gplace_id":null,"gplace_url":"https://maps.google.com/?cid=5043259906518798580","dealerID":73149,"trusted":false,"image_id":"v1597284039/toyota_ms.png","phone":"9132677929","cityStateSlug":"kansas-city.ks","slug":"Kansas-City.KS/legends+toyota","location":"39.1296747,-94.8128625","brandsList":["toyota"]},{"id":1047,"crm_id":67072291,"name":"Baron BMW","dealerSlug":"baron+bmw","city_state_slug":"Merriam.KS","brand":"BMW","website":"www.baronbmw.com","address":"9010 Shawnee Mission Pkwy","city":"Merriam","state":"KS","zip":66202,"latitude":39.0161206,"longitude":-94.6916291,"phone_number_service":"9136711313","phone_number_main":"9136711313","service_hours":"Mo-Fr 07:00 - 18:00 | Sa 08:00 - 17:00","utc_offset":"-300","gplace_id":null,"gplace_url":"https://maps.google.com/?cid=4632087322212011879","dealerID":51597,"trusted":true,"image_id":"v1597283982/bmw_RM.png","phone":"9136711313","cityStateSlug":"merriam.ks","slug":"Merriam.KS/baron+bmw","location":"39.0161206,-94.6916291","brandsList":["bmw"]},{"id":13110,"crm_id":67072297,"name":"Shawnee Mission KIA","dealerSlug":"shawnee+mission+kia","city_state_slug":"Merriam.KS","brand":"Kia","website":"www.shawneemissionkia.com","address":"7951 Shawnee Mission Pkwy","city":"Merriam","state":"KS","zip":66202,"latitude":39.0142384,"longitude":-94.6775365,"phone_number_service":"9132615353","phone_number_main":"9133849100","service_hours":"Mo-Fr 07:00 - 18:00 | Sa 08:00 - 16:00","utc_offset":"-300","gplace_id":null,"gplace_url":"https://maps.google.com/?cid=1347869777600100962","dealerID":73151,"trusted":false,"image_id":"v1597283948/kia_RM.png","phone":"9132615353","cityStateSlug":"merriam.ks","slug":"Merriam.KS/shawnee+mission+kia","location":"39.0142384,-94.6775365","brandsList":["kia"]},{"id":8309,"crm_id":67072312,"name":"Land Rover Merriam","dealerSlug":"land+rover+merriam","city_state_slug":"Merriam.KS","brand":"Land Rover","website":"www.aristocratlandrover.com","address":"9415 W 65th St","city":"Merriam","state":"KS","zip":66203,"latitude":39.011174,"longitude":-94.694474,"phone_number_service":"9137129797","phone_number_main":"9136773300","service_hours":"Mo-Fr 08:00 - 17:30 | Sa 07:00 - 18:00","utc_offset":"-300","gplace_id":null,"gplace_url":"https://maps.google.com/?cid=8837941378060148914","dealerID":73152,"trusted":false,"image_id":"v1597283945/landrover_RM.png","phone":"9137129797","cityStateSlug":"merriam.ks","slug":"Merriam.KS/land+rover+merriam","location":"39.011174,-94.694474","brandsList":["land rover"]},{"id":6288,"crm_id":67072330,"name":"Hendrick Toyota of Merriam","dealerSlug":"hendrick+toyota+of+merriam","city_state_slug":"Merriam.KS","brand":"Toyota","website":"www.hendricktoyotamerriam.com","address":"9505 W 67th St","city":"Merriam","state":"KS","zip":66203,"latitude":39.0062001,"longitude":-94.6961006,"phone_number_service":"8552003813","phone_number_main":"9138310800","service_hours":"Mo-Sa 07:00 - 19:00","utc_offset":"-300","gplace_id":null,"gplace_url":"https://maps.google.com/?cid=10402904433252968501","dealerID":73153,"trusted":false,"image_id":"v1597284039/toyota_ms.png","phone":"8552003813","cityStateSlug":"merriam.ks","slug":"Merriam.KS/hendrick+toyota+of+merriam","location":"39.0062001,-94.6961006","brandsList":["toyota"]},{"id":10932,"crm_id":67072339,"name":"O'Neill Honda","dealerSlug":"oneill+honda","city_state_slug":"Overland-Park.KS","brand":"Honda","website":"www.oneillhonda.com","address":"7979 Metcalf Ave","city":"Overland Park","state":"KS","zip":66204,"latitude":38.9843756,"longitude":-94.6669902,"phone_number_service":"8447137968","phone_number_main":"9136485400","service_hours":"Mo Closed | Tu-Fr 08:00 - 17:30 | Sa 08:00 - 17:30","utc_offset":"-300","gplace_id":null,"gplace_url":"https://maps.google.com/?cid=12823346338608851615","dealerID":73154,"trusted":false,"image_id":"v1597284047/honda_ms.png","phone":"8447137968","cityStateSlug":"overland-park.ks","slug":"Overland-Park.KS/oneill+honda","location":"38.9843756,-94.6669902","brandsList":["honda"]},{"id":12188,"crm_id":67072348,"name":"Reed Jeep Chrysler Dodge RAM of Overland Park","dealerSlug":"reed+jeep+chrysler+dodge+ram+of+overland+park","city_state_slug":"Overland-Park.KS","brand":"Chrysler,Dodge,Jeep,RAM","website":"www.reedjeep.com","address":"8775 Metcalf Ave","city":"Overland Park","state":"KS","zip":66212,"latitude":38.9699587,"longitude":-94.6665909,"phone_number_service":"9132130402","phone_number_main":"9133818100","service_hours":"Mo-Fr 07:00 -18:00 | Sa 07:30 -14:30","utc_offset":"-300","gplace_id":null,"gplace_url":"https://maps.google.com/?cid=11691805257558983239","dealerID":73155,"trusted":false,"image_id":"v1597283975/chrysler_RM.png","phone":"9132130402","cityStateSlug":"overland-park.ks","slug":"Overland-Park.KS/reed+jeep+chrysler+dodge+ram+of+overland+park","location":"38.9699587,-94.6665909","brandsList":["chrysler","dodge","jeep","ram"]},{"id":9470,"crm_id":67072357,"name":"McCarthy-Morse Chevrolet","dealerSlug":"mccarthy+morse+chevrolet","city_state_slug":"Overland-Park.KS","brand":"Chevrolet","website":"www.mccarthymorsechevrolet.com","address":"9201 Metcalf Ave","city":"Overland Park","state":"KS","zip":66212,"latitude":38.9619352,"longitude":-94.6666236,"phone_number_service":"9136498555","phone_number_main":"9136496000","service_hours":"Mo-Fr 07:00 - 18:00 | Sa 07:00 - 15:00","utc_offset":"-300","gplace_id":null,"gplace_url":"https://maps.google.com/?cid=5174143511644341826","dealerID":73156,"trusted":false,"image_id":"v1597284079/chevy_ms.png","phone":"9136498555","cityStateSlug":"overland-park.ks","slug":"Overland-Park.KS/mccarthy+morse+chevrolet","location":"38.9619352,-94.6666236","brandsList":["chevrolet"]},{"id":8537,"crm_id":67072369,"name":"Lee Chevrolet","dealerSlug":"lee+chevrolet","city_state_slug":"Frankfort.KS","brand":"Chevrolet","website":"www.leechev.com","address":"210 N Locust St","city":"Frankfort","state":"KS","zip":66427,"latitude":39.7030545,"longitude":-96.4172285,"phone_number_service":"7852924802","phone_number_main":"7852924802","service_hours":"Mo-Fr 08:00 - 17:00","utc_offset":"-300","gplace_id":null,"gplace_url":"https://maps.google.com/?cid=2744730789349256604","dealerID":73157,"trusted":false,"image_id":"v1597284079/chevy_ms.png","phone":"7852924802","cityStateSlug":"frankfort.ks","slug":"Frankfort.KS/lee+chevrolet","location":"39.7030545,-96.4172285","brandsList":["chevrolet"]},{"id":6430,"crm_id":67072375,"name":"Hiawatha Ford","dealerSlug":"hiawatha+ford","city_state_slug":"Hiawatha.KS","brand":"Ford","website":"www.hiawathaford.com","address":"1812 Oregon St","city":"Hiawatha","state":"KS","zip":66434,"latitude":39.8514971,"longitude":-95.5572952,"phone_number_service":"8778866497","phone_number_main":"7857427128","service_hours":"Mo-Fr 08:00 - 17:00 | Sa 08:00 - 12:00","utc_offset":"-300","gplace_id":null,"gplace_url":"https://maps.google.com/?cid=17188067644877314604","dealerID":73158,"trusted":false,"image_id":"v1597283967/ford_RM.png","phone":"8778866497","cityStateSlug":"hiawatha.ks","slug":"Hiawatha.KS/hiawatha+ford","location":"39.8514971,-95.5572952","brandsList":["ford"]},{"id":4199,"crm_id":67072384,"name":"Doug Richert Chevrolet Buick","dealerSlug":"doug+richert+chevrolet+buick","city_state_slug":"Holton.KS","brand":"Buick,Chevrolet","website":"www.dougrichertchevybuick.com","address":"306 New York Ave","city":"Holton","state":"KS","zip":66436,"latitude":39.4624304,"longitude":-95.7358649,"phone_number_service":"7857271112","phone_number_main":"7853643156","service_hours":"Mo-Fr 07:30 - 17:00 | Sa 7:00 - 12:00","utc_offset":"-300","gplace_id":null,"gplace_url":"https://maps.google.com/?cid=10417129598568048322","dealerID":73159,"trusted":false,"image_id":"v1597283981/buick_RM.png","phone":"7857271112","cityStateSlug":"holton.ks","slug":"Holton.KS/doug+richert+chevrolet+buick","location":"39.4624304,-95.7358649","brandsList":["buick","chevrolet"]},{"id":5034,"crm_id":67072393,"name":"Foster Ford","dealerSlug":"foster+ford","city_state_slug":"Holton.KS","brand":"Ford","website":"www.fosterfordinc.com","address":"311 Arizona Ave","city":"Holton","state":"KS","zip":66436,"latitude":39.4613151,"longitude":-95.7488556,"phone_number_service":"8888023012","phone_number_main":"7853644646","service_hours":"Mo-Fr 08:00 - 17:00 | Sa 08:00 - 12:00","utc_offset":"-300","gplace_id":null,"gplace_url":"https://maps.google.com/?cid=5486932003622982852","dealerID":73160,"trusted":false,"image_id":"v1597283967/ford_RM.png","phone":"8888023012","cityStateSlug":"holton.ks","slug":"Holton.KS/foster+ford","location":"39.4613151,-95.7488556","brandsList":["ford"]},{"id":4910,"crm_id":67072462,"name":"Flint Hills Ford","dealerSlug":"flint+hills+ford","city_state_slug":"Manhattan.KS","brand":"Ford","website":"www.flinthillsford.com/","address":"7929 East Highway #24","city":"Manhattan","state":"KS","zip":66502,"latitude":39.192588,"longitude":-96.529695,"phone_number_service":"7857764004","phone_number_main":"7857764004","service_hours":"Mo-Fr 07:30 - 18:00 | Sa 08:00 - 13:00","utc_offset":"-300","gplace_id":null,"gplace_url":"https://maps.google.com/?cid=9586798281739809240","dealerID":73161,"trusted":false,"image_id":"v1597283967/ford_RM.png","phone":"7857764004","cityStateSlug":"manhattan.ks","slug":"Manhattan.KS/flint+hills+ford","location":"39.192588,-96.529695","brandsList":["ford"]},{"id":4911,"crm_id":67072468,"name":"Flint Hills Hyundai","dealerSlug":"flint+hills+hyundai","city_state_slug":"Manhattan.KS","brand":"Hyundai","website":"www.flinthillshyundai.com","address":"7920 E US-24","city":"Manhattan","state":"KS","zip":66502,"latitude":39.192588,"longitude":-96.529695,"phone_number_service":"7853369106","phone_number_main":"7857764004","service_hours":"Mo-Fr 08:30 - 19:00 | Sa 08:30 - 18:00","utc_offset":"-300","gplace_id":null,"gplace_url":"https://maps.google.com/?cid=13879528244987263040","dealerID":73162,"trusted":false,"image_id":"v1597283959/hyundai_RM.png","phone":"7853369106","cityStateSlug":"manhattan.ks","slug":"Manhattan.KS/flint+hills+hyundai","location":"39.192588,-96.529695","brandsList":["hyundai"]},{"id":10773,"crm_id":67072492,"name":"Nordhus Motors","dealerSlug":"nordhus+motors","city_state_slug":"Marysville.KS","brand":"Buick,Chevrolet","website":"www.nordhusmotors.com","address":"1406 Center St","city":"Marysville","state":"KS","zip":66508,"latitude":39.8424285,"longitude":-96.6399772,"phone_number_service":"7855622383","phone_number_main":"7855622383","service_hours":"Mo-Fr 08:00 - 17:30","utc_offset":"-300","gplace_id":null,"gplace_url":"https://maps.google.com/?cid=12425230746926420030","dealerID":73163,"trusted":false,"image_id":"v1597283981/buick_RM.png","phone":"7855622383","cityStateSlug":"marysville.ks","slug":"Marysville.KS/nordhus+motors","location":"39.8424285,-96.6399772","brandsList":["buick","chevrolet"]},{"id":35,"crm_id":67072513,"name":"Aberle Ford","dealerSlug":"aberle+ford","city_state_slug":"Sabetha.KS","brand":"Ford","website":"www.aberleford.com","address":"1025 Main St","city":"Sabetha","state":"KS","zip":66534,"latitude":39.9031548,"longitude":-95.8033816,"phone_number_service":"8888585330","phone_number_main":"7852843122","service_hours":"Mo-Fr 07:00 - 17:00","utc_offset":"-300","gplace_id":null,"gplace_url":"https://maps.google.com/?cid=15377111679323612794","dealerID":73164,"trusted":false,"image_id":"v1597283967/ford_RM.png","phone":"8888585330","cityStateSlug":"sabetha.ks","slug":"Sabetha.KS/aberle+ford","location":"39.9031548,-95.8033816","brandsList":["ford"]},{"id":12331,"crm_id":67072522,"name":"Rick Honeyman Ford","dealerSlug":"rick+honeyman+ford","city_state_slug":"Seneca.KS","brand":"Ford","website":"www.honeymanford.com","address":"208 North St Hwy 36","city":"Seneca","state":"KS","zip":66538,"latitude":39.8410124,"longitude":-96.0593569,"phone_number_service":"8883495219","phone_number_main":"7853362171","service_hours":"Mo-Fr 08:00 - 17:30 | Sa 08:00 - 12:00","utc_offset":"-300","gplace_id":null,"gplace_url":"https://maps.google.com/?cid=17230957572975007041","dealerID":73165,"trusted":false,"image_id":"v1597283967/ford_RM.png","phone":"8883495219","cityStateSlug":"seneca.ks","slug":"Seneca.KS/rick+honeyman+ford","location":"39.8410124,-96.0593569","brandsList":["ford"]},{"id":8180,"crm_id":67072531,"name":"Laird Noller Topeka Ford","dealerSlug":"laird+noller+topeka+ford","city_state_slug":"Topeka.KS","brand":"Ford","website":"www.nollerford-topeka.com","address":"2245 SW Topeka Blvd","city":"Topeka","state":"KS","zip":66611,"latitude":39.0281403,"longitude":-95.6839636,"phone_number_service":"7852467010","phone_number_main":"7852359211","service_hours":"Mo-Fr 07:00 - 18:00 | Sa 07:00 - 15:00","utc_offset":"-300","gplace_id":null,"gplace_url":"https://maps.google.com/?cid=4851356829778455668","dealerID":73166,"trusted":false,"image_id":"v1597283967/ford_RM.png","phone":"7852467010","cityStateSlug":"topeka.ks","slug":"Topeka.KS/laird+noller+topeka+ford","location":"39.0281403,-95.6839636","brandsList":["ford"]},{"id":2134,"crm_id":67072543,"name":"Briggs Dodge RAM Fiat","dealerSlug":"briggs+dodge+ram+fiat","city_state_slug":"Topeka.KS","brand":"Dodge,RAM,Fiat","website":"www.briggsdodge.net/","address":"3001 S Kansas Ave","city":"Topeka","state":"KS","zip":66611,"latitude":39.0124981,"longitude":-95.6852518,"phone_number_service":"7852468011","phone_number_main":"7852663333","service_hours":"Mo-Fr 07:00-18:00 | Sa 07:00-14:00","utc_offset":"-300","gplace_id":null,"gplace_url":"https://maps.google.com/?cid=502906421272375224","dealerID":73167,"trusted":false,"image_id":"v1597283974/dodge.png","phone":"7852468011","cityStateSlug":"topeka.ks","slug":"Topeka.KS/briggs+dodge+ram+fiat","location":"39.0124981,-95.6852518","brandsList":["dodge","ram","fiat"]},{"id":15056,"crm_id":67072555,"name":"Volkswagen of Topeka","dealerSlug":"volkswagen+of+topeka","city_state_slug":"Topeka.KS","brand":"Volkswagen","website":"www.vwtopeka.com","address":"3030 S Kansas Ave","city":"Topeka","state":"KS","zip":66611,"latitude":39.012826,"longitude":-95.6812891,"phone_number_service":"7857274008","phone_number_main":"7852668480","service_hours":"Mo-Fr 09:00 - 18:00 | Sa 09:00 - 17:00","utc_offset":"-300","gplace_id":null,"gplace_url":"https://maps.google.com/?cid=14119069636751314802","dealerID":73168,"trusted":false,"image_id":"v1597283902/volkswagen.png","phone":"7857274008","cityStateSlug":"topeka.ks","slug":"Topeka.KS/volkswagen+of+topeka","location":"39.012826,-95.6812891","brandsList":["volkswagen"]},{"id":2135,"crm_id":67072582,"name":"Briggs Ford of Fort Scott","dealerSlug":"briggs+ford+of+fort+scott","city_state_slug":"Fort-Scott.KS","brand":"Ford","website":"www.briggsoffortscottks.com","address":"1819 S Main St","city":"Fort Scott","state":"KS","zip":66701,"latitude":37.8182233,"longitude":-94.7049909,"phone_number_service":"6206443353","phone_number_main":"6206443406","service_hours":"Mo-Fr 07:00 - 17:30 | Sa 08:00 - 13:00","utc_offset":"-300","gplace_id":null,"gplace_url":"https://maps.google.com/?cid=11197761131391222990","dealerID":73169,"trusted":false,"image_id":"v1597283967/ford_RM.png","phone":"6206443353","cityStateSlug":"fort-scott.ks","slug":"Fort-Scott.KS/briggs+ford+of+fort+scott","location":"37.8182233,-94.7049909","brandsList":["ford"]},{"id":13161,"crm_id":67072606,"name":"Shields Motor Co","dealerSlug":"shields+motor+co","city_state_slug":"Chanute.KS","brand":"Chrysler,Dodge,Jeep,RAM","website":"www.shieldsmotorchryslerdodgejeep.com","address":"814 West Cherry Street","city":"Chanute","state":"KS","zip":66720,"latitude":37.6887397,"longitude":-95.4646676,"phone_number_service":"6204128088","phone_number_main":"6204310480","service_hours":"Mo-Fr 07:30 - 17:30","utc_offset":"-300","gplace_id":null,"gplace_url":"https://maps.google.com/?cid=16589005965448807962","dealerID":73170,"trusted":false,"image_id":"v1597283975/chrysler_RM.png","phone":"6204128088","cityStateSlug":"chanute.ks","slug":"Chanute.KS/shields+motor+co","location":"37.6887397,-95.4646676","brandsList":["chrysler","dodge","jeep","ram"]},{"id":14692,"crm_id":67072618,"name":"Twin Motors Ford","dealerSlug":"twin+motors+ford","city_state_slug":"Iola.KS","brand":"Ford","website":"www.twinmotorsford.net","address":"2501 N State St","city":"Iola","state":"KS","zip":66749,"latitude":37.9444161,"longitude":-95.4081674,"phone_number_service":"8888617970","phone_number_main":"6203653632","service_hours":"Mo-Fr  08:00 - 17:00 | Sa 08:00 - 13:00","utc_offset":"-300","gplace_id":null,"gplace_url":"https://maps.google.com/?cid=13820992935027074728","dealerID":73171,"trusted":false,"image_id":"v1597283967/ford_RM.png","phone":"8888617970","cityStateSlug":"iola.ks","slug":"Iola.KS/twin+motors+ford","location":"37.9444161,-95.4081674","brandsList":["ford"]},{"id":10001,"crm_id":67072627,"name":"Mike Carpino Ford Lincoln","dealerSlug":"mike+carpino+ford+lincoln","city_state_slug":"Pittsburg.KS","brand":"Ford,Lincoln","website":"www.mikecarpinofordlincoln.com","address":"1097 S Hwy 69","city":"Pittsburg","state":"KS","zip":66762,"latitude":37.368284,"longitude":-94.7108194,"phone_number_service":"8448326496","phone_number_main":"6202312450","service_hours":"Mo-Fr 07:30 - 17:30 | Sa 08:00 - 12:00","utc_offset":"-300","gplace_id":null,"gplace_url":"https://maps.google.com/?cid=15186869605735920804","dealerID":73172,"trusted":false,"image_id":"v1597283967/ford_RM.png","phone":"8448326496","cityStateSlug":"pittsburg.ks","slug":"Pittsburg.KS/mike+carpino+ford+lincoln","location":"37.368284,-94.7108194","brandsList":["ford","lincoln"]},{"id":3077,"crm_id":67072636,"name":"Clint Bowyer Toyota","dealerSlug":"clint+bowyer+toyota","city_state_slug":"Emporia.KS","brand":"Toyota","website":"clintbowyertoyota.com","address":"2815 West Highway 50","city":"Emporia","state":"KS","zip":66801,"latitude":38.4081983,"longitude":-96.2185465,"phone_number_service":"8883198098","phone_number_main":"6203436723","service_hours":"Mo-Fr 07:30 - 17:30 | Sa 08:00 - 13:00","utc_offset":"-300","gplace_id":null,"gplace_url":"https://maps.google.com/?cid=2017167648790154751","dealerID":73173,"trusted":false,"image_id":"v1597284039/toyota_ms.png","phone":"8883198098","cityStateSlug":"emporia.ks","slug":"Emporia.KS/clint+bowyer+toyota","location":"38.4081983,-96.2185465","brandsList":["toyota"]},{"id":8960,"crm_id":67072651,"name":"Longbine Auto Plaza","dealerSlug":"longbine+auto+plaza","city_state_slug":"Emporia.KS","brand":"Buick,Chevrolet","website":"www.longbineauto.com","address":"3012 US-50","city":"Emporia","state":"KS","zip":66801,"latitude":38.4117369,"longitude":-96.2232851,"phone_number_service":"6207654277","phone_number_main":"8667595167","service_hours":"Mo-Fr 08:00 - 17:30 | Sa 08:00 - 13:00","utc_offset":"-300","gplace_id":null,"gplace_url":"https://maps.google.com/?cid=9122515822846450566","dealerID":73174,"trusted":false,"image_id":"v1597283981/buick_RM.png","phone":"6207654277","cityStateSlug":"emporia.ks","slug":"Emporia.KS/longbine+auto+plaza","location":"38.4117369,-96.2232851","brandsList":["buick","chevrolet"]},{"id":3532,"crm_id":67072660,"name":"Crow-Moddie Chevrolet","dealerSlug":"crow+moddie+chevrolet","city_state_slug":"Burlington.KS","brand":"Chevrolet","website":"www.crow-moddiechevrolet.com","address":"1120 S 4th St","city":"Burlington","state":"KS","zip":66839,"latitude":38.1851095,"longitude":-95.7396735,"phone_number_service":"6202633474","phone_number_main":"6202633474","service_hours":"Mo-Fr 07:30 - 17:30","utc_offset":"-300","gplace_id":null,"gplace_url":"https://maps.google.com/?cid=1639610377150271144","dealerID":73175,"trusted":false,"image_id":"v1597284079/chevy_ms.png","phone":"6202633474","cityStateSlug":"burlington.ks","slug":"Burlington.KS/crow+moddie+chevrolet","location":"38.1851095,-95.7396735","brandsList":["chevrolet"]},{"id":15772,"crm_id":67072675,"name":"Zeller Motors","dealerSlug":"zeller+motors","city_state_slug":"Arkansas-City.KS","brand":"Chrysler,Dodge,Jeep,RAM","website":"www.zellermotors.com","address":"3021 N Summit St","city":"Arkansas City","state":"KS","zip":67005,"latitude":37.0947567,"longitude":-97.0411906,"phone_number_service":"6205060025","phone_number_main":"6204428650","service_hours":"Mo-Fr  08:00 - 17:00","utc_offset":"-300","gplace_id":null,"gplace_url":"https://maps.google.com/?cid=3794124567526593583","dealerID":73176,"trusted":false,"image_id":"v1597283975/chrysler_RM.png","phone":"6205060025","cityStateSlug":"arkansas-city.ks","slug":"Arkansas-City.KS/zeller+motors","location":"37.0947567,-97.0411906","brandsList":["chrysler","dodge","jeep","ram"]},{"id":4106,"crm_id":67072687,"name":"Don Hattan Ford","dealerSlug":"don+hattan+ford","city_state_slug":"Augusta.KS","brand":"Ford","website":"www.donhattanford.com/","address":"10004 SW HWY 54","city":"Augusta","state":"KS","zip":67010,"latitude":37.6806058,"longitude":-97.0268952,"phone_number_service":"8887412329","phone_number_main":"3167753673","service_hours":"Mo-Fr 07:00 - 18:00 | Sa 08:00 - 13:00","utc_offset":"-300","gplace_id":null,"gplace_url":"https://maps.google.com/?cid=11452226364185885091","dealerID":73177,"trusted":false,"image_id":"v1597283967/ford_RM.png","phone":"8887412329","cityStateSlug":"augusta.ks","slug":"Augusta.KS/don+hattan+ford","location":"37.6806058,-97.0268952","brandsList":["ford"]},{"id":11207,"crm_id":67072696,"name":"Parks Motors","dealerSlug":"parks+motors","city_state_slug":"Augusta.KS","brand":"Chrysler,Dodge,Jeep,RAM","website":"www.parksmotors.com","address":"11987 SW US Hwy 54","city":"Augusta","state":"KS","zip":67010,"latitude":37.6788292,"longitude":-97.060236,"phone_number_service":"3167754380","phone_number_main":"3167756365","service_hours":"Mo-Fr 07:30 - 18:00 | Sa 07:30 - 14:00","utc_offset":"-300","gplace_id":null,"gplace_url":"https://maps.google.com/?cid=10076036931136230820","dealerID":73178,"trusted":false,"image_id":"v1597283975/chrysler_RM.png","phone":"3167754380","cityStateSlug":"augusta.ks","slug":"Augusta.KS/parks+motors","location":"37.6788292,-97.060236","brandsList":["chrysler","dodge","jeep","ram"]},{"id":9014,"crm_id":67072705,"name":"Lubbers Cars","dealerSlug":"lubbers+cars","city_state_slug":"Cheney.KS","brand":"Chevrolet,Ford","website":"www.lubberscars.com","address":"944 N Main St","city":"Cheney","state":"KS","zip":67025,"latitude":37.6378547,"longitude":-97.7797768,"phone_number_service":"8007487107","phone_number_main":"8773266992","service_hours":"Mo-Fr 07:30 - 18:00 | Sa 08:00 - 17:00","utc_offset":"-300","gplace_id":null,"gplace_url":"https://maps.google.com/?cid=590630647053606400","dealerID":73179,"trusted":false,"image_id":"v1597284079/chevy_ms.png","phone":"8007487107","cityStateSlug":"cheney.ks","slug":"Cheney.KS/lubbers+cars","location":"37.6378547,-97.7797768","brandsList":["chevrolet","ford"]},{"id":10650,"crm_id":67072717,"name":"Newberry Family Auto","dealerSlug":"newberry+family+auto","city_state_slug":"Harper.KS","brand":"Chevrolet,Chrysler,Dodge,Jeep,RAM","website":"www.newberryfamilyauto.com","address":"890 KS-14","city":"Harper","state":"KS","zip":67058,"latitude":37.278595,"longitude":-98.0424625,"phone_number_service":"8886161109","phone_number_main":"6208967344","service_hours":"Mo-Fr 08:00 - 17:30","utc_offset":"-300","gplace_id":null,"gplace_url":"https://maps.google.com/?cid=11470207057974047497","dealerID":73180,"trusted":false,"image_id":"v1597284079/chevy_ms.png","phone":"8886161109","cityStateSlug":"harper.ks","slug":"Harper.KS/newberry+family+auto","location":"37.278595,-98.0424625","brandsList":["chevrolet","chrysler","dodge","jeep","ram"]},{"id":3266,"crm_id":67072753,"name":"Conklin Chevrolet Newton","dealerSlug":"conklin+chevrolet+newton","city_state_slug":"Newton.KS","brand":"Chevrolet","website":"www.conklinchevroletnewton.com","address":"1500 E 3rd Street","city":"Newton","state":"KS","zip":67114,"latitude":38.046593,"longitude":-97.320989,"phone_number_service":"3168424348","phone_number_main":"3162831220","service_hours":"Mo-Fr 07:00 - 17:00 | Sa 08:00 - 13:00","utc_offset":"-300","gplace_id":null,"gplace_url":"https://maps.google.com/?cid=4381446139118010285","dealerID":73181,"trusted":false,"image_id":"v1597284079/chevy_ms.png","phone":"3168424348","cityStateSlug":"newton.ks","slug":"Newton.KS/conklin+chevrolet+newton","location":"38.046593,-97.320989","brandsList":["chevrolet"]},{"id":3269,"crm_id":67072768,"name":"Conklin Ford Newton","dealerSlug":"conklin+ford+newton","city_state_slug":"Newton.KS","brand":"Ford","website":"www.conklinfordnewton.com","address":"1500 E. 3rd","city":"Newton","state":"KS","zip":67114,"latitude":38.0468584,"longitude":-97.3213246,"phone_number_service":"3164485157","phone_number_main":"3164259208","service_hours":"Mo-Fr 07:30 - 18:00 | Sa 08:00 - 12:00","utc_offset":"-300","gplace_id":null,"gplace_url":"https://maps.google.com/?cid=9863051509966115521","dealerID":73182,"trusted":false,"image_id":"v1597283967/ford_RM.png","phone":"3164485157","cityStateSlug":"newton.ks","slug":"Newton.KS/conklin+ford+newton","location":"38.0468584,-97.3213246","brandsList":["ford"]},{"id":12417,"crm_id":67072777,"name":"Robbins Motor Co of Newton","dealerSlug":"robbins+motor+co+of+newton","city_state_slug":"Newton.KS","brand":"Chrysler,Dodge,Jeep,RAM","website":"www.robbinsmotorsofnewton.com/","address":"1515 E Broadway Ct","city":"Newton","state":"KS","zip":67114,"latitude":38.0513193,"longitude":-97.3207356,"phone_number_service":"3162828094","phone_number_main":"3168048280","service_hours":"Mo-Fr 09:00 - 17:30","utc_offset":"-300","gplace_id":null,"gplace_url":"https://maps.google.com/?cid=8836372806426829054","dealerID":73183,"trusted":false,"image_id":"v1597283975/chrysler_RM.png","phone":"3162828094","cityStateSlug":"newton.ks","slug":"Newton.KS/robbins+motor+co+of+newton","location":"38.0513193,-97.3207356","brandsList":["chrysler","dodge","jeep","ram"]},{"id":8403,"crm_id":67072792,"name":"Lanterman Motors","dealerSlug":"lanterman+motors","city_state_slug":"Pratt.KS","brand":"Ford","website":"www.lantermanmotors.com","address":"1105 E 1st St","city":"Pratt","state":"KS","zip":67124,"latitude":37.6455618,"longitude":-98.7265237,"phone_number_service":"6206725516","phone_number_main":"6206725518","service_hours":"Mo-Fr 08:00 - 17:30 | Sa 08:00 - 12:00","utc_offset":"-300","gplace_id":null,"gplace_url":"https://maps.google.com/?cid=735809428783143428","dealerID":73184,"trusted":false,"image_id":"v1597283967/ford_RM.png","phone":"6206725516","cityStateSlug":"pratt.ks","slug":"Pratt.KS/lanterman+motors","location":"37.6455618,-98.7265237","brandsList":["ford"]},{"id":15567,"crm_id":67072813,"name":"Winfield Motor Company","dealerSlug":"winfield+motor+company","city_state_slug":"Winfield.KS","brand":"Chrysler,Dodge,Jeep,RAM","website":"www.winfieldautos.com","address":"1901 Main St","city":"Winfield","state":"KS","zip":67156,"latitude":37.2297623,"longitude":-96.9979777,"phone_number_service":"6202297214","phone_number_main":"6202212840","service_hours":"Mo-Fr  08:00 - 17:00","utc_offset":"-300","gplace_id":null,"gplace_url":"https://maps.google.com/?cid=4189739536078239285","dealerID":73185,"trusted":false,"image_id":"v1597283975/chrysler_RM.png","phone":"6202297214","cityStateSlug":"winfield.ks","slug":"Winfield.KS/winfield+motor+company","location":"37.2297623,-96.9979777","brandsList":["chrysler","dodge","jeep","ram"]},{"id":8762,"crm_id":67072825,"name":"Lexus of Wichita","dealerSlug":"lexus+of+wichita","city_state_slug":"Wichita.KS","brand":"Lexus","website":"www.lexusofwichita.com","address":"1555 N Greenwich Rd","city":"Wichita","state":"KS","zip":67206,"latitude":37.711106,"longitude":-97.2090075,"phone_number_service":"3167198650","phone_number_main":"3167792606","service_hours":"Mo-Fr 07:30 - 18:00","utc_offset":"-300","gplace_id":null,"gplace_url":"https://maps.google.com/?cid=4254308536920360464","dealerID":73186,"trusted":false,"image_id":"v1597284042/lexus_ms.png","phone":"3167198650","cityStateSlug":"wichita.ks","slug":"Wichita.KS/lexus+of+wichita","location":"37.711106,-97.2090075","brandsList":["lexus"]},{"id":13650,"crm_id":67072849,"name":"Steven INFINITI","dealerSlug":"steven+infiniti","city_state_slug":"Wichita.KS","brand":"INFINITI","website":"ww.steveninfiniti.com","address":"11213 East Kellogg Drive","city":"Wichita","state":"KS","zip":67207,"latitude":37.6780065,"longitude":-97.2071833,"phone_number_service":"3166520088","phone_number_main":"3162157451","service_hours":"Mo-Fr 07:30 - 18:00 | Sa 09:00 - 12:00","utc_offset":"-300","gplace_id":null,"gplace_url":"https://maps.google.com/?cid=8098816186293893466","dealerID":73187,"trusted":false,"image_id":"v1597283957/infiniti_RM.png","phone":"3166520088","cityStateSlug":"wichita.ks","slug":"Wichita.KS/steven+infiniti","location":"37.6780065,-97.2071833","brandsList":["infiniti"]},{"id":13793,"crm_id":67072864,"name":"Subaru of Wichita","dealerSlug":"subaru+of+wichita","city_state_slug":"Wichita.KS","brand":"Subaru","website":"www.ridehomehappy.com","address":"11610 E Kellogg Dr N","city":"Wichita","state":"KS","zip":67207,"latitude":37.6803877,"longitude":-97.2022272,"phone_number_service":"3166334937","phone_number_main":"3162647777","service_hours":"Mo-Fr 07:00 - 18:00 | Sa 07:00 - 13:00","utc_offset":"-300","gplace_id":null,"gplace_url":"https://maps.google.com/?cid=178761634994716177","dealerID":73188,"trusted":false,"image_id":"v1597283982/subaru_ms.png","phone":"3166334937","cityStateSlug":"wichita.ks","slug":"Wichita.KS/subaru+of+wichita","location":"37.6803877,-97.2022272","brandsList":["subaru"]},{"id":10058,"crm_id":67072873,"name":"Mike Steven Volkswagen","dealerSlug":"mike+steven+volkswagen","city_state_slug":"Wichita.KS","brand":"Volkswagen","website":"www.mikestevenvolkswagen.com","address":"11211 E Kellogg Dr N","city":"Wichita","state":"KS","zip":67207,"latitude":37.678397,"longitude":-97.206865,"phone_number_service":"3162157451","phone_number_main":"3162157451","service_hours":"Mo-Fr 07:30 - 18:00 | Sa 08:00 - 14:00","utc_offset":"-300","gplace_id":null,"gplace_url":"https://maps.google.com/?cid=8098816186293893466","dealerID":73189,"trusted":false,"image_id":"v1597283902/volkswagen.png","phone":"3162157451","cityStateSlug":"wichita.ks","slug":"Wichita.KS/mike+steven+volkswagen","location":"37.678397,-97.206865","brandsList":["volkswagen"]},{"id":4441,"crm_id":67072885,"name":"Eddy's Toyota of Wichita","dealerSlug":"eddys+toyota+of+wichita","city_state_slug":"Wichita.KS","brand":"Toyota","website":"www.eddystoyota.com","address":"7333 E Kellogg Dr","city":"Wichita","state":"KS","zip":67207,"latitude":37.6780195,"longitude":-97.2526165,"phone_number_service":"3166522222","phone_number_main":"3166522222","service_hours":"Mo-Fr 07:00 - 18:00 | Sa 07:00 - 13:00","utc_offset":"-300","gplace_id":null,"gplace_url":"https://maps.google.com/?cid=11703201164736780782","dealerID":73190,"trusted":false,"image_id":"v1597284039/toyota_ms.png","phone":"3166522222","cityStateSlug":"wichita.ks","slug":"Wichita.KS/eddys+toyota+of+wichita","location":"37.6780195,-97.2526165","brandsList":["toyota"]},{"id":208,"crm_id":67072894,"name":"Alfa Romeo of Wichita","dealerSlug":"alfa+romeo+of+wichita","city_state_slug":"Wichita.KS","brand":"Alfa Romeo","website":"www.alfaromeousaofwichita.com","address":"7525 E Kellogg Dr","city":"Wichita","state":"KS","zip":67207,"latitude":37.6785314,"longitude":-97.2491109,"phone_number_service":"3166182042","phone_number_main":"3166182191","service_hours":"Mo-Fr 08:00 - 18:00","utc_offset":"-300","gplace_id":null,"gplace_url":"https://maps.google.com/?cid=8432022616799656638","dealerID":73191,"trusted":false,"image_id":"v1597283991/Alfa-Romeo.jpg","phone":"3166182042","cityStateSlug":"wichita.ks","slug":"Wichita.KS/alfa+romeo+of+wichita","location":"37.6785314,-97.2491109","brandsList":["alfa romeo"]},{"id":3819,"crm_id":67072903,"name":"Davis-Moore Chrysler Dodge Jeep RAM FIAT","dealerSlug":"davis+moore+chrysler+dodge+jeep+ram+fiat","city_state_slug":"Wichita.KS","brand":"Chrysler,Dodge,Jeep,RAM,Fiat","website":"www.davis-moorecdjrf.com","address":"7675 E Kellogg Dr","city":"Wichita","state":"KS","zip":67207,"latitude":37.6781832,"longitude":-97.248261,"phone_number_service":"3162520187","phone_number_main":"3166182193","service_hours":"Mo-Fr 07:00 - 18:00 | Sa 07:00 - 17:00","utc_offset":"-300","gplace_id":null,"gplace_url":"https://maps.google.com/?cid=12871477530281760710","dealerID":73192,"trusted":false,"image_id":"v1597283975/chrysler_RM.png","phone":"3162520187","cityStateSlug":"wichita.ks","slug":"Wichita.KS/davis+moore+chrysler+dodge+jeep+ram+fiat","location":"37.6781832,-97.248261","brandsList":["chrysler","dodge","jeep","ram","fiat"]},{"id":4439,"crm_id":67072915,"name":"Eddy's Chrysler Dodge Jeep RAM","dealerSlug":"eddys+chrysler+dodge+jeep+ram","city_state_slug":"Wichita.KS","brand":"Chrysler,Dodge,Jeep,RAM","website":"www.eddyschryslerdodgejeepram.com","address":"11028 W Kellogg Dr","city":"Wichita","state":"KS","zip":67209,"latitude":37.6655311,"longitude":-97.4698715,"phone_number_service":"3167732022","phone_number_main":"3167732002","service_hours":"Mo-Fr 07:00 - 18:00 | Sa 07:00 - 13:00","utc_offset":"-300","gplace_id":null,"gplace_url":"https://maps.google.com/?cid=490668089053191375","dealerID":73193,"trusted":false,"image_id":"v1597283975/chrysler_RM.png","phone":"3167732022","cityStateSlug":"wichita.ks","slug":"Wichita.KS/eddys+chrysler+dodge+jeep+ram","location":"37.6655311,-97.4698715","brandsList":["chrysler","dodge","jeep","ram"]},{"id":3818,"crm_id":67072930,"name":"Davis-Moore Chevrolet","dealerSlug":"davis+moore+chevrolet","city_state_slug":"Wichita.KS","brand":"Chevrolet","website":"www.davis-moorechevrolet.com","address":"8200 W Kellogg Dr","city":"Wichita","state":"KS","zip":67209,"latitude":37.6736111,"longitude":-97.4372222,"phone_number_service":"3167120603","phone_number_main":"3167684874","service_hours":"Mo-Fr 07:00 - 18:00 | Sa 07:00 - 17:00","utc_offset":"-300","gplace_id":null,"gplace_url":"https://maps.google.com/?cid=13893300478824468896","dealerID":73194,"trusted":false,"image_id":"v1597284079/chevy_ms.png","phone":"3167120603","cityStateSlug":"wichita.ks","slug":"Wichita.KS/davis+moore+chevrolet","location":"37.6736111,-97.4372222","brandsList":["chevrolet"]},{"id":4442,"crm_id":67072972,"name":"Eddy's Volvo Cars of Wichita","dealerSlug":"eddys+volvo+cars+of+wichita","city_state_slug":"Wichita.KS","brand":"Volvo","website":"www.eddysvolvocarsofwichita.com","address":"3211 N Webb Rd","city":"Wichita","state":"KS","zip":67226,"latitude":37.742259,"longitude":-97.227342,"phone_number_service":"3167715325","phone_number_main":"3167715325","service_hours":"Mo-Fr 07:00 - 18:00 | Sa 08:00 - 13:00","utc_offset":"-300","gplace_id":null,"gplace_url":"https://maps.google.com/?cid=11961120081064946106","dealerID":73195,"trusted":false,"image_id":"v1597283901/volvo.jpg","phone":"3167715325","cityStateSlug":"wichita.ks","slug":"Wichita.KS/eddys+volvo+cars+of+wichita","location":"37.742259,-97.227342","brandsList":["volvo"]},{"id":3271,"crm_id":67073002,"name":"Conklin Honda Salina","dealerSlug":"conklin+honda+salina","city_state_slug":"Salina.KS","brand":"Honda","website":"www.conklinhondasalina.com","address":"2700 S 9th St","city":"Salina","state":"KS","zip":67401,"latitude":38.7901768,"longitude":-97.6144045,"phone_number_service":"8665331458","phone_number_main":"7852013517","service_hours":"Mo-Fr 07:00 - 17:00 | Sa 08:00 - 13:00","utc_offset":"-300","gplace_id":null,"gplace_url":"https://maps.google.com/?cid=14223698340340494133","dealerID":73196,"trusted":false,"image_id":"v1597284047/honda_ms.png","phone":"8665331458","cityStateSlug":"salina.ks","slug":"Salina.KS/conklin+honda+salina","location":"38.7901768,-97.6144045","brandsList":["honda"]},{"id":3274,"crm_id":67073008,"name":"Conklin Toyota Salina","dealerSlug":"conklin+toyota+salina","city_state_slug":"Salina.KS","brand":"Toyota","website":"www.conklintoyotasalina.com","address":"2700 S 9th St","city":"Salina","state":"KS","zip":67401,"latitude":38.789633,"longitude":-97.613878,"phone_number_service":"8883797903","phone_number_main":"8883590406","service_hours":"Mo-Fr 07:00 - 18:00 | Sa 08:00 - 13:00","utc_offset":"-300","gplace_id":null,"gplace_url":"https://maps.google.com/?cid=16246459692189977144","dealerID":73197,"trusted":false,"image_id":"v1597284039/toyota_ms.png","phone":"8883797903","cityStateSlug":"salina.ks","slug":"Salina.KS/conklin+toyota+salina","location":"38.789633,-97.613878","brandsList":["toyota"]},{"id":6526,"crm_id":67073026,"name":"Holm Buick GMC","dealerSlug":"holm+buick+gmc","city_state_slug":"Salina.KS","brand":"Buick,GMC","website":"www.holmbuickgmc.com/","address":"651 S Ohio St","city":"Salina","state":"KS","zip":67401,"latitude":38.8283964,"longitude":-97.5933614,"phone_number_service":"7859144355","phone_number_main":"7858236372","service_hours":"Mo-Fr 07:30 - 17:30","utc_offset":"-300","gplace_id":null,"gplace_url":"https://maps.google.com/?cid=14999642037266612000","dealerID":73198,"trusted":false,"image_id":"v1597283981/buick_RM.png","phone":"7859144355","cityStateSlug":"salina.ks","slug":"Salina.KS/holm+buick+gmc","location":"38.8283964,-97.5933614","brandsList":["buick","gmc"]},{"id":1207,"crm_id":67073038,"name":"Beloit Auto and Truck Plaza","dealerSlug":"beloit+auto+and+truck+plaza","city_state_slug":"Beloit.KS","brand":"Ford","website":"www.beloitautoandtruckplazainc.com","address":"3133 US Hwy 24","city":"Beloit","state":"KS","zip":67420,"latitude":39.459697,"longitude":-98.090336,"phone_number_service":"8007488408","phone_number_main":"8007488408","service_hours":"Mo-Fr 08:00 - 17:00","utc_offset":"-300","gplace_id":null,"gplace_url":"https://maps.google.com/?cid=4673467500143137712","dealerID":73199,"trusted":false,"image_id":"v1597283967/ford_RM.png","phone":"8007488408","cityStateSlug":"beloit.ks","slug":"Beloit.KS/beloit+auto+and+truck+plaza","location":"39.459697,-98.090336","brandsList":["ford"]},{"id":9969,"crm_id":67073059,"name":"Midway Motors Chrysler, Jeep, Dodge","dealerSlug":"midway+motors+chrysler+jeep+dodge","city_state_slug":"McPherson.KS","brand":"Chrysler,Dodge,Jeep,RAM","website":"www.midwaymotorschrysler.com","address":"2075 E Kansas Ave #2","city":"McPherson","state":"KS","zip":67460,"latitude":38.371599,"longitude":-97.631925,"phone_number_service":"6202421870","phone_number_main":"6202416500","service_hours":"Mo-Fr 08:00 - 17:30 | Sa 08:00 - 12:00","utc_offset":"-300","gplace_id":null,"gplace_url":"https://maps.google.com/?cid=13580477394307205986","dealerID":73200,"trusted":false,"image_id":"v1597283975/chrysler_RM.png","phone":"6202421870","cityStateSlug":"mcpherson.ks","slug":"McPherson.KS/midway+motors+chrysler+jeep+dodge","location":"38.371599,-97.631925","brandsList":["chrysler","dodge","jeep","ram"]},{"id":9968,"crm_id":67073068,"name":"Midway Motors Chevrolet Buick GMC in McPherson","dealerSlug":"midway+motors+chevrolet+buick+gmc+in+mcpherson","city_state_slug":"McPherson.KS","brand":"Buick,Chevrolet,GMC","website":"www.midwaymotorsgm.com","address":"2045 E. Kansas Ave","city":"McPherson","state":"KS","zip":67460,"latitude":38.3714132,"longitude":-97.6354027,"phone_number_service":"8778526179","phone_number_main":"6202412540","service_hours":"Mo-Fr 07:30 - 17:30 | Sa 07:30 - 12:00","utc_offset":"-300","gplace_id":null,"gplace_url":"https://maps.google.com/?cid=15854130626535299591","dealerID":73201,"trusted":false,"image_id":"v1597283981/buick_RM.png","phone":"8778526179","cityStateSlug":"mcpherson.ks","slug":"McPherson.KS/midway+motors+chevrolet+buick+gmc+in+mcpherson","location":"38.3714132,-97.6354027","brandsList":["buick","chevrolet","gmc"]},{"id":267,"crm_id":67073092,"name":"Allen Samuels Chrysler Dodge Jeep RAM","dealerSlug":"allen+samuels+chrysler+dodge+jeep+ram","city_state_slug":"Hutchinson.KS","brand":"Chrysler,Dodge,Jeep,RAM","website":"www.allensamuelshutch.com","address":"1421 E 30th Ave","city":"Hutchinson","state":"KS","zip":67502,"latitude":38.0859405,"longitude":-97.9026979,"phone_number_service":"6206655567","phone_number_main":"6206655567","service_hours":"Mo-Fr 07:00 - 18:00 | Sa 07:00 - 13:00","utc_offset":"-300","gplace_id":null,"gplace_url":"https://maps.google.com/?cid=12610705377238153717","dealerID":73202,"trusted":false,"image_id":"v1597283975/chrysler_RM.png","phone":"6206655567","cityStateSlug":"hutchinson.ks","slug":"Hutchinson.KS/allen+samuels+chrysler+dodge+jeep+ram","location":"38.0859405,-97.9026979","brandsList":["chrysler","dodge","jeep","ram"]},{"id":9290,"crm_id":67073107,"name":"Marmie Chrysler Dodge Jeep RAM","dealerSlug":"marmie+chrysler+dodge+jeep+ram","city_state_slug":"Great-Bend.KS","brand":"Chrysler,Dodge,Jeep,RAM","website":"www.marmiechrysler.com","address":"1724 10th St","city":"Great Bend","state":"KS","zip":67530,"latitude":38.3615164,"longitude":-98.7619201,"phone_number_service":"8442847289","phone_number_main":"6207922571","service_hours":"Mo-Fr 07:00 - 18:00 | Sa 07:00 - 14:00","utc_offset":"-300","gplace_id":null,"gplace_url":"https://maps.google.com/?cid=4098249651594386526","dealerID":73203,"trusted":false,"image_id":"v1597283975/chrysler_RM.png","phone":"8442847289","cityStateSlug":"great-bend.ks","slug":"Great-Bend.KS/marmie+chrysler+dodge+jeep+ram","location":"38.3615164,-98.7619201","brandsList":["chrysler","dodge","jeep","ram"]},{"id":9289,"crm_id":67073119,"name":"Marmie Chevrolet Buick GMC Cadillac","dealerSlug":"marmie+chevrolet+buick+gmc+cadillac","city_state_slug":"Great-Bend.KS","brand":"Buick,Cadillac,Chevrolet,GMC","website":"www.marmiegm.com","address":"4217 10th St","city":"Great Bend","state":"KS","zip":67530,"latitude":38.36135,"longitude":-98.7953972,"phone_number_service":"6206030477","phone_number_main":"6207928266","service_hours":"Mo-Fr 07:30 - 17:30 | Sa 07:30 - 12:00","utc_offset":"-300","gplace_id":null,"gplace_url":"https://maps.google.com/?cid=667778258293197478","dealerID":73204,"trusted":false,"image_id":"v1597283981/buick_RM.png","phone":"6206030477","cityStateSlug":"great-bend.ks","slug":"Great-Bend.KS/marmie+chevrolet+buick+gmc+cadillac","location":"38.36135,-98.7953972","brandsList":["buick","cadillac","chevrolet","gmc"]},{"id":9220,"crm_id":67073131,"name":"Manweiler Chevrolet","dealerSlug":"manweiler+chevrolet","city_state_slug":"Hoisington.KS","brand":"Chevrolet","website":"www.mchevy.com","address":"271 S Main St","city":"Hoisington","state":"KS","zip":67544,"latitude":38.5119444,"longitude":-98.7777778,"phone_number_service":"6206532121","phone_number_main":"6206532121","service_hours":"Mo-Fr 08:00 - 17:30| Sa 08:00 - 12:00","utc_offset":"-300","gplace_id":null,"gplace_url":"https://maps.google.com/?cid=3990891435249783034","dealerID":73205,"trusted":false,"image_id":"v1597284079/chevy_ms.png","phone":"6206532121","cityStateSlug":"hoisington.ks","slug":"Hoisington.KS/manweiler+chevrolet","location":"38.5119444,-98.7777778","brandsList":["chevrolet"]},{"id":7217,"crm_id":67073140,"name":"Janssen Ford of Larned","dealerSlug":"janssen+ford+of+larned","city_state_slug":"Larned.KS","brand":"Ford","website":"www.janssenfordoflarned.com","address":"820 Fort Larned Ave","city":"Larned","state":"KS","zip":67550,"latitude":38.189545,"longitude":-99.109171,"phone_number_service":"8772320668","phone_number_main":"6202853123","service_hours":"Mo-Fr 07:30 - 17:30 | Sa 07:30 - 12:00","utc_offset":"-300","gplace_id":null,"gplace_url":"https://maps.google.com/?cid=10552160061884786448","dealerID":73206,"trusted":false,"image_id":"v1597283967/ford_RM.png","phone":"8772320668","cityStateSlug":"larned.ks","slug":"Larned.KS/janssen+ford+of+larned","location":"38.189545,-99.109171","brandsList":["ford"]},{"id":8666,"crm_id":67073149,"name":"Lewis Toyota of Hays","dealerSlug":"lewis+toyota+of+hays","city_state_slug":"Hays.KS","brand":"Toyota","website":"www.lewistoyotaofhays.com","address":"4440 North Vine St","city":"Hays","state":"KS","zip":67601,"latitude":38.9032984,"longitude":-99.3162479,"phone_number_service":"7856283359","phone_number_main":"7856283359","service_hours":"Mo-Fr 07:30 - 17:30 | Sa 08:00- 12:00","utc_offset":"-300","gplace_id":null,"gplace_url":"https://maps.google.com/?cid=316281318287471228","dealerID":73207,"trusted":false,"image_id":"v1597284039/toyota_ms.png","phone":"7856283359","cityStateSlug":"hays.ks","slug":"Hays.KS/lewis+toyota+of+hays","location":"38.9032984,-99.3162479","brandsList":["toyota"]},{"id":8660,"crm_id":67073158,"name":"Lewis Chrysler-Dodge-Jeep of Hays","dealerSlug":"lewis+chrysler+dodge+jeep+of+hays","city_state_slug":"Hays.KS","brand":"Chrysler,Dodge,Jeep,RAM","website":"www.lewischryslerdodgejeepofhays.com","address":"4440 Vine St","city":"Hays","state":"KS","zip":67601,"latitude":38.9034335,"longitude":-99.316305,"phone_number_service":"7852619198","phone_number_main":"7856283359","service_hours":"Mo-Fr 08:30 - 17:30","utc_offset":"-300","gplace_id":null,"gplace_url":"https://maps.google.com/?cid=15742264297446428557","dealerID":73208,"trusted":false,"image_id":"v1597283975/chrysler_RM.png","phone":"7852619198","cityStateSlug":"hays.ks","slug":"Hays.KS/lewis+chrysler+dodge+jeep+of+hays","location":"38.9034335,-99.316305","brandsList":["chrysler","dodge","jeep","ram"]},{"id":8662,"crm_id":67073179,"name":"Lewis Ford of Hays","dealerSlug":"lewis+ford+of+hays","city_state_slug":"Hays.KS","brand":"Ford","website":"www.lewisfordofhays.com","address":"4450 Vine St","city":"Hays","state":"KS","zip":67601,"latitude":38.9041214,"longitude":-99.3160746,"phone_number_service":"7856253441","phone_number_main":"7856253441","service_hours":"Mo-Fr 07:30 - 17:30 | Sa 08:00 - 12:00","utc_offset":"-300","gplace_id":null,"gplace_url":"https://maps.google.com/?cid=8190520479852183638","dealerID":73209,"trusted":false,"image_id":"v1597283967/ford_RM.png","phone":"7856253441","cityStateSlug":"hays.ks","slug":"Hays.KS/lewis+ford+of+hays","location":"38.9041214,-99.3160746","brandsList":["ford"]},{"id":3668,"crm_id":67073209,"name":"Dan Brenner Ford","dealerSlug":"dan+brenner+ford","city_state_slug":"Goodland.KS","brand":"Ford","website":"www.danbrennerford.com/","address":"1520 Hwy 27","city":"Goodland","state":"KS","zip":67735,"latitude":39.3433825,"longitude":-101.7277675,"phone_number_service":"8006368770","phone_number_main":"7858992316","service_hours":"Mo-Fr 08:00 - 18:00 | Sa 08:00 - 17:00","utc_offset":"-360","gplace_id":null,"gplace_url":"https://maps.google.com/?cid=11142831035446959984","dealerID":73211,"trusted":false,"image_id":"v1597283967/ford_RM.png","phone":"8006368770","cityStateSlug":"goodland.ks","slug":"Goodland.KS/dan+brenner+ford","location":"39.3433825,-101.7277675","brandsList":["ford"]},{"id":15722,"crm_id":67073221,"name":"Yost Ford","dealerSlug":"yost+ford","city_state_slug":"Saint-Francis.KS","brand":"Ford","website":"www.yostford.com","address":"530 E. Business US Hwy. 36 PO Box 1080","city":"Saint Francis","state":"KS","zip":67756,"latitude":39.7672092,"longitude":-101.7941703,"phone_number_service":"8664478196","phone_number_main":"7853322188","service_hours":"Mo-Fr 08:00 - 18:00","utc_offset":"-300","gplace_id":null,"gplace_url":"https://maps.google.com/?cid=9808057558874440296","dealerID":73212,"trusted":false,"image_id":"v1597283967/ford_RM.png","phone":"8664478196","cityStateSlug":"saint-francis.ks","slug":"Saint-Francis.KS/yost+ford","location":"39.7672092,-101.7941703","brandsList":["ford"]},{"id":8661,"crm_id":67073230,"name":"Lewis Ford of Dodge City","dealerSlug":"lewis+ford+of+dodge+city","city_state_slug":"Dodge-City.KS","brand":"Ford","website":"www.lewisfordofdodgecity.com","address":"200 Military","city":"Dodge City","state":"KS","zip":67801,"latitude":37.7540596,"longitude":-100.014833,"phone_number_service":"6202273673","phone_number_main":"6202273673","service_hours":"Mo-Fr 07:30 - 17:30 | Sa 08:00 - 12:00","utc_offset":"-300","gplace_id":null,"gplace_url":"https://maps.google.com/?cid=15956832065103084423","dealerID":73213,"trusted":false,"image_id":"v1597283967/ford_RM.png","phone":"6202273673","cityStateSlug":"dodge-city.ks","slug":"Dodge-City.KS/lewis+ford+of+dodge+city","location":"37.7540596,-100.014833","brandsList":["ford"]},{"id":8968,"crm_id":67073236,"name":"Lopp Motors","dealerSlug":"lopp+motors","city_state_slug":"Dodge-City.KS","brand":"Chrysler,Dodge,Jeep,RAM","website":"www.loppmotors.net","address":"305 N 2nd Ave","city":"Dodge City","state":"KS","zip":67801,"latitude":37.7518675,"longitude":-100.0197537,"phone_number_service":"6206829475","phone_number_main":"6206824728","service_hours":"Mo-Fr 08:00 - 18:00 | Sa 08:00 - 12:00","utc_offset":"-300","gplace_id":null,"gplace_url":"https://maps.google.com/?cid=14169661136377544319","dealerID":73214,"trusted":false,"image_id":"v1597283975/chrysler_RM.png","phone":"6206829475","cityStateSlug":"dodge-city.ks","slug":"Dodge-City.KS/lopp+motors","location":"37.7518675,-100.0197537","brandsList":["chrysler","dodge","jeep","ram"]},{"id":5316,"crm_id":67073275,"name":"G & G Kia","dealerSlug":"g+and+g+kia","city_state_slug":"Dodge-City.KS","brand":"Kia","website":"www.buyggkia.com","address":"10868 W Wyatt Earp Blvd","city":"Dodge City","state":"KS","zip":67801,"latitude":37.7553437,"longitude":-100.0576131,"phone_number_service":"8443864759","phone_number_main":"6202273171","service_hours":"Mo-Fr 08:00 - 17:30 | Sa 08:00 - 13:00","utc_offset":"-300","gplace_id":null,"gplace_url":"https://maps.google.com/?cid=16145257772402376270","dealerID":73215,"trusted":false,"image_id":"v1597283948/kia_RM.png","phone":"8443864759","cityStateSlug":"dodge-city.ks","slug":"Dodge-City.KS/g+and+g+kia","location":"37.7553437,-100.0576131","brandsList":["kia"]},{"id":8657,"crm_id":67073284,"name":"Lewis Chevrolet Cadillac of Garden City","dealerSlug":"lewis+chevrolet+cadillac+of+garden+city","city_state_slug":"Garden-City.KS","brand":"Cadillac,Chevrolet","website":"www.lewischevy.com","address":"1903 US-50 BUS","city":"Garden City","state":"KS","zip":67846,"latitude":37.9630096,"longitude":-100.8480081,"phone_number_service":"6207654475","phone_number_main":"6202757171","service_hours":"Mo-Fr 07:30 - 17:30 | Sa 08:00 - 12:00","utc_offset":"-300","gplace_id":null,"gplace_url":"https://maps.google.com/?cid=15838142956328866876","dealerID":73216,"trusted":false,"image_id":"v1597283980/cadillac.png","phone":"6207654475","cityStateSlug":"garden-city.ks","slug":"Garden-City.KS/lewis+chevrolet+cadillac+of+garden+city","location":"37.9630096,-100.8480081","brandsList":["cadillac","chevrolet"]},{"id":15409,"crm_id":67073296,"name":"Western Motor","dealerSlug":"western+motor","city_state_slug":"Garden-City.KS","brand":"Buick,GMC","website":"www.shopwesternmotor.com/","address":"409 E Fulton St","city":"Garden City","state":"KS","zip":67846,"latitude":37.965024,"longitude":-100.870078,"phone_number_service":"6202717840","phone_number_main":"6202754291","service_hours":"Mo-Fr 07:30 - 18:00","utc_offset":"-300","gplace_id":null,"gplace_url":"https://maps.google.com/?cid=11833318761523430715","dealerID":73217,"trusted":false,"image_id":"v1597283981/buick_RM.png","phone":"6202717840","cityStateSlug":"garden-city.ks","slug":"Garden-City.KS/western+motor","location":"37.965024,-100.870078","brandsList":["buick","gmc"]},{"id":2346,"crm_id":67073311,"name":"Burtis Motor Company","dealerSlug":"burtis+motor+company","city_state_slug":"Garden-City.KS","brand":"Ford","website":"www.burtisco.com","address":"601 W Kansas Ave","city":"Garden City","state":"KS","zip":67846,"latitude":37.9760802,"longitude":-100.8808905,"phone_number_service":"8774642910","phone_number_main":"6202756171","service_hours":"Mo-Fr 08:00 - 18:00","utc_offset":"-300","gplace_id":null,"gplace_url":"https://maps.google.com/?cid=10791757924083442738","dealerID":73218,"trusted":false,"image_id":"v1597283967/ford_RM.png","phone":"8774642910","cityStateSlug":"garden-city.ks","slug":"Garden-City.KS/burtis+motor+company","location":"37.9760802,-100.8808905","brandsList":["ford"]},{"id":2920,"crm_id":67073344,"name":"Chrysler Corner","dealerSlug":"chrysler+corner","city_state_slug":"Liberal.KS","brand":"Chrysler,Dodge,Jeep,RAM","website":"www.chryslercornerchryslerdodgejeep.com","address":"406 E Pancake Blvd","city":"Liberal","state":"KS","zip":67901,"latitude":37.0321085,"longitude":-100.9171104,"phone_number_service":"6206049784","phone_number_main":"6206241683","service_hours":"Mo-Fr 08:00 - 18:00 | Sa 09:00 - 16:00","utc_offset":"-300","gplace_id":null,"gplace_url":"https://maps.google.com/?cid=18353644121738142850","dealerID":73219,"trusted":false,"image_id":"v1597283975/chrysler_RM.png","phone":"6206049784","cityStateSlug":"liberal.ks","slug":"Liberal.KS/chrysler+corner","location":"37.0321085,-100.9171104","brandsList":["chrysler","dodge","jeep","ram"]},{"id":3820,"crm_id":67074850,"name":"Davis-Moore Mazda","dealerSlug":"davis+moore+mazda","city_state_slug":"Wichita.KS","brand":"Mazda","website":"www.davis-mooremazda.com","address":"10603 E Kellogg Dr N","city":"Wichita","state":"KS","zip":67207,"latitude":37.6781782,"longitude":-97.2184694,"phone_number_service":"3166000403","phone_number_main":"5807455856","service_hours":"Mo-Fr 07:00 - 18:00 | Sa 07:00 - 13:00","utc_offset":"-300","gplace_id":null,"gplace_url":"https://maps.google.com/?cid=4763949803531736552","dealerID":73617,"trusted":false,"image_id":"v1597283937/mazda.png","phone":"3166000403","cityStateSlug":"wichita.ks","slug":"Wichita.KS/davis+moore+mazda","location":"37.6781782,-97.2184694","brandsList":["mazda"]},{"id":11980,"crm_id":67079836,"name":"Quality Ford","dealerSlug":"quality+ford","city_state_slug":"Independence.KS","brand":"Ford","website":"www.qualitymotorsindependence.com/","address":"2022 W Main St","city":"Independence","state":"KS","zip":67301,"latitude":37.224051,"longitude":-95.732156,"phone_number_service":"8335011228","phone_number_main":"6203316090","service_hours":"Mo-Fr 07:30 - 17:30","utc_offset":"-300","gplace_id":null,"gplace_url":"https://maps.google.com/?cid=3140900292287464183","dealerID":74870,"trusted":false,"image_id":"v1597283967/ford_RM.png","phone":"8335011228","cityStateSlug":"independence.ks","slug":"Independence.KS/quality+ford","location":"37.224051,-95.732156","brandsList":["ford"]},{"id":651,"crm_id":68642056,"name":"Audi Shawnee Mission","dealerSlug":"audi+shawnee+mission","city_state_slug":"Merriam.KS","brand":"Audi","website":"www.audi-shawneemission.com","address":"6601 E Frontage Rd","city":"Merriam","state":"KS","zip":66202,"latitude":39.0092467,"longitude":-94.6927602,"phone_number_service":"8664359645","phone_number_main":"8665776301","service_hours":"Mo-Fr 07:30 - 17:30 | Sa 08:00 - 14:00","utc_offset":"-300","gplace_id":null,"gplace_url":"https://maps.google.com/?cid=943433629962291251","dealerID":74905,"trusted":false,"image_id":"v1597283985/audi_RM.png","phone":"8664359645","cityStateSlug":"merriam.ks","slug":"Merriam.KS/audi+shawnee+mission","location":"39.0092467,-94.6927602","brandsList":["audi"]},{"id":9974,"crm_id":78544786,"name":"Midwest Toyota","dealerSlug":"midwest+toyota","city_state_slug":"Hutchinson.KS","brand":"Toyota","website":"www.midwesttoyotadealer.com","address":"1100 E 30th Ave","city":"Hutchinson","state":"KS","zip":67502,"latitude":38.0871499,"longitude":-97.9088318,"phone_number_service":"6206626631","phone_number_main":"6206626631","service_hours":"Mo-Fr 08:30 - 19:00 | Sa 08:30 - 19:00","utc_offset":"-300","gplace_id":null,"gplace_url":"https://maps.google.com/?cid=11596972995749798446","dealerID":75200,"trusted":false,"image_id":"v1597284039/toyota_ms.png","phone":"6206626631","cityStateSlug":"hutchinson.ks","slug":"Hutchinson.KS/midwest+toyota","location":"38.0871499,-97.9088318","brandsList":["toyota"]},{"id":11988,"crm_id":78544978,"name":"Quality Toyota","dealerSlug":"quality+toyota","city_state_slug":"Independence.KS","brand":"Toyota","website":"www.quality-toyota.com","address":"2101 W Main St","city":"Independence","state":"KS","zip":67301,"latitude":37.2231295,"longitude":-95.7327976,"phone_number_service":"6203309410","phone_number_main":"6203318310","service_hours":"Mo-Fr 07:30 - 17:30 | Sa 08:00 - 12:00","utc_offset":"-300","gplace_id":null,"gplace_url":"https://maps.google.com/?cid=14422872099277289669","dealerID":75201,"trusted":false,"image_id":"v1597284039/toyota_ms.png","phone":"6203309410","cityStateSlug":"independence.ks","slug":"Independence.KS/quality+toyota","location":"37.2231295,-95.7327976","brandsList":["toyota"]},{"id":8665,"crm_id":78653359,"name":"Lewis Toyota of Garden City","dealerSlug":"lewis+toyota+of+garden+city","city_state_slug":"Garden-City.KS","brand":"Toyota","website":"www.lewistoyotaofgardencity.com","address":"1221 Lareu St","city":"Garden City","state":"KS","zip":67846,"latitude":37.9764998,"longitude":-100.8374484,"phone_number_service":"6202757172","phone_number_main":"6202757172","service_hours":"Mo-Fr 07:30 - 17:30 | Sa 08:00 - 12:00","utc_offset":"-300","gplace_id":null,"gplace_url":"https://maps.google.com/?cid=16812150451507204809","dealerID":75205,"trusted":false,"image_id":"v1597284039/toyota_ms.png","phone":"6202757172","cityStateSlug":"garden-city.ks","slug":"Garden-City.KS/lewis+toyota+of+garden+city","location":"37.9764998,-100.8374484","brandsList":["toyota"]},{"id":6283,"crm_id":94038844,"name":"Hendrick Nissan Kansas City","dealerSlug":"hendrick+nissan+kansas+city","city_state_slug":"Merriam.KS","brand":"Nissan","website":"www.hendricknissan.com","address":"8400 Shawnee Mission Pkwy","city":"Merriam","state":"KS","zip":66202,"latitude":39.0156965,"longitude":-94.6825286,"phone_number_service":"8554215983","phone_number_main":"9133054906","service_hours":"Mo-Fr 07:00 - 18:00 | Sa 08:00 - 15:00","utc_offset":"-300","gplace_id":null,"gplace_url":"https://maps.google.com/?cid=2355392956830312638","dealerID":76190,"trusted":false,"image_id":"v1597283926/nissan_RM.png","phone":"8554215983","cityStateSlug":"merriam.ks","slug":"Merriam.KS/hendrick+nissan+kansas+city","location":"39.0156965,-94.6825286","brandsList":["nissan"]},{"id":14931,"crm_id":100161517,"name":"Victory Chrysler Dodge Jeep RAM","dealerSlug":"victory+chrysler+dodge+jeep+ram","city_state_slug":"Kansas-City.KS","brand":"Chrysler,Dodge,Jeep,RAM","website":"www.victorychryslerdodgejeepram.com","address":"1720 N 100 Terrace","city":"Kansas City","state":"KS","zip":66111,"latitude":39.125216,"longitude":-94.812782,"phone_number_service":"9136530386","phone_number_main":"9136530395","service_hours":"","utc_offset":"-300","gplace_id":null,"gplace_url":"https://maps.google.com/?cid=10787499579474207660","dealerID":76497,"trusted":false,"image_id":"v1597283975/chrysler_RM.png","phone":"9136530386","cityStateSlug":"kansas-city.ks","slug":"Kansas-City.KS/victory+chrysler+dodge+jeep+ram","location":"39.125216,-94.812782","brandsList":["chrysler","dodge","jeep","ram"]},{"id":11833,"crm_id":103693546,"name":"Premier Volvo Cars Overland Park","dealerSlug":"premier+volvo+cars+overland+park","city_state_slug":"Overland-Park.KS","brand":"Volvo","website":"www.premiervolvocarsoverlandpark.com","address":"7891 Metcalf Ave","city":"Overland Park","state":"KS","zip":66204,"latitude":38.9862069,"longitude":-94.6671365,"phone_number_service":"8888968115","phone_number_main":"9136425050","service_hours":"Mo-Fr 07:00 - 18:00 | Sa 08:00 - 16:00","utc_offset":"-300","gplace_id":null,"gplace_url":"https://maps.google.com/?cid=13234492449015509744","dealerID":76606,"trusted":false,"image_id":"v1597283901/volvo.jpg","phone":"8888968115","cityStateSlug":"overland-park.ks","slug":"Overland-Park.KS/premier+volvo+cars+overland+park","location":"38.9862069,-94.6671365","brandsList":["volvo"]},{"id":2132,"crm_id":106575829,"name":"Briggs CDJR","dealerSlug":"briggs+cdjr","city_state_slug":"Fort-Scott.KS","brand":"Chrysler,Dodge,Jeep,RAM","website":"briggscdjroffortscott.com","address":"1819 S Main St","city":"Fort Scott","state":"KS","zip":66701,"latitude":37.8182233,"longitude":-94.7049909,"phone_number_service":"6206449888","phone_number_main":"6206449888","service_hours":"Mo-Fr 07:30 - 17:30 | Sa 08:00 - 13:00","utc_offset":"-300","gplace_id":null,"gplace_url":"https://maps.google.com/?cid=17238493211370218887","dealerID":76672,"trusted":false,"image_id":"v1597283975/chrysler_RM.png","phone":"6206449888","cityStateSlug":"fort-scott.ks","slug":"Fort-Scott.KS/briggs+cdjr","location":"37.8182233,-94.7049909","brandsList":["chrysler","dodge","jeep","ram"]},{"id":2137,"crm_id":106576309,"name":"Briggs Nissan","dealerSlug":"briggs+nissan","city_state_slug":"Manhattan.KS","brand":"Nissan","website":"www.briggsnissan.com","address":"2500 Stagg Hill Rd","city":"Manhattan","state":"KS","zip":66502,"latitude":39.1681016,"longitude":-96.6000642,"phone_number_service":"7853714096","phone_number_main":"7853714295","service_hours":"Mo-Fr 07:00 - 18:00 | Sa 08:00 - 16:00","utc_offset":"-300","gplace_id":null,"gplace_url":"https://maps.google.com/?cid=5148107046588681660","dealerID":76673,"trusted":false,"image_id":"v1597283926/nissan_RM.png","phone":"7853714096","cityStateSlug":"manhattan.ks","slug":"Manhattan.KS/briggs+nissan","location":"39.1681016,-96.6000642","brandsList":["nissan"]},{"id":3663,"crm_id":106576396,"name":"Dale Willey Chrysler Dodge Jeep RAM","dealerSlug":"dale+willey+chrysler+dodge+jeep+ram","city_state_slug":"Lawrence.KS","brand":"Chrysler,Dodge,Jeep,RAM","website":"dalewilleycdjr.com","address":"2300 W 29th Terrace","city":"Lawrence","state":"KS","zip":66047,"latitude":38.9307053,"longitude":-95.2631695,"phone_number_service":"7852923092","phone_number_main":"7858433055","service_hours":"Mo-Fr 07:00 - 18:00 | Sa 08:00 - 14:00","utc_offset":"-300","gplace_id":null,"gplace_url":"https://maps.google.com/?cid=15990516384689544324","dealerID":76674,"trusted":false,"image_id":"v1597283975/chrysler_RM.png","phone":"7852923092","cityStateSlug":"lawrence.ks","slug":"Lawrence.KS/dale+willey+chrysler+dodge+jeep+ram","location":"38.9307053,-95.2631695","brandsList":["chrysler","dodge","jeep","ram"]},{"id":9466,"crm_id":106576717,"name":"McCarthy Nissan of Lawrence","dealerSlug":"mccarthy+nissan+of+lawrence","city_state_slug":"Lawrence.KS","brand":"Nissan","website":"www.mccarthynissanoflawrence.com","address":"2101 W 29th Terrace","city":"Lawrence","state":"KS","zip":66047,"latitude":38.9296746,"longitude":-95.2617918,"phone_number_service":"7852008899","phone_number_main":"7858567127","service_hours":"Mo-Fr 07:00 - 18:00 | Sa 07:00 - 15:00","utc_offset":"-300","gplace_id":null,"gplace_url":"https://maps.google.com/?cid=17373397877151328505","dealerID":76675,"trusted":false,"image_id":"v1597283926/nissan_RM.png","phone":"7852008899","cityStateSlug":"lawrence.ks","slug":"Lawrence.KS/mccarthy+nissan+of+lawrence","location":"38.9296746,-95.2617918","brandsList":["nissan"]},{"id":2133,"crm_id":106585027,"name":"Briggs Chevrolet of Fort Scott","dealerSlug":"briggs+chevrolet+of+fort+scott","city_state_slug":"Fort-Scott.KS","brand":"Chevrolet","website":"www.briggsftscottchevrolet.com","address":"1901 South Main Street","city":"Fort Scott","state":"KS","zip":66701,"latitude":37.8182314,"longitude":-94.7048948,"phone_number_service":"6202230900","phone_number_main":"6202230900","service_hours":"Mo-Fr 07:30 - 17:30 | Sa 08:00 - 13:00","utc_offset":"-300","gplace_id":null,"gplace_url":"https://maps.google.com/?cid=13735920015066337087","dealerID":76676,"trusted":false,"image_id":"v1597284079/chevy_ms.png","phone":"6202230900","cityStateSlug":"fort-scott.ks","slug":"Fort-Scott.KS/briggs+chevrolet+of+fort+scott","location":"37.8182314,-94.7048948","brandsList":["chevrolet"]},{"id":2139,"crm_id":107000000,"name":"Briggs Toyota Fort Scott","dealerSlug":"briggs+toyota+fort+scott","city_state_slug":"Fort-Scott.KS","brand":"Toyota","website":"www.briggstoyota.com","address":"1819 S Main St","city":"Fort Scott","state":"KS","zip":66701,"latitude":37.81813,"longitude":-94.7052,"phone_number_service":"6206449888","phone_number_main":"6206449888","service_hours":"Mo-Fr 07:30 - 17:30 | Sa 8:00-12:00","utc_offset":"-300","gplace_id":null,"gplace_url":"https://maps.google.com/?cid=3707237164259779065","dealerID":76705,"trusted":false,"image_id":"v1597284039/toyota_ms.png","phone":"6206449888","cityStateSlug":"fort-scott.ks","slug":"Fort-Scott.KS/briggs+toyota+fort+scott","location":"37.81813,-94.7052","brandsList":["toyota"]},{"id":1788,"crm_id":109357864,"name":"BMW of Wichita","dealerSlug":"bmw+of+wichita","city_state_slug":"Wichita.KS","brand":"BMW","website":"www.bmwofwichita.com","address":"11000 E 13th St N","city":"Wichita","state":"KS","zip":67206,"latitude":37.7090271,"longitude":-97.2095153,"phone_number_service":"3167198350","phone_number_main":"3167792613","service_hours":"Mo-Fr 07:30 - 18:00","utc_offset":"-300","gplace_id":null,"gplace_url":"https://maps.google.com/?cid=7503361209631389936","dealerID":76757,"trusted":false,"image_id":"v1597283982/bmw_RM.png","phone":"3167198350","cityStateSlug":"wichita.ks","slug":"Wichita.KS/bmw+of+wichita","location":"37.7090271,-97.2095153","brandsList":["bmw"]},{"id":14933,"crm_id":114157903,"name":"Victory Ford","dealerSlug":"victory+ford","city_state_slug":"Kansas-City.KS","brand":"Ford","website":"www.victoryfordkc.com","address":"1800 N 100 Terrace","city":"Kansas City","state":"KS","zip":66111,"latitude":39.1261959,"longitude":-94.8126196,"phone_number_service":"8887068508","phone_number_main":"9134222045","service_hours":"Mo-Fr 07:00 - 18:00 | Sa 07:00 - 16:00","utc_offset":"-300","gplace_id":null,"gplace_url":"https://maps.google.com/?cid=4187409890524841697","dealerID":76889,"trusted":false,"image_id":"v1597283967/ford_RM.png","phone":"8887068508","cityStateSlug":"kansas-city.ks","slug":"Kansas-City.KS/victory+ford","location":"39.1261959,-94.8126196","brandsList":["ford"]},{"id":10187,"crm_id":114996185,"name":"MINI of Wichita","dealerSlug":"mini+of+wichita","city_state_slug":"Wichita.KS","brand":"MINI","website":"www.miniofwichita.com","address":"10950 E 13th St N","city":"Wichita","state":"KS","zip":67206,"latitude":37.708845,"longitude":-97.210329,"phone_number_service":"3167198360","phone_number_main":"3167792616","service_hours":"Mo-Fr 07:30 - 18:00","utc_offset":"-300","gplace_id":null,"gplace_url":"https://maps.google.com/?cid=10290405846864016927","dealerID":76977,"trusted":false,"image_id":"v1597283930/mini_RM.png","phone":"3167198360","cityStateSlug":"wichita.ks","slug":"Wichita.KS/mini+of+wichita","location":"37.708845,-97.210329","brandsList":["mini"]},{"id":3272,"crm_id":115138578,"name":"Conklin Lincoln Newton","dealerSlug":"conklin+lincoln+newton","city_state_slug":"Newton.KS","brand":"Lincoln","website":"www.conklinlincolnnewton.com","address":"1500 E 3rd St lot b","city":"Newton","state":"KS","zip":67114,"latitude":38.0465097,"longitude":-97.3202201,"phone_number_service":"3164485157","phone_number_main":"3162823392","service_hours":"Mo-Fr 07:00 - 17:00 | Sa 08:00 - 13:00","utc_offset":"-300","gplace_id":null,"gplace_url":"https://maps.google.com/?cid=15120113599971071386","dealerID":76991,"trusted":false,"image_id":"v1597283942/lincoln_RM.png","phone":"3164485157","cityStateSlug":"newton.ks","slug":"Newton.KS/conklin+lincoln+newton","location":"38.0465097,-97.3202201","brandsList":["lincoln"]},{"id":9967,"crm_id":115223483,"name":"Midway Motors Buick GMC in Newton","dealerSlug":"midway+motors+buick+gmc+in+newton","city_state_slug":"Newton.KS","brand":"Buick,GMC","website":"www.midwaymotorsnewton.com","address":"1124 Washington Rd","city":"Newton","state":"KS","zip":67114,"latitude":38.0315763,"longitude":-97.3376048,"phone_number_service":"8665573668","phone_number_main":"3162830533","service_hours":"Mo-Fr 07:30 - 17:30 | Sa 07:30 - 12:00","utc_offset":"-300","gplace_id":null,"gplace_url":"https://maps.google.com/?cid=1179766015166559794","dealerID":76995,"trusted":false,"image_id":"v1597283981/buick_RM.png","phone":"8665573668","cityStateSlug":"newton.ks","slug":"Newton.KS/midway+motors+buick+gmc+in+newton","location":"38.0315763,-97.3376048","brandsList":["buick","gmc"]},{"id":9970,"crm_id":115223492,"name":"Midway Motors Ford Lincoln","dealerSlug":"midway+motors+ford+lincoln","city_state_slug":"McPherson.KS","brand":"Ford,Lincoln","website":"www.midwaymotorsford.com","address":"2075 E Kansas Ave #1","city":"McPherson","state":"KS","zip":67460,"latitude":38.3713761,"longitude":-97.6325143,"phone_number_service":"8883268693","phone_number_main":"6202410000","service_hours":"Mo 08:00 - 19:00 | Tu 08:00 - 19:00 | We 08:00 - 19:00 | Th 08:00 - 19:00 | Fr 08:00 - 18:00 | Sa 08:00 - 12:00","utc_offset":"-300","gplace_id":null,"gplace_url":"https://maps.google.com/?cid=17390412910055941063","dealerID":76996,"trusted":false,"image_id":"v1597283967/ford_RM.png","phone":"8883268693","cityStateSlug":"mcpherson.ks","slug":"McPherson.KS/midway+motors+ford+lincoln","location":"38.3713761,-97.6325143","brandsList":["ford","lincoln"]}]