[{"id":16658,"crm_id":999,"name":"Hunt Chrysler Center","dealerSlug":"hunt+chrysler+center","city_state_slug":"Franklin.KY","brand":"Chrysler,Dodge,Jeep,RAM","website":"www.huntchryslercenter.com","address":"1000 S Main","city":"Franklin","state":"KY","zip":42134,"latitude":36.703154,"longitude":-86.573718,"phone_number_service":"2705863281","phone_number_main":"","service_hours":"Mo-Sa 08:00 - 17:00 | Su Closed","utc_offset":"","gplace_id":0,"gplace_url":"","dealerID":60091,"trusted":false,"image_id":"v1597283975/chrysler_RM.png","phone":"2705863281","cityStateSlug":"franklin.ky","slug":"Franklin.KY/hunt+chrysler+center","location":"36.703154,-86.573718","brandsList":["chrysler","dodge","jeep","ram"]},{"id":16439,"crm_id":999,"name":"Frankfort Toyota","dealerSlug":"frankfort+toyota","city_state_slug":"Frankfort.KY","brand":"Toyota","website":"www.frankforttoyota.com","address":"1001 Leestown Road","city":"Frankfort","state":"KY","zip":40601,"latitude":38.188104,"longitude":-84.818523,"phone_number_service":"7062781322","phone_number_main":"8007230754","service_hours":"Mo-Fr 08:30 - 20:00 | Sa 08:30 - 18:00","utc_offset":"","gplace_id":0,"gplace_url":"","dealerID":60209,"trusted":false,"image_id":"v1597284039/toyota_ms.png","phone":"7062781322","cityStateSlug":"frankfort.ky","slug":"Frankfort.KY/frankfort+toyota","location":"38.188104,-84.818523","brandsList":["toyota"]},{"id":17686,"crm_id":999,"name":"Tim Short Chrysler Dodge Jeep RAM","dealerSlug":"tim+short+chrysler+dodge+jeep+ram","city_state_slug":"Morehead.KY","brand":"Chrysler,Dodge,Jeep,RAM","website":"www.timshortcdjr.com","address":"99 Tim Short Drive","city":"Morehead","state":"KY","zip":40351,"latitude":38.188855,"longitude":-83.478557,"phone_number_service":"6066833021","phone_number_main":"","service_hours":"Mo-Fr 09:00 - 19:00 | Sa 09:00 - 17:00 | Su Closed","utc_offset":"","gplace_id":0,"gplace_url":"","dealerID":60382,"trusted":false,"image_id":"v1597283975/chrysler_RM.png","phone":"6066833021","cityStateSlug":"morehead.ky","slug":"Morehead.KY/tim+short+chrysler+dodge+jeep+ram","location":"38.188855,-83.478557","brandsList":["chrysler","dodge","jeep","ram"]},{"id":17688,"crm_id":999,"name":"Tim Short Ford of Morehead","dealerSlug":"tim+short+ford+of+morehead","city_state_slug":"Morehead.KY","brand":"Ford","website":"www.timshortfordflemingsburg.com","address":"99 Tim Short Drive","city":"Morehead","state":"KY","zip":40351,"latitude":38.184808,"longitude":-83.556785,"phone_number_service":"6068492321","phone_number_main":"","service_hours":"Mo-Fr 09:00 - 19:00 | Sa 09:00 - 17:00 | Su Closed","utc_offset":"","gplace_id":0,"gplace_url":"","dealerID":60383,"trusted":false,"image_id":"v1597283967/ford_RM.png","phone":"6068492321","cityStateSlug":"morehead.ky","slug":"Morehead.KY/tim+short+ford+of+morehead","location":"38.184808,-83.556785","brandsList":["ford"]},{"id":17826,"crm_id":999,"name":"Watermark Chrysler Dodge Jeep RAM","dealerSlug":"watermark+chrysler+dodge+jeep+ram","city_state_slug":"Madisonville.KY","brand":"Chrysler,Dodge,Jeep,RAM","website":"www.watermarkchrysler.com","address":"1055 Crossing Pl","city":"Madisonville","state":"KY","zip":42431,"latitude":37.353524,"longitude":-87.483152,"phone_number_service":"2708213372","phone_number_main":"","service_hours":"Mo-Fr 08:30 - 17:00 | Sa 08:30 - 15:00 | Su Closed","utc_offset":"","gplace_id":0,"gplace_url":"","dealerID":60459,"trusted":false,"image_id":"v1597283975/chrysler_RM.png","phone":"2708213372","cityStateSlug":"madisonville.ky","slug":"Madisonville.KY/watermark+chrysler+dodge+jeep+ram","location":"37.353524,-87.483152","brandsList":["chrysler","dodge","jeep","ram"]},{"id":17828,"crm_id":999,"name":"Watermark Toyota","dealerSlug":"watermark+toyota","city_state_slug":"Madisonville.KY","brand":"Toyota","website":"www.watermarktoyota.com","address":"1055 Crossing Place","city":"Madisonville","state":"KY","zip":42431,"latitude":37.3523,"longitude":-87.484258,"phone_number_service":"7074628818","phone_number_main":"","service_hours":"Mo-Sa 08:00 - 17:30","utc_offset":"","gplace_id":0,"gplace_url":"","dealerID":60460,"trusted":false,"image_id":"v1597284039/toyota_ms.png","phone":"7074628818","cityStateSlug":"madisonville.ky","slug":"Madisonville.KY/watermark+toyota","location":"37.3523,-87.484258","brandsList":["toyota"]},{"id":16224,"crm_id":999,"name":"Crossroads Ford","dealerSlug":"crossroads+ford","city_state_slug":"Frankfort.KY","brand":"Ford","website":"www.crossroadsfordinky.com","address":"1070 Versailles Rd","city":"Frankfort","state":"KY","zip":12143,"latitude":38.185227,"longitude":-84.818873,"phone_number_service":"5026951990","phone_number_main":"","service_hours":"Mo-Th 09:00 - 19:00 | Fr-Sa 09:00 - 18:00 | Su Closed","utc_offset":"","gplace_id":0,"gplace_url":"","dealerID":60466,"trusted":false,"image_id":"v1597283967/ford_RM.png","phone":"5026951990","cityStateSlug":"frankfort.ky","slug":"Frankfort.KY/crossroads+ford","location":"38.185227,-84.818873","brandsList":["ford"]},{"id":16663,"crm_id":999,"name":"Hutch Chrysler Dodge Jeep RAM","dealerSlug":"hutch+chrysler+dodge+jeep+ram","city_state_slug":"Paintsville.KY","brand":"Chrysler,Dodge,Jeep,RAM","website":"www.hutchchrysler.com","address":"1082 Third Street","city":"Paintsville","state":"KY","zip":41240,"latitude":37.815947,"longitude":-82.806091,"phone_number_service":"6062971600","phone_number_main":"","service_hours":"Mo-Sa 09:00 - 18:00 | Su Closed","utc_offset":"","gplace_id":0,"gplace_url":"","dealerID":60472,"trusted":false,"image_id":"v1597283975/chrysler_RM.png","phone":"6062971600","cityStateSlug":"paintsville.ky","slug":"Paintsville.KY/hutch+chrysler+dodge+jeep+ram","location":"37.815947,-82.806091","brandsList":["chrysler","dodge","jeep","ram"]},{"id":16146,"crm_id":999,"name":"Chrysler, Dodge, Jeep, RAM of Lawrenceburg","dealerSlug":"chrysler+dodge+jeep+ram+of+lawrenceburg","city_state_slug":"Lawrenceburg.KY","brand":"Chrysler,Dodge,Jeep,RAM","website":"www.chrysleroflawrenceburg.com","address":"1181 Bypass South","city":"Lawrenceburg","state":"KY","zip":40342,"latitude":38.006484,"longitude":-84.979923,"phone_number_service":"5028392012","phone_number_main":"","service_hours":"Mo-Fr 09:00 - 21:00 | Sa 09:00 - 19:00 | Su Closed","utc_offset":"","gplace_id":0,"gplace_url":"","dealerID":60537,"trusted":false,"image_id":"v1597283975/chrysler_RM.png","phone":"5028392012","cityStateSlug":"lawrenceburg.ky","slug":"Lawrenceburg.KY/chrysler+dodge+jeep+ram+of+lawrenceburg","location":"38.006484,-84.979923","brandsList":["chrysler","dodge","jeep","ram"]},{"id":17334,"crm_id":999,"name":"Purchase Ford","dealerSlug":"purchase+ford","city_state_slug":"Mayfield.KY","brand":"Ford","website":"www.purchaseford.net","address":"1352 Highway 45 North","city":"Mayfield","state":"KY","zip":42066,"latitude":36.760426,"longitude":-88.641732,"phone_number_service":"2702479300","phone_number_main":"","service_hours":"Mo-Sa 08:00 - 17:00 | Su Closed","utc_offset":"","gplace_id":0,"gplace_url":"","dealerID":60617,"trusted":false,"image_id":"v1597283967/ford_RM.png","phone":"2702479300","cityStateSlug":"mayfield.ky","slug":"Mayfield.KY/purchase+ford","location":"36.760426,-88.641732","brandsList":["ford"]},{"id":15819,"crm_id":999,"name":"All-State Ford Truck Sales.","dealerSlug":"all+state+ford+truck+sales","city_state_slug":"Louisville.KY","brand":"Ford","website":"www.allstateford.com","address":"1357 Gardiner Lane","city":"Louisville","state":"KY","zip":40213,"latitude":38.1974,"longitude":-85.7029,"phone_number_service":"5024590550","phone_number_main":"","service_hours":"Mo-Fr 08:30 - 18:00 | Sa 08:30 - 14:00 | Su Closed","utc_offset":"","gplace_id":0,"gplace_url":"","dealerID":60618,"trusted":false,"image_id":"v1597283967/ford_RM.png","phone":"5024590550","cityStateSlug":"louisville.ky","slug":"Louisville.KY/all+state+ford+truck+sales","location":"38.1974,-85.7029","brandsList":["ford"]},{"id":17423,"crm_id":999,"name":"Rod Hatfield Chrysler Dodge Jeep RAM","dealerSlug":"rod+hatfield+chrysler+dodge+jeep+ram","city_state_slug":"Winchester.KY","brand":"Chrysler,Dodge,Jeep,RAM","website":"www.rodhatfieldcdj.com","address":"1500 W Lexington Ave","city":"Winchester","state":"KY","zip":40391,"latitude":38.006705,"longitude":-84.211308,"phone_number_service":"8597454424","phone_number_main":"","service_hours":"Mo-Fr 08:30 - 19:00 | Sa 09:00 - 17:00 | Su Closed","utc_offset":"","gplace_id":0,"gplace_url":"","dealerID":60660,"trusted":false,"image_id":"v1597283975/chrysler_RM.png","phone":"8597454424","cityStateSlug":"winchester.ky","slug":"Winchester.KY/rod+hatfield+chrysler+dodge+jeep+ram","location":"38.006705,-84.211308","brandsList":["chrysler","dodge","jeep","ram"]},{"id":16237,"crm_id":999,"name":"Cumberland Ford Motors","dealerSlug":"cumberland+ford+motors","city_state_slug":"Middlesboro.KY","brand":"Ford","website":"www.cumberlandford.org","address":"1501 Highway 25 E","city":"Middlesboro","state":"KY","zip":40965,"latitude":36.626783,"longitude":-83.703715,"phone_number_service":"6062483350","phone_number_main":"","service_hours":"","utc_offset":"","gplace_id":0,"gplace_url":"","dealerID":60661,"trusted":false,"image_id":"v1597283967/ford_RM.png","phone":"6062483350","cityStateSlug":"middlesboro.ky","slug":"Middlesboro.KY/cumberland+ford+motors","location":"36.626783,-83.703715","brandsList":["ford"]},{"id":16664,"crm_id":999,"name":"Hutch Ford","dealerSlug":"hutch+ford","city_state_slug":"West-Liberty.KY","brand":"Ford","website":"www.hutchford.com","address":"1701 West Main Street","city":"West Liberty","state":"KY","zip":41472,"latitude":37.897974,"longitude":-83.285229,"phone_number_service":"6067433101","phone_number_main":"","service_hours":"Mo-Fr 09:00 - 19:00 | Sa 09:00 - 18:00 | Su Closed","utc_offset":"","gplace_id":0,"gplace_url":"","dealerID":60732,"trusted":false,"image_id":"v1597283967/ford_RM.png","phone":"6067433101","cityStateSlug":"west-liberty.ky","slug":"West-Liberty.KY/hutch+ford","location":"37.897974,-83.285229","brandsList":["ford"]},{"id":17687,"crm_id":999,"name":"Tim Short Dodge Chrysler Jeep RAM","dealerSlug":"tim+short+dodge+chrysler+jeep+ram","city_state_slug":"Middlesboro.KY","brand":"Chrysler,Dodge,Jeep,RAM","website":"www.timshortmiddlesboro.com","address":"1935 US Highway 25 E","city":"Middlesboro","state":"KY","zip":40965,"latitude":36.669566,"longitude":-83.693159,"phone_number_service":"6062483444","phone_number_main":"","service_hours":"Mo-Fr 09:00 - 19:00 | Sa 09:00 - 18:00 | Su Closed","utc_offset":"","gplace_id":0,"gplace_url":"","dealerID":60798,"trusted":false,"image_id":"v1597283975/chrysler_RM.png","phone":"6062483444","cityStateSlug":"middlesboro.ky","slug":"Middlesboro.KY/tim+short+dodge+chrysler+jeep+ram","location":"36.669566,-83.693159","brandsList":["chrysler","dodge","jeep","ram"]},{"id":16244,"crm_id":999,"name":"Dan Cummins Chrysler-Dodge-Jeep-RAM","dealerSlug":"dan+cummins+chrysler+dodge+jeep+ram","city_state_slug":"Paris.KY","brand":"Chrysler,Dodge,Jeep,RAM","website":"www.dancumminschryslerdodgejeep.com","address":"2021 Alverson Drive","city":"Paris","state":"KY","zip":40361,"latitude":38.203634,"longitude":-84.27604,"phone_number_service":"8599875669","phone_number_main":"","service_hours":"Mo-Fr 08:30 - 19:00 | Sa 09:00 - 18:00 | Su Closed","utc_offset":"","gplace_id":0,"gplace_url":"","dealerID":60834,"trusted":false,"image_id":"v1597283975/chrysler_RM.png","phone":"8599875669","cityStateSlug":"paris.ky","slug":"Paris.KY/dan+cummins+chrysler+dodge+jeep+ram","location":"38.203634,-84.27604","brandsList":["chrysler","dodge","jeep","ram"]},{"id":17035,"crm_id":999,"name":"Mercedes-Benz of Fort Mitchell","dealerSlug":"mercedes+benz+of+fort+mitchell","city_state_slug":"Fort-Mitchell.KY","brand":"Mercedes-Benz","website":"www.mbfm.com","address":"2100 Dixie Highway","city":"Fort Mitchell","state":"KY","zip":41011,"latitude":39.0522366,"longitude":-84.5522821,"phone_number_service":"8593311500","phone_number_main":"8888717914","service_hours":"","utc_offset":"","gplace_id":0,"gplace_url":"","dealerID":60863,"trusted":false,"image_id":"v1597283934/mercedes_RM.png","phone":"8593311500","cityStateSlug":"fort-mitchell.ky","slug":"Fort-Mitchell.KY/mercedes+benz+of+fort+mitchell","location":"39.0522366,-84.5522821","brandsList":["mercedes-benz"]},{"id":16891,"crm_id":999,"name":"Lawhorn Ford Sales","dealerSlug":"lawhorn+ford+sales","city_state_slug":"Russell-Springs.KY","brand":"Ford","website":"","address":"2434 Lakeway Drive","city":"Russell Springs","state":"KY","zip":42642,"latitude":37.067375,"longitude":-85.072869,"phone_number_service":"2708663391","phone_number_main":"","service_hours":"","utc_offset":"","gplace_id":0,"gplace_url":"","dealerID":60957,"trusted":false,"image_id":"v1597283967/ford_RM.png","phone":"2708663391","cityStateSlug":"russell-springs.ky","slug":"Russell-Springs.KY/lawhorn+ford+sales","location":"37.067375,-85.072869","brandsList":["ford"]},{"id":16306,"crm_id":999,"name":"Don Franklin Nicholasville Hyundai","dealerSlug":"don+franklin+nicholasville+hyundai","city_state_slug":"Nicholasville.KY","brand":"Hyundai","website":"www.donfranklinhyundai.com","address":"3035 Lexington Road","city":"Nicholasville","state":"KY","zip":40356,"latitude":37.9319229,"longitude":-84.5500204,"phone_number_service":"8598851000","phone_number_main":"","service_hours":"Mo-Fr 08:00 - 17:00 | Sa 08:00 - 12:00","utc_offset":"","gplace_id":0,"gplace_url":"","dealerID":61087,"trusted":false,"image_id":"v1597283959/hyundai_RM.png","phone":"8598851000","cityStateSlug":"nicholasville.ky","slug":"Nicholasville.KY/don+franklin+nicholasville+hyundai","location":"37.9319229,-84.5500204","brandsList":["hyundai"]},{"id":17361,"crm_id":999,"name":"Ray's Chrysler-Dodge-Jeep","dealerSlug":"rays+chrysler+dodge+jeep","city_state_slug":"Brandenburg.KY","brand":"Chrysler,Dodge,Jeep","website":"www.rayschryslerdodgejeep.net","address":"385 Bypass Rd","city":"Brandenburg","state":"KY","zip":40108,"latitude":37.979665,"longitude":-86.16118,"phone_number_service":"2704224901","phone_number_main":"","service_hours":"Mo-Fr 07:45 - 20:00 | Sa 07:45 - 18:00 | Su 11:00 - 17:00","utc_offset":"","gplace_id":0,"gplace_url":"","dealerID":61217,"trusted":false,"image_id":"v1597283975/chrysler_RM.png","phone":"2704224901","cityStateSlug":"brandenburg.ky","slug":"Brandenburg.KY/rays+chrysler+dodge+jeep","location":"37.979665,-86.16118","brandsList":["chrysler","dodge","jeep"]},{"id":17689,"crm_id":999,"name":"Tim Short Honda","dealerSlug":"tim+short+honda","city_state_slug":"Ivel.KY","brand":"Honda","website":"timshorthonda.com/","address":"45 Malcom D Layne Dr","city":"Ivel","state":"KY","zip":41642,"latitude":37.578812,"longitude":-82.661667,"phone_number_service":"6062003190","phone_number_main":"6062003190","service_hours":"","utc_offset":"","gplace_id":0,"gplace_url":"","dealerID":61306,"trusted":false,"image_id":"v1597284047/honda_ms.png","phone":"6062003190","cityStateSlug":"ivel.ky","slug":"Ivel.KY/tim+short+honda","location":"37.578812,-82.661667","brandsList":["honda"]},{"id":16216,"crm_id":999,"name":"Craig & Landreth Chrysler, Jeep, Dodge, RAM","dealerSlug":"craig+and+landreth+chrysler+jeep+dodge+ram","city_state_slug":"Crestwood.KY","brand":"Chrysler,Dodge,Jeep,RAM","website":"www.candlcdjr.com","address":"6424 W Highway 146","city":"Crestwood","state":"KY","zip":40014,"latitude":38.323457,"longitude":-85.472322,"phone_number_service":"5022416868","phone_number_main":"","service_hours":"Mo-Fr 10:00 - 17:00 | Sa 10:00 - 16:00 | Su Closed","utc_offset":"","gplace_id":0,"gplace_url":"","dealerID":61485,"trusted":false,"image_id":"v1597283975/chrysler_RM.png","phone":"5022416868","cityStateSlug":"crestwood.ky","slug":"Crestwood.KY/craig+and+landreth+chrysler+jeep+dodge+ram","location":"38.323457,-85.472322","brandsList":["chrysler","dodge","jeep","ram"]},{"id":16441,"crm_id":999,"name":"Franklin Nissan","dealerSlug":"franklin+nissan","city_state_slug":"Columbia.KY","brand":"Nissan","website":"www.franklinnissanky.com","address":"705 JAMESTOWN ST","city":"Columbia","state":"KY","zip":42728,"latitude":37.096766,"longitude":-85.302242,"phone_number_service":"2703846426","phone_number_main":"","service_hours":"Mo-Fr 08:00 - 18:00\n | Sa 08:00 - 16:00\n | Su Closed","utc_offset":"","gplace_id":0,"gplace_url":"","dealerID":61526,"trusted":false,"image_id":"v1597283926/nissan_RM.png","phone":"2703846426","cityStateSlug":"columbia.ky","slug":"Columbia.KY/franklin+nissan","location":"37.096766,-85.302242","brandsList":["nissan"]},{"id":16967,"crm_id":999,"name":"Mann Chry-Ply-Dod-Jeep-Eagle","dealerSlug":"mann+chry+ply+dod+jeep+eagle","city_state_slug":"Mt-Sterling.KY","brand":"Chrysler,Dodge,Jeep","website":"www.mannchryslerdodjeep.com","address":"806 Alexa Drive","city":"Mt Sterling","state":"KY","zip":40353,"latitude":38.065322,"longitude":-83.954104,"phone_number_service":"8594980232","phone_number_main":"","service_hours":"Mo-Fr 09:00 - 19:00 | Sa 09:00 - 17:00 | Su Closed","utc_offset":"","gplace_id":0,"gplace_url":"","dealerID":61594,"trusted":false,"image_id":"v1597283975/chrysler_RM.png","phone":"8594980232","cityStateSlug":"mt-sterling.ky","slug":"Mt-Sterling.KY/mann+chry+ply+dod+jeep+eagle","location":"38.065322,-83.954104","brandsList":["chrysler","dodge","jeep"]},{"id":16305,"crm_id":999,"name":"Don Franklin Campbellsville Chrysler Dodge RAM Jeep","dealerSlug":"don+franklin+campbellsville+chrysler+dodge+ram+jeep","city_state_slug":"Campbellsville.KY","brand":"Chrysler,Dodge,Jeep,RAM","website":"www.campbellsvillechryslerdodgeramjeep.com","address":"915 Meader St","city":"Campbellsville","state":"KY","zip":42718,"latitude":37.345887,"longitude":-85.359325,"phone_number_service":"2704658113","phone_number_main":"","service_hours":"Mo-Fr 08:00 - 17:30 | Sa 08:00 - 24:00 | Su Closed","utc_offset":"","gplace_id":0,"gplace_url":"","dealerID":61678,"trusted":false,"image_id":"v1597283975/chrysler_RM.png","phone":"2704658113","cityStateSlug":"campbellsville.ky","slug":"Campbellsville.KY/don+franklin+campbellsville+chrysler+dodge+ram+jeep","location":"37.345887,-85.359325","brandsList":["chrysler","dodge","jeep","ram"]},{"id":15881,"crm_id":999,"name":"Audi of Lexington","dealerSlug":"audi+of+lexington","city_state_slug":"Lexington.KY","brand":"Audi","website":"www.audioflexington.com","address":"Pink Pigeon Pkwy 3000","city":"Lexington","state":"KY","zip":40509,"latitude":38.0156,"longitude":-84.4193,"phone_number_service":"4122539500","phone_number_main":"","service_hours":"Mo-Fr 09:00 - 19:00 | Sa 09:00 - 18:00","utc_offset":"","gplace_id":0,"gplace_url":"","dealerID":61750,"trusted":false,"image_id":"v1597283985/audi_RM.png","phone":"4122539500","cityStateSlug":"lexington.ky","slug":"Lexington.KY/audi+of+lexington","location":"38.0156,-84.4193","brandsList":["audi"]},{"id":290,"crm_id":51924958,"name":"Alton Blakley Honda","dealerSlug":"alton+blakley+honda","city_state_slug":"Somerset.KY","brand":"Honda","website":"www.abhonda.com","address":"2490 S. Highway 27","city":"Somerset","state":"KY","zip":42501,"latitude":37.0587384,"longitude":-84.6225119,"phone_number_service":"8002643275","phone_number_main":"6066780160","service_hours":"Mo-Fr 07:30 - 17:30 | Sa 08:00 - 12:00","utc_offset":"-240","gplace_id":null,"gplace_url":"https://maps.google.com/?cid=17722753779873366400","dealerID":61885,"trusted":false,"image_id":"v1597284047/honda_ms.png","phone":"8002643275","cityStateSlug":"somerset.ky","slug":"Somerset.KY/alton+blakley+honda","location":"37.0587384,-84.6225119","brandsList":["honda"]},{"id":15785,"crm_id":51925333,"name":"Zimmer Chrysler Dodge Jeep RAM","dealerSlug":"zimmer+chrysler+dodge+jeep+ram","city_state_slug":"Florence.KY","brand":"Chrysler,Dodge,Jeep,RAM","website":"www.zimmermotor.com","address":"1086 Burlington Pike","city":"Florence","state":"KY","zip":41042,"latitude":39.008935,"longitude":-84.662485,"phone_number_service":"8594886882","phone_number_main":"8595251344","service_hours":"Mo-Fr 08:00 - 17:00 | Sa 09:00 - 15:00","utc_offset":"-240","gplace_id":null,"gplace_url":"https://maps.google.com/?cid=11651753156555652326","dealerID":61947,"trusted":false,"image_id":"v1597283975/chrysler_RM.png","phone":"8594886882","cityStateSlug":"florence.ky","slug":"Florence.KY/zimmer+chrysler+dodge+jeep+ram","location":"39.008935,-84.662485","brandsList":["chrysler","dodge","jeep","ram"]},{"id":15243,"crm_id":51925672,"name":"Walters Nissan","dealerSlug":"walters+nissan","city_state_slug":"Pikeville.KY","brand":"Nissan","website":"www.waltersnissan.com","address":"30 Walters Lane","city":"Pikeville","state":"KY","zip":41501,"latitude":37.5375622,"longitude":-82.5993106,"phone_number_service":"6064321451","phone_number_main":"6064321451","service_hours":"Mo-Fr  08:00 - 17:00","utc_offset":"-240","gplace_id":null,"gplace_url":"https://maps.google.com/?cid=2142538663643934399","dealerID":62010,"trusted":false,"image_id":"v1597283926/nissan_RM.png","phone":"6064321451","cityStateSlug":"pikeville.ky","slug":"Pikeville.KY/walters+nissan","location":"37.5375622,-82.5993106","brandsList":["nissan"]},{"id":5428,"crm_id":51926245,"name":"Gates Nissan","dealerSlug":"gates+nissan","city_state_slug":"Richmond.KY","brand":"Nissan","website":"www.gatesnissan.net","address":"4098 Atwood Dr","city":"Richmond","state":"KY","zip":40475,"latitude":37.7615441,"longitude":-84.2736465,"phone_number_service":"8592093843","phone_number_main":"8596241515","service_hours":"Mo-We 07:30 - 18:00 | Th 07:30 - 19:00 | Fr 07:30 - 18:00 | Sa 08:00 - 14:00","utc_offset":"-240","gplace_id":null,"gplace_url":"https://maps.google.com/?cid=17583960820075673839","dealerID":62122,"trusted":false,"image_id":"v1597283926/nissan_RM.png","phone":"8592093843","cityStateSlug":"richmond.ky","slug":"Richmond.KY/gates+nissan","location":"37.7615441,-84.2736465","brandsList":["nissan"]},{"id":14573,"crm_id":51927589,"name":"Toyota South","dealerSlug":"toyota+south","city_state_slug":"Richmond.KY","brand":"Toyota","website":"www.toyotasouth.com","address":"961 Four Mile Rd","city":"Richmond","state":"KY","zip":40475,"latitude":37.7595594,"longitude":-84.2748627,"phone_number_service":"8593536781","phone_number_main":"8596241313","service_hours":"Mo 07:30 - 18:00 | Tu 07:30 - 19:00 | We 07:30 - 18:00 | Th 07:30 - 18:00 | Fr 07:30 - 18:00 | Sa 08:00 - 14:00","utc_offset":"-240","gplace_id":null,"gplace_url":"https://maps.google.com/?cid=9687079153099945773","dealerID":62216,"trusted":false,"image_id":"v1597284039/toyota_ms.png","phone":"8593536781","cityStateSlug":"richmond.ky","slug":"Richmond.KY/toyota+south","location":"37.7595594,-84.2748627","brandsList":["toyota"]},{"id":4097,"crm_id":52030897,"name":"Don Franklin Kia Somerset","dealerSlug":"don+franklin+kia+somerset","city_state_slug":"Somerset.KY","brand":"Kia","website":"www.donfranklinsomersetkia.com","address":"138 Turner St","city":"Somerset","state":"KY","zip":42503,"latitude":37.0946391,"longitude":-84.6223637,"phone_number_service":"8773469308","phone_number_main":"6066791177","service_hours":"Mo-Fr 08:00 - 17:00 | Sa 09:00 - 14:00","utc_offset":"-240","gplace_id":null,"gplace_url":"https://maps.google.com/?cid=17450171836641163697","dealerID":62255,"trusted":false,"image_id":"v1597283948/kia_RM.png","phone":"8773469308","cityStateSlug":"somerset.ky","slug":"Somerset.KY/don+franklin+kia+somerset","location":"37.0946391,-84.6223637","brandsList":["kia"]},{"id":4115,"crm_id":55615759,"name":"Don Jacobs Volkswagen","dealerSlug":"don+jacobs+volkswagen","city_state_slug":"Lexington.KY","brand":"Volkswagen","website":"www.donjacobsvolkswagen.com","address":"2689 Nicholasville Road","city":"Lexington","state":"KY","zip":40503,"latitude":37.9983017,"longitude":-84.5227376,"phone_number_service":"8778817241","phone_number_main":"8592765553","service_hours":"Mo-Fr 07:30 - 17:30 | Sa 08:00 - 13:00","utc_offset":"-240","gplace_id":null,"gplace_url":"https://maps.google.com/?cid=10028467375816087862","dealerID":62302,"trusted":false,"image_id":"v1597283902/volkswagen.png","phone":"8778817241","cityStateSlug":"lexington.ky","slug":"Lexington.KY/don+jacobs+volkswagen","location":"37.9983017,-84.5227376","brandsList":["volkswagen"]},{"id":13255,"crm_id":60562312,"name":"Sisk Auto Mall","dealerSlug":"sisk+auto+mall","city_state_slug":"Hopkinsville.KY","brand":"Chrysler,Dodge,Jeep,RAM","website":"www.siskmotor.com","address":"4599 Fort Campbell Blvd","city":"Hopkinsville","state":"KY","zip":42240,"latitude":36.819223,"longitude":-87.4735585,"phone_number_service":"8778369116","phone_number_main":"2708859900","service_hours":"Mo-Fr 07:30 - 17:30 | Sa 08:00-13:00","utc_offset":"-300","gplace_id":null,"gplace_url":"https://maps.google.com/?cid=12030618850131030215","dealerID":62468,"trusted":false,"image_id":"v1597283975/chrysler_RM.png","phone":"8778369116","cityStateSlug":"hopkinsville.ky","slug":"Hopkinsville.KY/sisk+auto+mall","location":"36.819223,-87.4735585","brandsList":["chrysler","dodge","jeep","ram"]},{"id":6249,"crm_id":67031950,"name":"Henderson Chevrolet Buick GMC","dealerSlug":"henderson+chevrolet+buick+gmc","city_state_slug":"Henderson.KY","brand":"Buick,Chevrolet,GMC","website":"www.hendersonchevrolet.com","address":"2746 US Hwy 41 North","city":"Henderson","state":"KY","zip":42420,"latitude":37.8765331,"longitude":-87.5660475,"phone_number_service":"2702157253","phone_number_main":"2708444599","service_hours":"Mo-Fr 07:30 - 17:30 | Sa 08:00 - 14:00","utc_offset":"-300","gplace_id":null,"gplace_url":"https://maps.google.com/?cid=6264660441287248983","dealerID":62742,"trusted":false,"image_id":"v1597283981/buick_RM.png","phone":"2702157253","cityStateSlug":"henderson.ky","slug":"Henderson.KY/henderson+chevrolet+buick+gmc","location":"37.8765331,-87.5660475","brandsList":["buick","chevrolet","gmc"]},{"id":289,"crm_id":67032142,"name":"Alton Blakley Ford","dealerSlug":"alton+blakley+ford","city_state_slug":"Somerset.KY","brand":"Ford","website":"www.altonblakleyford.com","address":"2130 US-27","city":"Somerset","state":"KY","zip":42501,"latitude":37.0636658,"longitude":-84.6205546,"phone_number_service":"6066785181","phone_number_main":"6066785181","service_hours":"Mo-Fr 07:30 - 17:00 | Sa 07:30 - 12:00","utc_offset":"-240","gplace_id":null,"gplace_url":"https://maps.google.com/?cid=8191574996549814080","dealerID":62795,"trusted":false,"image_id":"v1597283967/ford_RM.png","phone":"6066785181","cityStateSlug":"somerset.ky","slug":"Somerset.KY/alton+blakley+ford","location":"37.0636658,-84.6205546","brandsList":["ford"]},{"id":8573,"crm_id":67032229,"name":"Legacy Nissan","dealerSlug":"legacy+nissan","city_state_slug":"London.KY","brand":"Nissan","website":"www.legacynissan.com","address":"395 Highway 192 W","city":"London","state":"KY","zip":40741,"latitude":37.1058999,"longitude":-84.0792373,"phone_number_service":"8884490480","phone_number_main":"6068787220","service_hours":"Mo-We 08:00 - 17:00 | Th 08:00 - 16:45 | Fr 08:00 - 17:00","utc_offset":"-240","gplace_id":null,"gplace_url":"https://maps.google.com/?cid=14681269814641537552","dealerID":62823,"trusted":false,"image_id":"v1597283926/nissan_RM.png","phone":"8884490480","cityStateSlug":"london.ky","slug":"London.KY/legacy+nissan","location":"37.1058999,-84.0792373","brandsList":["nissan"]},{"id":1599,"crm_id":67032544,"name":"Blue Grass MOTORSPORT","dealerSlug":"blue+grass+motorsport","city_state_slug":"Louisville.KY","brand":"Porsche","website":"www.porschelouisville.com","address":"4720 Bowling Blvd","city":"Louisville","state":"KY","zip":40207,"latitude":38.2429793,"longitude":-85.6281083,"phone_number_service":"5025472675","phone_number_main":"5028943428","service_hours":"Mo-Fr 07:30 - 18:00","utc_offset":"-240","gplace_id":null,"gplace_url":"https://maps.google.com/?cid=12200008411428260667","dealerID":62912,"trusted":false,"image_id":"v1597283919/porsche.jpg","phone":"5025472675","cityStateSlug":"louisville.ky","slug":"Louisville.KY/blue+grass+motorsport","location":"38.2429793,-85.6281083","brandsList":["porsche"]},{"id":8529,"crm_id":67033216,"name":"Leachman Buick GMC Cadillac","dealerSlug":"leachman+buick+gmc+cadillac","city_state_slug":"Bowling-Green.KY","brand":"Buick,GMC","website":"www.leachmanauto.com","address":"2012 Scottsville Rd","city":"Bowling Green","state":"KY","zip":42103,"latitude":36.9597466,"longitude":-86.4304886,"phone_number_service":"2704950691","phone_number_main":"2702820365","service_hours":"Mo 06:30 - 19:00 | Tu 06:30 - 19:00 | We 07:00 - 17:30 | Th 06:30 - 19:00 | Fr 06:30 - 19:00 | Sa  08:00 - 17:00","utc_offset":"-300","gplace_id":null,"gplace_url":"https://maps.google.com/?cid=3408681741810422976","dealerID":63097,"trusted":false,"image_id":"v1597283981/buick_RM.png","phone":"2704950691","cityStateSlug":"bowling-green.ky","slug":"Bowling-Green.KY/leachman+buick+gmc+cadillac","location":"36.9597466,-86.4304886","brandsList":["buick","gmc"]},{"id":3297,"crm_id":67033399,"name":"Conway Heaton","dealerSlug":"conway+heaton","city_state_slug":"Bardstown.KY","brand":"Ford","website":"www.conwayheaton.com","address":"810 N 3rd St","city":"Bardstown","state":"KY","zip":40004,"latitude":37.823687,"longitude":-85.4633089,"phone_number_service":"8884353244","phone_number_main":"5023483929","service_hours":"Mo-Fr 07:30 - 17:00","utc_offset":"-240","gplace_id":null,"gplace_url":"https://maps.google.com/?cid=8690428771076241880","dealerID":63145,"trusted":false,"image_id":"v1597283967/ford_RM.png","phone":"8884353244","cityStateSlug":"bardstown.ky","slug":"Bardstown.KY/conway+heaton","location":"37.823687,-85.4633089","brandsList":["ford"]},{"id":6832,"crm_id":67033570,"name":"Hyundai of Louisville","dealerSlug":"hyundai+of+louisville","city_state_slug":"Louisville.KY","brand":"Hyundai","website":"www.hyundaioflouisville.com","address":"6633 Dixie Hwy","city":"Louisville","state":"KY","zip":40258,"latitude":38.1551363,"longitude":-85.8336051,"phone_number_service":"5022144200","phone_number_main":"5022144200","service_hours":"Mo-Fr 08:00 - 17:00","utc_offset":"-240","gplace_id":null,"gplace_url":"https://maps.google.com/?cid=4374176673325488756","dealerID":63191,"trusted":false,"image_id":"v1597283959/hyundai_RM.png","phone":"5022144200","cityStateSlug":"louisville.ky","slug":"Louisville.KY/hyundai+of+louisville","location":"38.1551363,-85.8336051","brandsList":["hyundai"]},{"id":1923,"crm_id":67033699,"name":"Bob Swope Ford","dealerSlug":"bob+swope+ford","city_state_slug":"Elizabethtown.KY","brand":"Ford","website":"www.bobswopeford.com","address":"1307 N Dixie Hwy","city":"Elizabethtown","state":"KY","zip":42701,"latitude":37.7206489,"longitude":-85.8786683,"phone_number_service":"2706400801","phone_number_main":"2707371000","service_hours":"Mo-Fr 07:30 - 18:00 | Sa 08:00 - 14:00","utc_offset":"-240","gplace_id":null,"gplace_url":"https://maps.google.com/?cid=18394347538032850612","dealerID":63230,"trusted":false,"image_id":"v1597283967/ford_RM.png","phone":"2706400801","cityStateSlug":"elizabethtown.ky","slug":"Elizabethtown.KY/bob+swope+ford","location":"37.7206489,-85.8786683","brandsList":["ford"]},{"id":587,"crm_id":67033951,"name":"Audi Louisville","dealerSlug":"audi+louisville","city_state_slug":"Louisville.KY","brand":"Audi","website":"www.audilouisville.com","address":"4730 Bowling Blvd","city":"Louisville","state":"KY","zip":40207,"latitude":38.2436,"longitude":-85.6282,"phone_number_service":"8888117316","phone_number_main":"5028943427","service_hours":"Mo-Fr 07:30 - 18:00","utc_offset":"-240","gplace_id":null,"gplace_url":"https://maps.google.com/?cid=14633356040529363590","dealerID":63300,"trusted":false,"image_id":"v1597283985/audi_RM.png","phone":"8888117316","cityStateSlug":"louisville.ky","slug":"Louisville.KY/audi+louisville","location":"38.2436,-85.6282","brandsList":["audi"]},{"id":5583,"crm_id":67034200,"name":"Gillie Hyde Ford Lincoln","dealerSlug":"gillie+hyde+ford+lincoln","city_state_slug":"Glasgow.KY","brand":"Ford,Lincoln","website":"www.gilliehydeford.net","address":"610 Happy Valley Rd","city":"Glasgow","state":"KY","zip":42141,"latitude":37.008148,"longitude":-85.9169781,"phone_number_service":"8884738809","phone_number_main":"2706512125","service_hours":"Mo-Fr 07:00 - 17:00 | Sa 07:00 - 14:00","utc_offset":"-300","gplace_id":null,"gplace_url":"https://maps.google.com/?cid=7866791551213229663","dealerID":63367,"trusted":false,"image_id":"v1597283967/ford_RM.png","phone":"8884738809","cityStateSlug":"glasgow.ky","slug":"Glasgow.KY/gillie+hyde+ford+lincoln","location":"37.008148,-85.9169781","brandsList":["ford","lincoln"]},{"id":13987,"crm_id":67034497,"name":"Swope Toyota","dealerSlug":"swope+toyota","city_state_slug":"Elizabethtown.KY","brand":"Toyota","website":"www.swopetoyota.com","address":"1085 North Dixie Avenue","city":"Elizabethtown","state":"KY","zip":42701,"latitude":37.7151472,"longitude":-85.8770215,"phone_number_service":"2707636122","phone_number_main":"","service_hours":"Mo-Fr 07:00 - 17:00 | Sa 07:00 - 14:00","utc_offset":"-240","gplace_id":null,"gplace_url":"https://maps.google.com/?cid=15392252475289564211","dealerID":63452,"trusted":false,"image_id":"v1597284039/toyota_ms.png","phone":"2707636122","cityStateSlug":"elizabethtown.ky","slug":"Elizabethtown.KY/swope+toyota","location":"37.7151472,-85.8770215","brandsList":["toyota"]},{"id":7034,"crm_id":67034749,"name":"Jack Burford Chevrolet","dealerSlug":"jack+burford+chevrolet","city_state_slug":"Richmond.KY","brand":"Chevrolet","website":"www.jackburford.com","address":"819 Eastern Bypass","city":"Richmond","state":"KY","zip":40475,"latitude":37.73216,"longitude":-84.283766,"phone_number_service":"8593534829","phone_number_main":"8596233350","service_hours":"Mo-Fr 07:30 - 17:30 | Sa 08:00 - 14:00","utc_offset":"-240","gplace_id":null,"gplace_url":"https://maps.google.com/?cid=17644441172517142222","dealerID":63523,"trusted":false,"image_id":"v1597284079/chevy_ms.png","phone":"8593534829","cityStateSlug":"richmond.ky","slug":"Richmond.KY/jack+burford+chevrolet","location":"37.73216,-84.283766","brandsList":["chevrolet"]},{"id":10004,"crm_id":67034986,"name":"Mike Castrucci Ford Alexandria","dealerSlug":"mike+castrucci+ford+alexandria","city_state_slug":"Alexandria.KY","brand":"Ford","website":"www.castruccifordofalexandria.com","address":"7400 Alexandria Pike","city":"Alexandria","state":"KY","zip":41001,"latitude":38.9821319,"longitude":-84.399681,"phone_number_service":"8554584285","phone_number_main":"8554584285","service_hours":"Mo-Fr 07:30 - 18:00 | Sa 08:00 - 13:00","utc_offset":"-240","gplace_id":null,"gplace_url":"https://maps.google.com/?cid=6706048543825338923","dealerID":63580,"trusted":false,"image_id":"v1597283967/ford_RM.png","phone":"8554584285","cityStateSlug":"alexandria.ky","slug":"Alexandria.KY/mike+castrucci+ford+alexandria","location":"38.9821319,-84.399681","brandsList":["ford"]},{"id":3387,"crm_id":67035040,"name":"Courtesy Acura","dealerSlug":"courtesy+acura","city_state_slug":"Lexington.KY","brand":"Acura","website":"www.courtesyonwheels.com","address":"3701 Nicholasville Rd","city":"Lexington","state":"KY","zip":40503,"latitude":37.9839478,"longitude":-84.5275849,"phone_number_service":"8592728900","phone_number_main":"8592728900","service_hours":"Mo-Fr 07:30 - 18:00 | Sa 09:00 - 14:00","utc_offset":"-240","gplace_id":null,"gplace_url":"https://maps.google.com/?cid=11187555403745749883","dealerID":63595,"trusted":false,"image_id":"v1597283988/acura.png","phone":"8592728900","cityStateSlug":"lexington.ky","slug":"Lexington.KY/courtesy+acura","location":"37.9839478,-84.5275849","brandsList":["acura"]},{"id":13984,"crm_id":67035148,"name":"Swope Hyundai","dealerSlug":"swope+hyundai","city_state_slug":"Elizabethtown.KY","brand":"Hyundai","website":"www.swopehyundai.com","address":"1104 N Dixie Hwy","city":"Elizabethtown","state":"KY","zip":42701,"latitude":37.7157464,"longitude":-85.878597,"phone_number_service":"8774387819","phone_number_main":"2705051200","service_hours":"Mo-Fr 07:30 - 17:30 | Sa 07:30-14:00","utc_offset":"-240","gplace_id":null,"gplace_url":"https://maps.google.com/?cid=11520558690637781082","dealerID":63625,"trusted":false,"image_id":"v1597283959/hyundai_RM.png","phone":"8774387819","cityStateSlug":"elizabethtown.ky","slug":"Elizabethtown.KY/swope+hyundai","location":"37.7157464,-85.878597","brandsList":["hyundai"]},{"id":6345,"crm_id":67035154,"name":"Herb Jones Chevrolet Buick GMC","dealerSlug":"herb+jones+chevrolet+buick+gmc","city_state_slug":"Elizabethtown.KY","brand":"Buick,Chevrolet,GMC","website":"www.herbjoneschevrolet.com","address":"1605 Ring Road","city":"Elizabethtown","state":"KY","zip":42701,"latitude":37.7280992,"longitude":-85.8852507,"phone_number_service":"8554104370","phone_number_main":"2705054777","service_hours":"Mo-Sa 07:30 - 15:30","utc_offset":"-240","gplace_id":null,"gplace_url":"https://maps.google.com/?cid=13707355153470499075","dealerID":63627,"trusted":false,"image_id":"v1597283981/buick_RM.png","phone":"8554104370","cityStateSlug":"elizabethtown.ky","slug":"Elizabethtown.KY/herb+jones+chevrolet+buick+gmc","location":"37.7280992,-85.8852507","brandsList":["buick","chevrolet","gmc"]},{"id":14265,"crm_id":67035403,"name":"Tim Short Chevrolet Buick GMC","dealerSlug":"tim+short+chevrolet+buick+gmc","city_state_slug":"Hazard.KY","brand":"Buick,Chevrolet,GMC","website":"www.timshortchevyofhazard.com","address":"101 Cardinal Dr","city":"Hazard","state":"KY","zip":41701,"latitude":37.2330256,"longitude":-83.1747629,"phone_number_service":"6069104449","phone_number_main":"8663606257","service_hours":"Mo-Fr 07:30 - 17:00","utc_offset":"-240","gplace_id":null,"gplace_url":"https://maps.google.com/?cid=3643077688700141897","dealerID":63699,"trusted":false,"image_id":"v1597283981/buick_RM.png","phone":"6069104449","cityStateSlug":"hazard.ky","slug":"Hazard.KY/tim+short+chevrolet+buick+gmc","location":"37.2330256,-83.1747629","brandsList":["buick","chevrolet","gmc"]},{"id":14542,"crm_id":67035931,"name":"Toyota of Somerset","dealerSlug":"toyota+of+somerset","city_state_slug":"Somerset.KY","brand":"Toyota","website":"www.toyotaofsomerset.com","address":"4195 S Hwy 27","city":"Somerset","state":"KY","zip":42501,"latitude":37.0345342,"longitude":-84.6278669,"phone_number_service":"6066859529","phone_number_main":"6066791601","service_hours":"Mo-Fr  08:00 - 17:00 | Sa 08:00 - 12:00","utc_offset":"-240","gplace_id":null,"gplace_url":"https://maps.google.com/?cid=9322049404744862258","dealerID":63845,"trusted":false,"image_id":"v1597284039/toyota_ms.png","phone":"6066859529","cityStateSlug":"somerset.ky","slug":"Somerset.KY/toyota+of+somerset","location":"37.0345342,-84.6278669","brandsList":["toyota"]},{"id":11100,"crm_id":67036093,"name":"Oxmoor Ford Lincoln","dealerSlug":"oxmoor+ford+lincoln","city_state_slug":"Louisville.KY","brand":"Ford,Lincoln","website":"www.oxmoorflm.com","address":"100 Oxmoor Ln","city":"Louisville","state":"KY","zip":40222,"latitude":38.2485944,"longitude":-85.6145485,"phone_number_service":"5024133094","phone_number_main":"5024262500","service_hours":"Mo-Fr 07:00 - 18:00 | Sa 08:00 - 14:00","utc_offset":"-240","gplace_id":null,"gplace_url":"https://maps.google.com/?cid=5495438193978275293","dealerID":63882,"trusted":false,"image_id":"v1597283967/ford_RM.png","phone":"5024133094","cityStateSlug":"louisville.ky","slug":"Louisville.KY/oxmoor+ford+lincoln","location":"38.2485944,-85.6145485","brandsList":["ford","lincoln"]},{"id":11378,"crm_id":67036165,"name":"Pennyrile Ford","dealerSlug":"pennyrile+ford","city_state_slug":"Hopkinsville.KY","brand":"Ford","website":"www.pennyrilefordhopkinsville.com","address":"5505 Fort Campbell Blvd","city":"Hopkinsville","state":"KY","zip":42240,"latitude":36.801298,"longitude":-87.473518,"phone_number_service":"8887154061","phone_number_main":"2708868131","service_hours":"Mo-Fr 07:30 - 17:00","utc_offset":"-300","gplace_id":null,"gplace_url":"https://maps.google.com/?cid=17492271467203777208","dealerID":63901,"trusted":false,"image_id":"v1597283967/ford_RM.png","phone":"8887154061","cityStateSlug":"hopkinsville.ky","slug":"Hopkinsville.KY/pennyrile+ford","location":"36.801298,-87.473518","brandsList":["ford"]},{"id":7186,"crm_id":67036219,"name":"Jake Sweeney Kia","dealerSlug":"jake+sweeney+kia","city_state_slug":"Florence.KY","brand":"Kia","website":"www.sweeneykia.com","address":"5969 Centennial Cir","city":"Florence","state":"KY","zip":41042,"latitude":39.0143447,"longitude":-84.6718202,"phone_number_service":"8599382024","phone_number_main":"8599382020","service_hours":"Mo-Fr 07:30 - 18:00 |Sa 08:00 - 13:00","utc_offset":"-240","gplace_id":null,"gplace_url":"https://maps.google.com/?cid=18112710125919421155","dealerID":51391,"trusted":true,"image_id":"v1597283948/kia_RM.png","phone":"8599382024","cityStateSlug":"florence.ky","slug":"Florence.KY/jake+sweeney+kia","location":"39.0143447,-84.6718202","brandsList":["kia"]},{"id":3688,"crm_id":67036615,"name":"Dan Powers Chevrolet Buick GMC","dealerSlug":"dan+powers+chevrolet+buick+gmc","city_state_slug":"Hardinsburg.KY","brand":"Chevrolet","website":"www.danpowersgmcenter.com","address":"1065 E Highway 60","city":"Hardinsburg","state":"KY","zip":40143,"latitude":37.7600375,"longitude":-86.4366864,"phone_number_service":"2708590743","phone_number_main":"2707565212","service_hours":"Mo-Fr 08:00 - 17:00 | Sa 08:00 - 12:00","utc_offset":"-300","gplace_id":null,"gplace_url":"https://maps.google.com/?cid=18381671230244326816","dealerID":64027,"trusted":false,"image_id":"v1597284079/chevy_ms.png","phone":"2708590743","cityStateSlug":"hardinsburg.ky","slug":"Hardinsburg.KY/dan+powers+chevrolet+buick+gmc","location":"37.7600375,-86.4366864","brandsList":["chevrolet"]},{"id":8711,"crm_id":67036765,"name":"Lexus of Lexington","dealerSlug":"lexus+of+lexington","city_state_slug":"Lexington.KY","brand":"Lexus","website":"www.lexusoflexington.com","address":"1264 E New Circle Rd","city":"Lexington","state":"KY","zip":40505,"latitude":38.0301869,"longitude":-84.4534535,"phone_number_service":"8596000185","phone_number_main":"8592332000","service_hours":"Mo-Fr 08:00 - 19:00 | Sa 09:00 - 15:00","utc_offset":"-240","gplace_id":null,"gplace_url":"https://maps.google.com/?cid=11074725447177109356","dealerID":64073,"trusted":false,"image_id":"v1597284042/lexus_ms.png","phone":"8596000185","cityStateSlug":"lexington.ky","slug":"Lexington.KY/lexus+of+lexington","location":"38.0301869,-84.4534535","brandsList":["lexus"]},{"id":974,"crm_id":67036903,"name":"Bailey Gibson Buick GMC","dealerSlug":"bailey+gibson+buick+gmc","city_state_slug":"Glasgow.KY","brand":"Buick,GMC","website":"www.baileygibson.com","address":"306 Happy Valley Rd","city":"Glasgow","state":"KY","zip":42142,"latitude":37.005164,"longitude":-85.909639,"phone_number_service":"8888754140","phone_number_main":"2706518851","service_hours":"Mo-Fr 07:30 - 17:00","utc_offset":"-300","gplace_id":null,"gplace_url":"https://maps.google.com/?cid=2717685511163783263","dealerID":64111,"trusted":false,"image_id":"v1597283981/buick_RM.png","phone":"8888754140","cityStateSlug":"glasgow.ky","slug":"Glasgow.KY/bailey+gibson+buick+gmc","location":"37.005164,-85.909639","brandsList":["buick","gmc"]},{"id":11101,"crm_id":67037698,"name":"Oxmoor Hyundai","dealerSlug":"oxmoor+hyundai","city_state_slug":"Louisville.KY","brand":"Hyundai","website":"www.oxmoorhyundai.com","address":"8107 Shelbyville Rd","city":"Louisville","state":"KY","zip":40222,"latitude":38.249071,"longitude":-85.603766,"phone_number_service":"5024102388","phone_number_main":"5028943400","service_hours":"Mo-Fr 07:30 - 18:00 | Sa 08:00 - 14:00","utc_offset":"-240","gplace_id":null,"gplace_url":"https://maps.google.com/?cid=14660926831589814824","dealerID":64332,"trusted":false,"image_id":"v1597283959/hyundai_RM.png","phone":"5024102388","cityStateSlug":"louisville.ky","slug":"Louisville.KY/oxmoor+hyundai","location":"38.249071,-85.603766","brandsList":["hyundai"]},{"id":11301,"crm_id":67037713,"name":"Paul Miller Ford","dealerSlug":"paul+miller+ford","city_state_slug":"Lexington.KY","brand":"Ford","website":"www.paulmillerford.com","address":"975 E New Circle Rd","city":"Lexington","state":"KY","zip":40505,"latitude":38.0395016,"longitude":-84.453562,"phone_number_service":"8887081102","phone_number_main":"8593172061","service_hours":"Mo-Fr 07:00 - 18:00","utc_offset":"-240","gplace_id":null,"gplace_url":"https://maps.google.com/?cid=5779551156440683467","dealerID":64336,"trusted":false,"image_id":"v1597283967/ford_RM.png","phone":"8887081102","cityStateSlug":"lexington.ky","slug":"Lexington.KY/paul+miller+ford","location":"38.0395016,-84.453562","brandsList":["ford"]},{"id":14496,"crm_id":67037947,"name":"Toyota of Louisville","dealerSlug":"toyota+of+louisville","city_state_slug":"Louisville.KY","brand":"Toyota","website":"www.toyotaoflouisville.com","address":"6514 Dixie Hwy","city":"Louisville","state":"KY","zip":40258,"latitude":38.1555346,"longitude":-85.8360552,"phone_number_service":"5029351433","phone_number_main":"5022730336","service_hours":"Mo-Fr 07:00 - 19:00 | Sa 08:00 - 17:00","utc_offset":"-240","gplace_id":null,"gplace_url":"https://maps.google.com/?cid=4062760591327686261","dealerID":64405,"trusted":false,"image_id":"v1597284039/toyota_ms.png","phone":"5029351433","cityStateSlug":"louisville.ky","slug":"Louisville.KY/toyota+of+louisville","location":"38.1555346,-85.8360552","brandsList":["toyota"]},{"id":4131,"crm_id":67038196,"name":"Don Moore on 54","dealerSlug":"don+moore+on+54","city_state_slug":"Owensboro.KY","brand":"Buick,Chevrolet,GMC","website":"www.donmoorechevy.com","address":"3232 Villa Point","city":"Owensboro","state":"KY","zip":42303,"latitude":37.751853,"longitude":-87.061038,"phone_number_service":"2702154350","phone_number_main":"2702151953","service_hours":"Mo-Fr 07:30 - 17:30 | Sa 08:00 - 14:00","utc_offset":"-300","gplace_id":null,"gplace_url":"https://maps.google.com/?cid=496455364115049383","dealerID":64470,"trusted":false,"image_id":"v1597283981/buick_RM.png","phone":"2702154350","cityStateSlug":"owensboro.ky","slug":"Owensboro.KY/don+moore+on+54","location":"37.751853,-87.061038","brandsList":["buick","chevrolet","gmc"]},{"id":9131,"crm_id":67038502,"name":"Madison County Ford Lincoln","dealerSlug":"madison+county+ford+lincoln","city_state_slug":"Richmond.KY","brand":"Ford,Lincoln","website":"www.madisoncountyfordky.com","address":"6012 Atwood Dr","city":"Richmond","state":"KY","zip":40475,"latitude":37.7507349,"longitude":-84.2665129,"phone_number_service":"8592864498","phone_number_main":"8592864498","service_hours":"Mo-Fr 07:00 - 17:30 | Sa 08:00 - 14:00","utc_offset":"-240","gplace_id":null,"gplace_url":"https://maps.google.com/?cid=8646659467936259844","dealerID":64555,"trusted":false,"image_id":"v1597283967/ford_RM.png","phone":"8592864498","cityStateSlug":"richmond.ky","slug":"Richmond.KY/madison+county+ford+lincoln","location":"37.7507349,-84.2665129","brandsList":["ford","lincoln"]},{"id":4297,"crm_id":67038592,"name":"Dwain Taylor Chevrolet Buick GMC","dealerSlug":"dwain+taylor+chevrolet+buick+gmc","city_state_slug":"Murray.KY","brand":"Buick,Chevrolet,GMC","website":"www.dwaintaylorchevrolet.com","address":"1307 S 12th St","city":"Murray","state":"KY","zip":42071,"latitude":36.5923777,"longitude":-88.3144398,"phone_number_service":"2708734742","phone_number_main":"2708734195","service_hours":"Mo-Fr 07:00 - 17:00","utc_offset":"-300","gplace_id":null,"gplace_url":"https://maps.google.com/?cid=14584192540242556086","dealerID":64581,"trusted":false,"image_id":"v1597283981/buick_RM.png","phone":"2708734742","cityStateSlug":"murray.ky","slug":"Murray.KY/dwain+taylor+chevrolet+buick+gmc","location":"36.5923777,-88.3144398","brandsList":["buick","chevrolet","gmc"]},{"id":13257,"crm_id":67039183,"name":"Sisk Honda","dealerSlug":"sisk+honda","city_state_slug":"Hopkinsville.KY","brand":"Honda","website":"www.siskhonda.com","address":"4599 Fort Campbell Blvd","city":"Hopkinsville","state":"KY","zip":42240,"latitude":36.8190604,"longitude":-87.4735148,"phone_number_service":"8889025343","phone_number_main":"2708859900","service_hours":"Mo-Fr 07:30 - 17:30 | Sa 08:00-13:00","utc_offset":"-300","gplace_id":null,"gplace_url":"https://maps.google.com/?cid=2721676072934879564","dealerID":64744,"trusted":false,"image_id":"v1597284047/honda_ms.png","phone":"8889025343","cityStateSlug":"hopkinsville.ky","slug":"Hopkinsville.KY/sisk+honda","location":"36.8190604,-87.4735148","brandsList":["honda"]},{"id":2764,"crm_id":67039372,"name":"Champion Chevrolet Buick GMC","dealerSlug":"champion+chevrolet+buick+gmc","city_state_slug":"LaGrange.KY","brand":"Buick,Chevrolet,GMC","website":"www.driveachampion.com","address":"502 S 1st St","city":"LaGrange","state":"KY","zip":40031,"latitude":38.4022222,"longitude":-85.3772222,"phone_number_service":"5025654577","phone_number_main":"5022655066","service_hours":"Mo-Fr 08:00 - 18:00 | Sa 8:00 - 14:00","utc_offset":"-240","gplace_id":null,"gplace_url":"https://maps.google.com/?cid=10675935742292644017","dealerID":64790,"trusted":false,"image_id":"v1597283981/buick_RM.png","phone":"5025654577","cityStateSlug":"lagrange.ky","slug":"LaGrange.KY/champion+chevrolet+buick+gmc","location":"38.4022222,-85.3772222","brandsList":["buick","chevrolet","gmc"]},{"id":11102,"crm_id":67039564,"name":"Oxmoor Mazda","dealerSlug":"oxmoor+mazda","city_state_slug":"Louisville.KY","brand":"Mazda","website":"www.oxmoormazda.com","address":"7913 Shelbyville Rd","city":"Louisville","state":"KY","zip":40222,"latitude":38.249206,"longitude":-85.6068761,"phone_number_service":"5022145360","phone_number_main":"5028943425","service_hours":"Mo-Fr 07:30 - 18:00 | Sa 08:00 - 14:00","utc_offset":"-240","gplace_id":null,"gplace_url":"https://maps.google.com/?cid=9660363285045870000","dealerID":64848,"trusted":false,"image_id":"v1597283937/mazda.png","phone":"5022145360","cityStateSlug":"louisville.ky","slug":"Louisville.KY/oxmoor+mazda","location":"38.249206,-85.6068761","brandsList":["mazda"]},{"id":11267,"crm_id":67039690,"name":"Patriot Chevrolet Buick GMC","dealerSlug":"patriot+chevrolet+buick+gmc","city_state_slug":"Hopkinsville.KY","brand":"Buick,Chevrolet,GMC","website":"www.patriotchevroletbuickgmc.com","address":"4401 Fort Campbell Blvd","city":"Hopkinsville","state":"KY","zip":42240,"latitude":36.82217,"longitude":-87.4747,"phone_number_service":"2063169111","phone_number_main":"2708861207","service_hours":"Mo-Fr 07:30 - 17:00 | Sa 08:00 - 15:00","utc_offset":"-300","gplace_id":null,"gplace_url":"https://maps.google.com/?cid=9165667732045180472","dealerID":64882,"trusted":false,"image_id":"v1597283981/buick_RM.png","phone":"2063169111","cityStateSlug":"hopkinsville.ky","slug":"Hopkinsville.KY/patriot+chevrolet+buick+gmc","location":"36.82217,-87.4747","brandsList":["buick","chevrolet","gmc"]},{"id":5837,"crm_id":67039957,"name":"Greenwood Ford","dealerSlug":"greenwood+ford","city_state_slug":"Bowling-Green.KY","brand":"Ford","website":"www.greenwoodfordbowlinggreen.com","address":"3075 Scottsville Rd","city":"Bowling Green","state":"KY","zip":42104,"latitude":36.9417214,"longitude":-86.4228343,"phone_number_service":"8884409237","phone_number_main":"2708439041","service_hours":"Mo-Fr 07:30 - 18:00 | Sa 08:00 - 15:00","utc_offset":"-300","gplace_id":null,"gplace_url":"https://maps.google.com/?cid=6130546165563992608","dealerID":64957,"trusted":false,"image_id":"v1597283967/ford_RM.png","phone":"8884409237","cityStateSlug":"bowling-green.ky","slug":"Bowling-Green.KY/greenwood+ford","location":"36.9417214,-86.4228343","brandsList":["ford"]},{"id":13983,"crm_id":67040065,"name":"Swope Chrysler Dodge Jeep RAM","dealerSlug":"swope+chrysler+dodge+jeep+ram","city_state_slug":"Elizabethtown.KY","brand":"Chrysler,Dodge,Jeep,RAM","website":"www.swopechryslerdodgejeep.com","address":"1012 N Dixie Hwy suite b","city":"Elizabethtown","state":"KY","zip":42701,"latitude":37.7141664,"longitude":-85.8778989,"phone_number_service":"2708724951","phone_number_main":"2707652181","service_hours":"Mo-Fr 07:00 - 17:30 | Sa 07:45 - 14:30","utc_offset":"-240","gplace_id":null,"gplace_url":"https://maps.google.com/?cid=12981954349886278534","dealerID":64988,"trusted":false,"image_id":"v1597283975/chrysler_RM.png","phone":"2708724951","cityStateSlug":"elizabethtown.ky","slug":"Elizabethtown.KY/swope+chrysler+dodge+jeep+ram","location":"37.7141664,-85.8778989","brandsList":["chrysler","dodge","jeep","ram"]},{"id":7864,"crm_id":67040224,"name":"Kerry Toyota","dealerSlug":"kerry+toyota","city_state_slug":"Florence.KY","brand":"Toyota","website":"www.kerrytoyota.com","address":"6050 Hopeful Church Rd","city":"Florence","state":"KY","zip":41042,"latitude":39.0041634,"longitude":-84.6553414,"phone_number_service":"8593711518","phone_number_main":"8593713939","service_hours":"Mo 07:00 - 19:00 |Tu-Fr 07:00 - 18:00 | Sa 08:00 - 14:00","utc_offset":"-240","gplace_id":null,"gplace_url":"https://maps.google.com/?cid=1463918719256703680","dealerID":65020,"trusted":false,"image_id":"v1597284039/toyota_ms.png","phone":"8593711518","cityStateSlug":"florence.ky","slug":"Florence.KY/kerry+toyota","location":"39.0041634,-84.6553414","brandsList":["toyota"]},{"id":2377,"crm_id":67040263,"name":"Byerly Ford","dealerSlug":"byerly+ford","city_state_slug":"Louisville.KY","brand":"Ford","website":"www.byerlyford.com/","address":"4041 Dixie Hwy","city":"Louisville","state":"KY","zip":40216,"latitude":38.1895284,"longitude":-85.809028,"phone_number_service":"5023251425","phone_number_main":"5024481661","service_hours":"Mo-Fr 07:00 - 18:00 | Sa 08:00 - 14:00","utc_offset":"-240","gplace_id":null,"gplace_url":"https://maps.google.com/?cid=3150064736927921811","dealerID":65031,"trusted":false,"image_id":"v1597283967/ford_RM.png","phone":"5023251425","cityStateSlug":"louisville.ky","slug":"Louisville.KY/byerly+ford","location":"38.1895284,-85.809028","brandsList":["ford"]},{"id":4101,"crm_id":67040773,"name":"Don Franklin Monticello Chrysler Dodge RAM Jeep","dealerSlug":"don+franklin+monticello+chrysler+dodge+ram+jeep","city_state_slug":"Monticello.KY","brand":"Chrysler,Dodge,Jeep,RAM","website":"www.donfranklinchryslerdodgeramjeep.com","address":"1777 E Highway 90","city":"Monticello","state":"KY","zip":42633,"latitude":36.8596245,"longitude":-84.8420547,"phone_number_service":"6062594237","phone_number_main":"8669504007","service_hours":"Mo-Fr 07:30 - 17:00","utc_offset":"-240","gplace_id":null,"gplace_url":"https://maps.google.com/?cid=16705408665600045676","dealerID":65167,"trusted":false,"image_id":"v1597283975/chrysler_RM.png","phone":"6062594237","cityStateSlug":"monticello.ky","slug":"Monticello.KY/don+franklin+monticello+chrysler+dodge+ram+jeep","location":"36.8596245,-84.8420547","brandsList":["chrysler","dodge","jeep","ram"]},{"id":7051,"crm_id":67040815,"name":"Jack Kain Ford","dealerSlug":"jack+kain+ford","city_state_slug":"Versailles.KY","brand":"Ford","website":"www.kainford.com","address":"3405 Lexington Rd","city":"Versailles","state":"KY","zip":40383,"latitude":38.0435539,"longitude":-84.6692491,"phone_number_service":"8599774332","phone_number_main":"8886851211","service_hours":"Mo-Fr 07:30 - 18:00 | Sa 08:00 - 15:00","utc_offset":"-240","gplace_id":null,"gplace_url":"https://maps.google.com/?cid=10039880025527850883","dealerID":65178,"trusted":false,"image_id":"v1597283967/ford_RM.png","phone":"8599774332","cityStateSlug":"versailles.ky","slug":"Versailles.KY/jack+kain+ford","location":"38.0435539,-84.6692491","brandsList":["ford"]},{"id":4284,"crm_id":67041292,"name":"Dutch's Chevrolet","dealerSlug":"dutchs+chevrolet","city_state_slug":"Mt-Sterling.KY","brand":"Chevrolet","website":"www.dutchsauto.com","address":"751 Indian Mound Dr","city":"Mt Sterling","state":"KY","zip":40353,"latitude":38.0649,"longitude":-83.9567912,"phone_number_service":"8593982860","phone_number_main":"8774983378","service_hours":"","utc_offset":"-240","gplace_id":null,"gplace_url":"https://maps.google.com/?cid=12518424336649380326","dealerID":65301,"trusted":false,"image_id":"v1597284079/chevy_ms.png","phone":"8593982860","cityStateSlug":"mt-sterling.ky","slug":"Mt-Sterling.KY/dutchs+chevrolet","location":"38.0649,-83.9567912","brandsList":["chevrolet"]},{"id":4285,"crm_id":67041298,"name":"Dutch's Ford","dealerSlug":"dutchs+ford","city_state_slug":"Mt-Sterling.KY","brand":"Ford","website":"www.dutchsford.com/","address":"745 Indian Mound Dr","city":"Mt Sterling","state":"KY","zip":40353,"latitude":38.065069,"longitude":-83.9568087,"phone_number_service":"8885185634","phone_number_main":"8774983378","service_hours":"Mo-Fr 07:30 - 17:30 | Sa Closed","utc_offset":"-240","gplace_id":null,"gplace_url":"https://maps.google.com/?cid=13354893741213106924","dealerID":65303,"trusted":false,"image_id":"v1597283967/ford_RM.png","phone":"8885185634","cityStateSlug":"mt-sterling.ky","slug":"Mt-Sterling.KY/dutchs+ford","location":"38.065069,-83.9568087","brandsList":["ford"]},{"id":6790,"crm_id":67042117,"name":"Hutch Chevrolet Buick GMC","dealerSlug":"hutch+chevrolet+buick+gmc","city_state_slug":"Paintsville.KY","brand":"Buick,Chevrolet,GMC","website":"www.hutchchevrolet.com","address":"1004 3rd St","city":"Paintsville","state":"KY","zip":41240,"latitude":37.8230951,"longitude":-82.8318328,"phone_number_service":"6062974066","phone_number_main":"6068874458","service_hours":"Mo-Fr 07:30 - 17:30","utc_offset":"-240","gplace_id":null,"gplace_url":"https://maps.google.com/?cid=9335004263707666318","dealerID":65511,"trusted":false,"image_id":"v1597283981/buick_RM.png","phone":"6062974066","cityStateSlug":"paintsville.ky","slug":"Paintsville.KY/hutch+chevrolet+buick+gmc","location":"37.8230951,-82.8318328","brandsList":["buick","chevrolet","gmc"]},{"id":8845,"crm_id":67042258,"name":"Linwood Chevrolet Buick GMC","dealerSlug":"linwood+chevrolet+buick+gmc","city_state_slug":"Mayfield.KY","brand":"Buick,Chevrolet,GMC","website":"www.linwoodofmayfield.com","address":"2007 State Route 45 North","city":"Mayfield","state":"KY","zip":42066,"latitude":36.7695291,"longitude":-88.6470052,"phone_number_service":"2702054791","phone_number_main":"2704446901","service_hours":"Mo-Fr 08:00 - 17:00","utc_offset":"-300","gplace_id":null,"gplace_url":"https://maps.google.com/?cid=14960510503802565721","dealerID":65554,"trusted":false,"image_id":"v1597283981/buick_RM.png","phone":"2702054791","cityStateSlug":"mayfield.ky","slug":"Mayfield.KY/linwood+chevrolet+buick+gmc","location":"36.7695291,-88.6470052","brandsList":["buick","chevrolet","gmc"]},{"id":8849,"crm_id":67042264,"name":"Linwood Paducah","dealerSlug":"linwood+paducah","city_state_slug":"Paducah.KY","brand":"Chrysler,Dodge,Jeep,RAM","website":"www.linwoodmotors.net","address":"3345 Park Ave","city":"Paducah","state":"KY","zip":42001,"latitude":37.084768,"longitude":-88.6554187,"phone_number_service":"2702827881","phone_number_main":"2704446901","service_hours":"Mo-Fr 08:00 - 17:00","utc_offset":"-300","gplace_id":null,"gplace_url":"https://maps.google.com/?cid=14960510503802565721","dealerID":65556,"trusted":false,"image_id":"v1597283975/chrysler_RM.png","phone":"2702827881","cityStateSlug":"paducah.ky","slug":"Paducah.KY/linwood+paducah","location":"37.084768,-88.6554187","brandsList":["chrysler","dodge","jeep","ram"]},{"id":8846,"crm_id":67042270,"name":"Linwood Hyundai","dealerSlug":"linwood+hyundai","city_state_slug":"Paducah.KY","brand":"Hyundai","website":"www.linwoodhyundai.com","address":"3345 Park Ave","city":"Paducah","state":"KY","zip":42001,"latitude":37.0846981,"longitude":-88.6555273,"phone_number_service":"8779363245","phone_number_main":"2704446901","service_hours":"Mo-Fr 08:00 - 17:00","utc_offset":"-300","gplace_id":null,"gplace_url":"https://maps.google.com/?cid=8314132450874940942","dealerID":65558,"trusted":false,"image_id":"v1597283959/hyundai_RM.png","phone":"8779363245","cityStateSlug":"paducah.ky","slug":"Paducah.KY/linwood+hyundai","location":"37.0846981,-88.6555273","brandsList":["hyundai"]},{"id":15496,"crm_id":67043026,"name":"Wildcat Chevrolet","dealerSlug":"wildcat+chevrolet","city_state_slug":"Cadiz.KY","brand":"Chevrolet","website":"www.wildcatchevrolet.com","address":"5525 Hopkinsville Rd","city":"Cadiz","state":"KY","zip":42211,"latitude":36.877009,"longitude":-87.740932,"phone_number_service":"8665193040","phone_number_main":"2703509256","service_hours":"Mo-Fr 07:30 - 16:30","utc_offset":"-300","gplace_id":null,"gplace_url":"https://maps.google.com/?cid=14761623375168075728","dealerID":65770,"trusted":false,"image_id":"v1597284079/chevy_ms.png","phone":"8665193040","cityStateSlug":"cadiz.ky","slug":"Cadiz.KY/wildcat+chevrolet","location":"36.877009,-87.740932","brandsList":["chevrolet"]},{"id":2230,"crm_id":67043698,"name":"Bruce Walters Ford Lincoln Kia","dealerSlug":"bruce+walters+ford+lincoln+kia","city_state_slug":"Pikeville.KY","brand":"Ford,Lincoln","website":"www.brucewaltersford.com","address":"302 S Mayo Trail","city":"Pikeville","state":"KY","zip":41501,"latitude":37.4692607,"longitude":-82.535123,"phone_number_service":"8883163930","phone_number_main":"6064379641","service_hours":"Mo-Fr 08:00 - 17:00","utc_offset":"-240","gplace_id":null,"gplace_url":"https://maps.google.com/?cid=1154340100599889966","dealerID":65963,"trusted":false,"image_id":"v1597283967/ford_RM.png","phone":"8883163930","cityStateSlug":"pikeville.ky","slug":"Pikeville.KY/bruce+walters+ford+lincoln+kia","location":"37.4692607,-82.535123","brandsList":["ford","lincoln"]},{"id":2450,"crm_id":67044196,"name":"Campbell Chevrolet","dealerSlug":"campbell+chevrolet","city_state_slug":"Bowling-Green.KY","brand":"Chevrolet","website":"www.campbellchevrolet.com","address":"2151 Scottsville Rd","city":"Bowling Green","state":"KY","zip":42104,"latitude":36.9585311,"longitude":-86.4301888,"phone_number_service":"2704950707","phone_number_main":"2704950711","service_hours":"Mo-Fr 07:30 - 17:00","utc_offset":"-300","gplace_id":null,"gplace_url":"https://maps.google.com/?cid=2022226942837546705","dealerID":66092,"trusted":false,"image_id":"v1597284079/chevy_ms.png","phone":"2704950707","cityStateSlug":"bowling-green.ky","slug":"Bowling-Green.KY/campbell+chevrolet","location":"36.9585311,-86.4301888","brandsList":["chevrolet"]},{"id":4096,"crm_id":67044391,"name":"Don Franklin Glasgow Chevrolet Cadillac","dealerSlug":"don+franklin+glasgow+chevrolet+cadillac","city_state_slug":"Glasgow.KY","brand":"Cadillac,Chevrolet","website":"www.donfranklinglasgow.com","address":"1003 Happy Valley Rd","city":"Glasgow","state":"KY","zip":42141,"latitude":37.0145329,"longitude":-85.9278925,"phone_number_service":"2705054993","phone_number_main":"2706781300","service_hours":"Mo-Fr 08:00 - 17:00 | Sa 08:00 - 12:00","utc_offset":"-300","gplace_id":null,"gplace_url":"https://maps.google.com/?cid=16929456905306723850","dealerID":66141,"trusted":false,"image_id":"v1597283980/cadillac.png","phone":"2705054993","cityStateSlug":"glasgow.ky","slug":"Glasgow.KY/don+franklin+glasgow+chevrolet+cadillac","location":"37.0145329,-85.9278925","brandsList":["cadillac","chevrolet"]},{"id":1690,"crm_id":67044811,"name":"BMW of Louisville","dealerSlug":"bmw+of+louisville","city_state_slug":"Louisville.KY","brand":"BMW","website":"www.louisvillebmw.com","address":"2200 Blankenbaker Pkwy","city":"Louisville","state":"KY","zip":40299,"latitude":38.212221,"longitude":-85.540078,"phone_number_service":"8554200155","phone_number_main":"5022871501","service_hours":"Mo-Fr 07:30 - 18:00 | Sa 08:00-17:00","utc_offset":"-240","gplace_id":null,"gplace_url":"https://maps.google.com/?cid=7431987774335063689","dealerID":52137,"trusted":true,"image_id":"v1597283982/bmw_RM.png","phone":"8554200155","cityStateSlug":"louisville.ky","slug":"Louisville.KY/bmw+of+louisville","location":"38.212221,-85.540078","brandsList":["bmw"]},{"id":6096,"crm_id":67044970,"name":"Hardin County Honda","dealerSlug":"hardin+county+honda","city_state_slug":"Elizabethtown.KY","brand":"Honda","website":"www.hardincountyhonda.com","address":"5608 N Dixie Hwy","city":"Elizabethtown","state":"KY","zip":42701,"latitude":37.7665878,"longitude":-85.9015329,"phone_number_service":"2707652141","phone_number_main":"2707652141","service_hours":"Mo-Fr 07:30 - 17:00 | Sa 08:00 - 15:00","utc_offset":"-240","gplace_id":null,"gplace_url":"https://maps.google.com/?cid=7731099551396899645","dealerID":66302,"trusted":false,"image_id":"v1597284047/honda_ms.png","phone":"2707652141","cityStateSlug":"elizabethtown.ky","slug":"Elizabethtown.KY/hardin+county+honda","location":"37.7665878,-85.9015329","brandsList":["honda"]},{"id":6768,"crm_id":67045759,"name":"Hunt Ford","dealerSlug":"hunt+ford","city_state_slug":"Franklin.KY","brand":"Chrysler,Dodge,Ford,Jeep,RAM","website":"www.huntauto.com","address":"625 Garvin Ln","city":"Franklin","state":"KY","zip":42134,"latitude":36.7239814,"longitude":-86.5153257,"phone_number_service":"2705863281","phone_number_main":"2707769331","service_hours":"Mo-Fr 07:00 - 17:00","utc_offset":"-300","gplace_id":null,"gplace_url":"https://maps.google.com/?cid=673825904012403193","dealerID":66515,"trusted":false,"image_id":"v1597283975/chrysler_RM.png","phone":"2705863281","cityStateSlug":"franklin.ky","slug":"Franklin.KY/hunt+ford","location":"36.7239814,-86.5153257","brandsList":["chrysler","dodge","ford","jeep","ram"]},{"id":4098,"crm_id":67045906,"name":"Don Franklin Lexington Buick GMC","dealerSlug":"don+franklin+lexington+buick+gmc","city_state_slug":"Lexington.KY","brand":"Buick,GMC","website":"www.donfranklinlexingtonbuickgmc.com","address":"3380 Richmond Rd","city":"Lexington","state":"KY","zip":40509,"latitude":37.996321,"longitude":-84.4422135,"phone_number_service":"8595590978","phone_number_main":"8597590953","service_hours":"Mo-Fr 08:00 - 17:00 | Sa 08:00 - 12:00","utc_offset":"-240","gplace_id":null,"gplace_url":"https://maps.google.com/?cid=16015893924748048594","dealerID":66548,"trusted":false,"image_id":"v1597283981/buick_RM.png","phone":"8595590978","cityStateSlug":"lexington.ky","slug":"Lexington.KY/don+franklin+lexington+buick+gmc","location":"37.996321,-84.4422135","brandsList":["buick","gmc"]},{"id":11530,"crm_id":67047706,"name":"Piles Chevrolet Buick","dealerSlug":"piles+chevrolet+buick","city_state_slug":"Dry-Ridge.KY","brand":"Buick,Chevrolet","website":"www.pilesgm.com","address":"30 Ferguson Blvd","city":"Dry Ridge","state":"KY","zip":41035,"latitude":38.678459,"longitude":-84.6008911,"phone_number_service":"8599034786","phone_number_main":"8603252861","service_hours":"Mo-Fr 07:30 - 18:00 | Sa 08:00 - 15:00","utc_offset":"-240","gplace_id":null,"gplace_url":"https://maps.google.com/?cid=3358717528974569625","dealerID":67024,"trusted":false,"image_id":"v1597283981/buick_RM.png","phone":"8599034786","cityStateSlug":"dry-ridge.ky","slug":"Dry-Ridge.KY/piles+chevrolet+buick","location":"38.678459,-84.6008911","brandsList":["buick","chevrolet"]},{"id":1430,"crm_id":67047877,"name":"Bill Collins Ford Lincoln of Louisville","dealerSlug":"bill+collins+ford+lincoln+of+louisville","city_state_slug":"Louisville.KY","brand":"Ford,Lincoln","website":"www.billcollinsford.net","address":"4220 Bardstown Rd","city":"Louisville","state":"KY","zip":40218,"latitude":38.1852875,"longitude":-85.6397705,"phone_number_service":"8884711615","phone_number_main":"5024599550","service_hours":"Mo-Fr 07:00 - 18:00 | Sa 08:00 - 13:00","utc_offset":"-240","gplace_id":null,"gplace_url":"https://maps.google.com/?cid=11876917103303787498","dealerID":67068,"trusted":false,"image_id":"v1597283967/ford_RM.png","phone":"8884711615","cityStateSlug":"louisville.ky","slug":"Louisville.KY/bill+collins+ford+lincoln+of+louisville","location":"38.1852875,-85.6397705","brandsList":["ford","lincoln"]},{"id":5348,"crm_id":67048390,"name":"Gambrel Toyota","dealerSlug":"gambrel+toyota","city_state_slug":"Corbin.KY","brand":"Toyota","website":"www.gambreltoyota.com","address":"311 W Cumberland Gap Pkwy","city":"Corbin","state":"KY","zip":40701,"latitude":36.9648743,"longitude":-84.080136,"phone_number_service":"6065281200","phone_number_main":"6065281200","service_hours":"Mo-Fr 08:00 - 17:00","utc_offset":"-240","gplace_id":null,"gplace_url":"https://maps.google.com/?cid=3723392034351695512","dealerID":67209,"trusted":false,"image_id":"v1597284039/toyota_ms.png","phone":"6065281200","cityStateSlug":"corbin.ky","slug":"Corbin.KY/gambrel+toyota","location":"36.9648743,-84.080136","brandsList":["toyota"]},{"id":1428,"crm_id":67048675,"name":"Bill Cole Honda","dealerSlug":"bill+cole+honda","city_state_slug":"Ashland.KY","brand":"Honda","website":"www.billcolehonda.com","address":"2501 Winchester Ave","city":"Ashland","state":"KY","zip":41101,"latitude":38.4730671,"longitude":-82.6276101,"phone_number_service":"6062401894","phone_number_main":"6062401895","service_hours":"Mo-Fr  08:00 - 17:00 | Sa 08:00 - 14:00","utc_offset":"-240","gplace_id":null,"gplace_url":"https://maps.google.com/?cid=13895423475957282136","dealerID":51834,"trusted":true,"image_id":"v1597284047/honda_ms.png","phone":"6062401894","cityStateSlug":"ashland.ky","slug":"Ashland.KY/bill+cole+honda","location":"38.4730671,-82.6276101","brandsList":["honda"]},{"id":11418,"crm_id":67048879,"name":"Performance Lexus RiverCenter","dealerSlug":"performance+lexus+rivercenter","city_state_slug":"Covington.KY","brand":"Lexus","website":"www.performancelexusrivercenter.com","address":"633 W 3rd St","city":"Covington","state":"KY","zip":41011,"latitude":39.0871192,"longitude":-84.5217823,"phone_number_service":"8595475390","phone_number_main":"8595475300","service_hours":"Mo-Fr 07:00 - 18:00 | Sa 08:00 - 14:00","utc_offset":"-240","gplace_id":null,"gplace_url":"https://maps.google.com/?cid=1086930158560136857","dealerID":67337,"trusted":false,"image_id":"v1597284042/lexus_ms.png","phone":"8595475390","cityStateSlug":"covington.ky","slug":"Covington.KY/performance+lexus+rivercenter","location":"39.0871192,-84.5217823","brandsList":["lexus"]},{"id":4112,"crm_id":67049284,"name":"Don Jacobs BMW","dealerSlug":"don+jacobs+bmw","city_state_slug":"Lexington.KY","brand":"BMW","website":"www.donjacobsbmw.com/","address":"2689 Nicholasville Rd.","city":"Lexington","state":"KY","zip":40503,"latitude":37.998187,"longitude":-84.522649,"phone_number_service":"8592763546","phone_number_main":"8592763546","service_hours":"Mo-Fr 07:30 - 17:30 | Sa 08:00 - 13:00","utc_offset":"-240","gplace_id":null,"gplace_url":"https://maps.google.com/?cid=7608905314038214486","dealerID":67451,"trusted":false,"image_id":"v1597283982/bmw_RM.png","phone":"8592763546","cityStateSlug":"lexington.ky","slug":"Lexington.KY/don+jacobs+bmw","location":"37.998187,-84.522649","brandsList":["bmw"]},{"id":11989,"crm_id":67049602,"name":"Quantrell Cadillac","dealerSlug":"quantrell+cadillac","city_state_slug":"Lexington.KY","brand":"Cadillac","website":"www.quantrellcadillac.com","address":"1490 E New Circle Rd","city":"Lexington","state":"KY","zip":40502,"latitude":38.022364,"longitude":-84.4557846,"phone_number_service":"8663160992","phone_number_main":"8595590868","service_hours":"Mo-Fr 08:00 - 17:00 | Sa 08:00 - 15:00","utc_offset":"-240","gplace_id":null,"gplace_url":"https://maps.google.com/?cid=5940948060271215113","dealerID":67539,"trusted":false,"image_id":"v1597283980/cadillac.png","phone":"8663160992","cityStateSlug":"lexington.ky","slug":"Lexington.KY/quantrell+cadillac","location":"38.022364,-84.4557846","brandsList":["cadillac"]},{"id":11991,"crm_id":67049608,"name":"Quantrell Volvo","dealerSlug":"quantrell+volvo","city_state_slug":"Lexington.KY","brand":"Volvo","website":"www.quantrellvolvo.com","address":"1500 E New Circle Rd NE","city":"Lexington","state":"KY","zip":40509,"latitude":38.0220417,"longitude":-84.4556289,"phone_number_service":"8664070435","phone_number_main":"8595188810","service_hours":"Mo-Fr 08:00 - 17:00 | Sa 08:00 - 15:00","utc_offset":"-240","gplace_id":null,"gplace_url":"https://maps.google.com/?cid=15301021801218564215","dealerID":67541,"trusted":false,"image_id":"v1597283901/volvo.jpg","phone":"8664070435","cityStateSlug":"lexington.ky","slug":"Lexington.KY/quantrell+volvo","location":"38.0220417,-84.4556289","brandsList":["volvo"]},{"id":7207,"crm_id":67050004,"name":"James Motor Company","dealerSlug":"james+motor+company","city_state_slug":"Lexington.KY","brand":"Mercedes-Benz","website":"www.jamesmotorcompany.com","address":"2440 Richmond Rd","city":"Lexington","state":"KY","zip":40502,"latitude":38.0132978,"longitude":-84.4602406,"phone_number_service":"8592681150","phone_number_main":"8592681150","service_hours":"Mo-Fr 07:30 - 18:00 | Sa 08:00 - 14:00","utc_offset":"-240","gplace_id":null,"gplace_url":"https://maps.google.com/?cid=9652491135826815173","dealerID":67650,"trusted":false,"image_id":"v1597283934/mercedes_RM.png","phone":"8592681150","cityStateSlug":"lexington.ky","slug":"Lexington.KY/james+motor+company","location":"38.0132978,-84.4602406","brandsList":["mercedes-benz"]},{"id":15242,"crm_id":67050550,"name":"Walters GM Automall","dealerSlug":"walters+gm+automall","city_state_slug":"Pikeville.KY","brand":"Buick,Chevrolet,GMC","website":"www.waltersgm.com","address":"505 N Mayo Trail","city":"Pikeville","state":"KY","zip":41501,"latitude":37.4904183,"longitude":-82.5384776,"phone_number_service":"6066530744","phone_number_main":"6062689489","service_hours":"Mo-Fr 07:30 - 17:00","utc_offset":"-240","gplace_id":null,"gplace_url":"https://maps.google.com/?cid=3907914053011943599","dealerID":67806,"trusted":false,"image_id":"v1597283981/buick_RM.png","phone":"6066530744","cityStateSlug":"pikeville.ky","slug":"Pikeville.KY/walters+gm+automall","location":"37.4904183,-82.5384776","brandsList":["buick","chevrolet","gmc"]},{"id":2183,"crm_id":67050850,"name":"Brown Bros. Body Shop","dealerSlug":"brown+bros+body+shop","city_state_slug":"Louisville.KY","brand":"Cadillac","website":"www.brownbroscadillac.com/","address":"728 S 4th St","city":"Louisville","state":"KY","zip":40202,"latitude":38.2457131,"longitude":-85.7591546,"phone_number_service":"8772515403","phone_number_main":"5028141320","service_hours":"Mo-Fr 07:00 - 18:00","utc_offset":"-240","gplace_id":null,"gplace_url":"https://maps.google.com/?cid=8944024797152345712","dealerID":67883,"trusted":false,"image_id":"v1597283980/cadillac.png","phone":"8772515403","cityStateSlug":"louisville.ky","slug":"Louisville.KY/brown+bros+body+shop","location":"38.2457131,-85.7591546","brandsList":["cadillac"]},{"id":5582,"crm_id":67051552,"name":"Gillie Hyde Dodge Chrysler Jeep RAM","dealerSlug":"gillie+hyde+dodge+chrysler+jeep+ram","city_state_slug":"Glasgow.KY","brand":"Chrysler,Dodge,Jeep,RAM","website":"www.gilliehydedodgechryslerjeep.com","address":"1415 Happy Valley Rd.","city":"Glasgow","state":"KY","zip":42141,"latitude":37.0173253,"longitude":-85.9312132,"phone_number_service":"2702614798","phone_number_main":"2702615305","service_hours":"Mo-Fr 07:00 - 17:30 | Sa 07:00 - 14:00","utc_offset":"-300","gplace_id":null,"gplace_url":"https://maps.google.com/?cid=8713209330045178340","dealerID":68073,"trusted":false,"image_id":"v1597283975/chrysler_RM.png","phone":"2702614798","cityStateSlug":"glasgow.ky","slug":"Glasgow.KY/gillie+hyde+dodge+chrysler+jeep+ram","location":"37.0173253,-85.9312132","brandsList":["chrysler","dodge","jeep","ram"]},{"id":13743,"crm_id":67053319,"name":"Stuart Powell Ford Lincoln Mazda","dealerSlug":"stuart+powell+ford+lincoln+mazda","city_state_slug":"Danville.KY","brand":"Ford,Lincoln","website":"www.stuartpowell.com","address":"225 S Danville Bypass","city":"Danville","state":"KY","zip":40422,"latitude":37.645193,"longitude":-84.80436,"phone_number_service":"8592381190","phone_number_main":"8592368917","service_hours":"Mo-Fr 08:00 - 17:00 | Sa 08:00 - 12:00","utc_offset":"-240","gplace_id":null,"gplace_url":"https://maps.google.com/?cid=12147481154804057881","dealerID":68561,"trusted":false,"image_id":"v1597283967/ford_RM.png","phone":"8592381190","cityStateSlug":"danville.ky","slug":"Danville.KY/stuart+powell+ford+lincoln+mazda","location":"37.645193,-84.80436","brandsList":["ford","lincoln"]},{"id":11099,"crm_id":67053328,"name":"Oxmoor Chrysler Dodge Jeep RAM","dealerSlug":"oxmoor+chrysler+dodge+jeep+ram","city_state_slug":"Louisville.KY","brand":"Chrysler,Dodge,Jeep,RAM","website":"www.oxmoorchrysler.com","address":"4520 Shelbyville Rd","city":"Louisville","state":"KY","zip":40207,"latitude":38.2502833,"longitude":-85.6322954,"phone_number_service":"5023339159","phone_number_main":"5028954520","service_hours":"Mo-Fr 07:30 - 18:00 | Sa 08:00 - 14:00","utc_offset":"-240","gplace_id":null,"gplace_url":"https://maps.google.com/?cid=3673801679545061228","dealerID":68564,"trusted":false,"image_id":"v1597283975/chrysler_RM.png","phone":"5023339159","cityStateSlug":"louisville.ky","slug":"Louisville.KY/oxmoor+chrysler+dodge+jeep+ram","location":"38.2502833,-85.6322954","brandsList":["chrysler","dodge","jeep","ram"]},{"id":11303,"crm_id":67053397,"name":"Paul Miller Mazda","dealerSlug":"paul+miller+mazda","city_state_slug":"Lexington.KY","brand":"Mazda","website":"www.paulmillermazda.com","address":"1029 E New Circle Rd","city":"Lexington","state":"KY","zip":40505,"latitude":38.037898,"longitude":-84.4535251,"phone_number_service":"8592790548","phone_number_main":"8005281710","service_hours":"Mo-Fr 07:00 - 18:00","utc_offset":"-240","gplace_id":null,"gplace_url":"https://maps.google.com/?cid=15835107977588612937","dealerID":50896,"trusted":true,"image_id":"v1597283937/mazda.png","phone":"8592790548","cityStateSlug":"lexington.ky","slug":"Lexington.KY/paul+miller+mazda","location":"38.037898,-84.4535251","brandsList":["mazda"]},{"id":3672,"crm_id":67053667,"name":"Dan Cummins Chevrolet Buick of Georgetown","dealerSlug":"dan+cummins+chevrolet+buick+of+georgetown","city_state_slug":"Georgetown.KY","brand":"Buick,Cadillac,Chevrolet,GMC","website":"www.dancumminsofgeorgetown.com","address":"1470 Cherry Blossom Way","city":"Georgetown","state":"KY","zip":40324,"latitude":38.2188714,"longitude":-84.5395051,"phone_number_service":"5025426488","phone_number_main":"5025426488","service_hours":"Mo-Fr 07:30 - 17:00 | Sa 08:00 - 15:00","utc_offset":"-240","gplace_id":null,"gplace_url":"https://maps.google.com/?cid=14685626895227223740","dealerID":68654,"trusted":false,"image_id":"v1597283981/buick_RM.png","phone":"5025426488","cityStateSlug":"georgetown.ky","slug":"Georgetown.KY/dan+cummins+chevrolet+buick+of+georgetown","location":"38.2188714,-84.5395051","brandsList":["buick","cadillac","chevrolet","gmc"]},{"id":9297,"crm_id":67054189,"name":"Marshall Chrysler Dodge Jeep RAM","dealerSlug":"marshall+chrysler+dodge+jeep+ram","city_state_slug":"Crittenden.KY","brand":"Chrysler,Dodge,Jeep,RAM","website":"www.marshallcdjr.com","address":"140 Spears Ln","city":"Crittenden","state":"KY","zip":41030,"latitude":38.7896337,"longitude":-84.6040868,"phone_number_service":"8598243300","phone_number_main":"8598243300","service_hours":"Mo-Fr 08:00 - 17:00","utc_offset":"-240","gplace_id":null,"gplace_url":"https://maps.google.com/?cid=5933219975125059530","dealerID":68802,"trusted":false,"image_id":"v1597283975/chrysler_RM.png","phone":"8598243300","cityStateSlug":"crittenden.ky","slug":"Crittenden.KY/marshall+chrysler+dodge+jeep+ram","location":"38.7896337,-84.6040868","brandsList":["chrysler","dodge","jeep","ram"]},{"id":3389,"crm_id":67054261,"name":"Courtesy Cadillac","dealerSlug":"courtesy+cadillac","city_state_slug":"Louisville.KY","brand":"Cadillac","website":"www.courtesycadillac.net/","address":"6 Autocenter Dr","city":"Louisville","state":"KY","zip":40299,"latitude":38.218542,"longitude":-85.581107,"phone_number_service":"5024937098","phone_number_main":"5024161222","service_hours":"Mo-Fr 07:30 - 18:00 | Sa 08:00 - 16:00","utc_offset":"-240","gplace_id":null,"gplace_url":"https://maps.google.com/?cid=6193638732223815521","dealerID":68820,"trusted":false,"image_id":"v1597283980/cadillac.png","phone":"5024937098","cityStateSlug":"louisville.ky","slug":"Louisville.KY/courtesy+cadillac","location":"38.218542,-85.581107","brandsList":["cadillac"]},{"id":1609,"crm_id":67054957,"name":"Bluegrass BMW","dealerSlug":"bluegrass+bmw","city_state_slug":"Paducah.KY","brand":"BMW","website":"www.bluegrassbmw.com","address":"3235 Park Ave","city":"Paducah","state":"KY","zip":42001,"latitude":37.084335,"longitude":-88.650636,"phone_number_service":"8778928968","phone_number_main":"2704440660","service_hours":"Mo-Fr 07:30 - 17:30","utc_offset":"-300","gplace_id":null,"gplace_url":"https://maps.google.com/?cid=16243151867430025590","dealerID":69014,"trusted":false,"image_id":"v1597283982/bmw_RM.png","phone":"8778928968","cityStateSlug":"paducah.ky","slug":"Paducah.KY/bluegrass+bmw","location":"37.084335,-88.650636","brandsList":["bmw"]},{"id":10593,"crm_id":67055179,"name":"Neil Huffman Chevrolet Buick GMC of Frankfort","dealerSlug":"neil+huffman+chevrolet+buick+gmc+of+frankfort","city_state_slug":"Frankfort.KY","brand":"Buick,Chevrolet,GMC","website":"www.neilhuffmangmfrankfort.com","address":"1220 Versailles Rd #102","city":"Frankfort","state":"KY","zip":40601,"latitude":38.1831292,"longitude":-84.8165437,"phone_number_service":"8662263875","phone_number_main":"5026957500","service_hours":"Mo-Fr 08:00 - 17:00","utc_offset":"-240","gplace_id":null,"gplace_url":"https://maps.google.com/?cid=8853237960484614154","dealerID":69075,"trusted":false,"image_id":"v1597283981/buick_RM.png","phone":"8662263875","cityStateSlug":"frankfort.ky","slug":"Frankfort.KY/neil+huffman+chevrolet+buick+gmc+of+frankfort","location":"38.1831292,-84.8165437","brandsList":["buick","chevrolet","gmc"]},{"id":6250,"crm_id":67055332,"name":"Henderson Ford","dealerSlug":"henderson+ford","city_state_slug":"Henderson.KY","brand":"Ford","website":"www.hendersonfordky.com","address":"2530 U.S. 41 North","city":"Henderson","state":"KY","zip":42420,"latitude":37.8728181,"longitude":-87.5681381,"phone_number_service":"2708273566","phone_number_main":"2708273566","service_hours":"Mo-Fr 09:00 - 19:00 | Sa 09:00 - 17:00","utc_offset":"-300","gplace_id":null,"gplace_url":"https://maps.google.com/?cid=10448473220010836665","dealerID":69114,"trusted":false,"image_id":"v1597283967/ford_RM.png","phone":"2708273566","cityStateSlug":"henderson.ky","slug":"Henderson.KY/henderson+ford","location":"37.8728181,-87.5681381","brandsList":["ford"]},{"id":9299,"crm_id":67055494,"name":"Marshall Dry Ridge Toyota","dealerSlug":"marshall+dry+ridge+toyota","city_state_slug":"Dry-Ridge.KY","brand":"Toyota","website":"www.marshalldryridgetoyota.com","address":"9 Taft Hwy","city":"Dry Ridge","state":"KY","zip":41035,"latitude":38.6821524,"longitude":-84.6038839,"phone_number_service":"8598249200","phone_number_main":"8598249200","service_hours":"Mo-Fr 08:00 - 17:00 | Sa 08:00 - 12:00","utc_offset":"-240","gplace_id":null,"gplace_url":"https://maps.google.com/?cid=771996983685999104","dealerID":69166,"trusted":false,"image_id":"v1597284039/toyota_ms.png","phone":"8598249200","cityStateSlug":"dry-ridge.ky","slug":"Dry-Ridge.KY/marshall+dry+ridge+toyota","location":"38.6821524,-84.6038839","brandsList":["toyota"]},{"id":1841,"crm_id":67056181,"name":"Bob Hook Chevrolet","dealerSlug":"bob+hook+chevrolet","city_state_slug":"Louisville.KY","brand":"Chevrolet","website":"www.bobhook.com","address":"4144 Bardstown Rd","city":"Louisville","state":"KY","zip":40218,"latitude":38.1898442,"longitude":-85.6437707,"phone_number_service":"8772247645","phone_number_main":"8442124818","service_hours":"Mo-Fr 07:30 - 18:00 | Sa 07:30 - 12:00","utc_offset":"-240","gplace_id":null,"gplace_url":"https://maps.google.com/?cid=1450128460065047487","dealerID":69343,"trusted":false,"image_id":"v1597284079/chevy_ms.png","phone":"8772247645","cityStateSlug":"louisville.ky","slug":"Louisville.KY/bob+hook+chevrolet","location":"38.1898442,-85.6437707","brandsList":["chevrolet"]},{"id":6846,"crm_id":67056436,"name":"Hyundai Of Somerset","dealerSlug":"hyundai+of+somerset","city_state_slug":"Somerset.KY","brand":"Hyundai","website":"www.hyundaiofsomerset.com","address":"5090 S Hwy 27","city":"Somerset","state":"KY","zip":42502,"latitude":37.0217205,"longitude":-84.6280689,"phone_number_service":"8884765511","phone_number_main":"6066771101","service_hours":"Mo-Fr 08:00 - 18:00 | Sa 09:00 - 15:00","utc_offset":"-240","gplace_id":null,"gplace_url":"https://maps.google.com/?cid=13531806310328219659","dealerID":69408,"trusted":false,"image_id":"v1597283959/hyundai_RM.png","phone":"8884765511","cityStateSlug":"somerset.ky","slug":"Somerset.KY/hyundai+of+somerset","location":"37.0217205,-84.6280689","brandsList":["hyundai"]},{"id":5427,"crm_id":67057465,"name":"Gates Hyundai","dealerSlug":"gates+hyundai","city_state_slug":"Richmond.KY","brand":"Hyundai","website":"www.gateshyundai.com","address":"6000 Atwood Dr","city":"Richmond","state":"KY","zip":40475,"latitude":37.751895,"longitude":-84.2666222,"phone_number_service":"8596241211","phone_number_main":"8596241211","service_hours":"Mo-Fr 07:30 - 18:00 | Sa 07:30-14:00","utc_offset":"-240","gplace_id":null,"gplace_url":"https://maps.google.com/?cid=15289372396247298410","dealerID":69688,"trusted":false,"image_id":"v1597283959/hyundai_RM.png","phone":"8596241211","cityStateSlug":"richmond.ky","slug":"Richmond.KY/gates+hyundai","location":"37.751895,-84.2666222","brandsList":["hyundai"]},{"id":14630,"crm_id":67057705,"name":"Trice Hughes","dealerSlug":"trice+hughes","city_state_slug":"Princeton.KY","brand":"Chrysler,Dodge,Jeep,RAM","website":"www.tricehughes.net","address":"111 Highway 91 North","city":"Princeton","state":"KY","zip":42445,"latitude":37.1189347,"longitude":-87.897482,"phone_number_service":"8667440485","phone_number_main":"8883034865","service_hours":"Mo-Fr 06:30 - 16:30","utc_offset":"-300","gplace_id":null,"gplace_url":"https://maps.google.com/?cid=6374176706000190378","dealerID":69751,"trusted":false,"image_id":"v1597283975/chrysler_RM.png","phone":"8667440485","cityStateSlug":"princeton.ky","slug":"Princeton.KY/trice+hughes","location":"37.1189347,-87.897482","brandsList":["chrysler","dodge","jeep","ram"]},{"id":13986,"crm_id":67058188,"name":"Swope Nissan","dealerSlug":"swope+nissan","city_state_slug":"Elizabethtown.KY","brand":"Nissan","website":"www.swopenissan.com","address":"1100 N Dixie Hwy","city":"Elizabethtown","state":"KY","zip":42701,"latitude":37.7148162,"longitude":-85.8788026,"phone_number_service":"2707656477","phone_number_main":"2707656477","service_hours":"Mo-Fr 07:30 - 17:30 | Sa 08:00 - 14:00","utc_offset":"-240","gplace_id":null,"gplace_url":"https://maps.google.com/?cid=17582417369130527397","dealerID":69893,"trusted":false,"image_id":"v1597283926/nissan_RM.png","phone":"2707656477","cityStateSlug":"elizabethtown.ky","slug":"Elizabethtown.KY/swope+nissan","location":"37.7148162,-85.8788026","brandsList":["nissan"]},{"id":8572,"crm_id":67058239,"name":"Legacy Ford Lincoln","dealerSlug":"legacy+ford+lincoln","city_state_slug":"Corbin.KY","brand":"Ford,Lincoln","website":"www.legacyfordky.com","address":"13305 US-25E Scenic","city":"Corbin","state":"KY","zip":40701,"latitude":36.9455595,"longitude":-84.0483833,"phone_number_service":"8884359519","phone_number_main":"6065281904","service_hours":"Mo-Fr 08:00 - 17:30","utc_offset":"-240","gplace_id":null,"gplace_url":"https://maps.google.com/?cid=12592764574050411479","dealerID":69909,"trusted":false,"image_id":"v1597283967/ford_RM.png","phone":"8884359519","cityStateSlug":"corbin.ky","slug":"Corbin.KY/legacy+ford+lincoln","location":"36.9455595,-84.0483833","brandsList":["ford","lincoln"]},{"id":131,"crm_id":67059157,"name":"Airport Ford","dealerSlug":"airport+ford","city_state_slug":"Florence.KY","brand":"Ford","website":"www.airportford.com","address":"8001 Burlington Pike","city":"Florence","state":"KY","zip":41042,"latitude":39.0013611,"longitude":-84.6507636,"phone_number_service":"8888699438","phone_number_main":"8888699438","service_hours":"Mo-Fr 07:30 - 17:30","utc_offset":"-240","gplace_id":null,"gplace_url":"https://maps.google.com/?cid=10037538324343544622","dealerID":70163,"trusted":false,"image_id":"v1597283967/ford_RM.png","phone":"8888699438","cityStateSlug":"florence.ky","slug":"Florence.KY/airport+ford","location":"39.0013611,-84.6507636","brandsList":["ford"]},{"id":5408,"crm_id":67059214,"name":"Gary Force Honda","dealerSlug":"gary+force+honda","city_state_slug":"Bowling-Green.KY","brand":"Honda","website":"www.garyforcehonda.com","address":"2325 Scottsville Rd","city":"Bowling Green","state":"KY","zip":42104,"latitude":36.955504,"longitude":-86.4273136,"phone_number_service":"8664223532","phone_number_main":"2707818230","service_hours":"Mo-Fr 07:00 - 17:00 | Sa 08:00 - 14:00","utc_offset":"-300","gplace_id":null,"gplace_url":"https://maps.google.com/?cid=15323829773363946677","dealerID":70182,"trusted":false,"image_id":"v1597284047/honda_ms.png","phone":"8664223532","cityStateSlug":"bowling-green.ky","slug":"Bowling-Green.KY/gary+force+honda","location":"36.955504,-86.4273136","brandsList":["honda"]},{"id":7645,"crm_id":67059898,"name":"Joseph Subaru of Florence","dealerSlug":"joseph+subaru+of+florence","city_state_slug":"Florence.KY","brand":"Subaru","website":"www.josephsubaru.com","address":"7600 Industrial Rd","city":"Florence","state":"KY","zip":41042,"latitude":38.9893489,"longitude":-84.6366055,"phone_number_service":"8669380792","phone_number_main":"8667989551","service_hours":"Mo-Fr 08:00 - 18:00 | Sa 08:00 - 12:00","utc_offset":"-240","gplace_id":null,"gplace_url":"https://maps.google.com/?cid=13587159523548787892","dealerID":70366,"trusted":false,"image_id":"v1597283982/subaru_ms.png","phone":"8669380792","cityStateSlug":"florence.ky","slug":"Florence.KY/joseph+subaru+of+florence","location":"38.9893489,-84.6366055","brandsList":["subaru"]},{"id":14365,"crm_id":67060363,"name":"Tony Brown Chevrolet","dealerSlug":"tony+brown+chevrolet","city_state_slug":"Brandenburg.KY","brand":"Chevrolet","website":"www.tonybrownchevrolet.com","address":"2935 Brandenburg Rd","city":"Brandenburg","state":"KY","zip":40108,"latitude":37.9678757,"longitude":-86.1402717,"phone_number_service":"2709312003","phone_number_main":"2704222141","service_hours":"Mo-Fr  08:00 - 17:00 | Sa 08:00 - 12:00","utc_offset":"-240","gplace_id":null,"gplace_url":"https://maps.google.com/?cid=2850861597221331491","dealerID":70499,"trusted":false,"image_id":"v1597284079/chevy_ms.png","phone":"2709312003","cityStateSlug":"brandenburg.ky","slug":"Brandenburg.KY/tony+brown+chevrolet","location":"37.9678757,-86.1402717","brandsList":["chevrolet"]},{"id":3460,"crm_id":67060396,"name":"Creech Chevrolet Buick GMC","dealerSlug":"creech+chevrolet+buick+gmc","city_state_slug":"Harlan.KY","brand":"Buick,Chevrolet,GMC","website":"www.creechchevrolet.com","address":"415 S Main St","city":"Harlan","state":"KY","zip":40831,"latitude":36.8426082,"longitude":-83.3231053,"phone_number_service":"6065733530","phone_number_main":"6065733530","service_hours":"Mo-Fr 08:00 - 17:00","utc_offset":"-240","gplace_id":null,"gplace_url":"https://maps.google.com/?cid=192998911443620318","dealerID":70505,"trusted":false,"image_id":"v1597283981/buick_RM.png","phone":"6065733530","cityStateSlug":"harlan.ky","slug":"Harlan.KY/creech+chevrolet+buick+gmc","location":"36.8426082,-83.3231053","brandsList":["buick","chevrolet","gmc"]},{"id":1398,"crm_id":67060582,"name":"Big M Chevrolet","dealerSlug":"big+m+chevrolet","city_state_slug":"Radcliff.KY","brand":"Chevrolet","website":"www.bigmchevy.com","address":"704 N Dixie Blvd","city":"Radcliff","state":"KY","zip":40160,"latitude":37.8471471,"longitude":-85.9440939,"phone_number_service":"8662984011","phone_number_main":"2705054830","service_hours":"Mo-Fr 07:00 - 18:00 | Sa 08:00 - 14:30","utc_offset":"-240","gplace_id":null,"gplace_url":"https://maps.google.com/?cid=4593439337497143952","dealerID":70557,"trusted":false,"image_id":"v1597284079/chevy_ms.png","phone":"8662984011","cityStateSlug":"radcliff.ky","slug":"Radcliff.KY/big+m+chevrolet","location":"37.8471471,-85.9440939","brandsList":["chevrolet"]},{"id":7134,"crm_id":67060732,"name":"Jaguar Louisville","dealerSlug":"jaguar+louisville","city_state_slug":"Louisville.KY","brand":"Jaguar","website":"www.jaguarlouisville.com","address":"4700 Bowling Blvd","city":"Louisville","state":"KY","zip":40207,"latitude":38.2422525,"longitude":-85.628211,"phone_number_service":"5028733931","phone_number_main":"5028952451","service_hours":"Mo-Fr 07:30 - 18:00","utc_offset":"-240","gplace_id":null,"gplace_url":"https://maps.google.com/?cid=14242925297544569151","dealerID":70598,"trusted":false,"image_id":"v1597283954/jaguar_RM.png","phone":"5028733931","cityStateSlug":"louisville.ky","slug":"Louisville.KY/jaguar+louisville","location":"38.2422525,-85.628211","brandsList":["jaguar"]},{"id":8305,"crm_id":67060735,"name":"Land Rover Louisville","dealerSlug":"land+rover+louisville","city_state_slug":"Louisville.KY","brand":"Land Rover","website":"www.landroverlouisville.com","address":"4700 Bowling Blvd","city":"Louisville","state":"KY","zip":40207,"latitude":38.2425018,"longitude":-85.6283503,"phone_number_service":"5023783578","phone_number_main":"5024298085","service_hours":"Mo-Fr 07:30 - 18:00","utc_offset":"-240","gplace_id":null,"gplace_url":"https://maps.google.com/?cid=11865833280260996975","dealerID":70599,"trusted":false,"image_id":"v1597283945/landrover_RM.png","phone":"5023783578","cityStateSlug":"louisville.ky","slug":"Louisville.KY/land+rover+louisville","location":"38.2425018,-85.6283503","brandsList":["land rover"]},{"id":7195,"crm_id":67060957,"name":"James Collins Ford","dealerSlug":"james+collins+ford","city_state_slug":"Louisville.KY","brand":"Ford","website":"www.jamescollinsford.net","address":"809 S 5th St","city":"Louisville","state":"KY","zip":40203,"latitude":38.243683,"longitude":-85.76035,"phone_number_service":"8337661482","phone_number_main":"8338342659","service_hours":"Mo-Fr 07:00 - 18:00","utc_offset":"-240","gplace_id":null,"gplace_url":"https://maps.google.com/?cid=9481409469296105458","dealerID":70661,"trusted":false,"image_id":"v1597283967/ford_RM.png","phone":"8337661482","cityStateSlug":"louisville.ky","slug":"Louisville.KY/james+collins+ford","location":"38.243683,-85.76035","brandsList":["ford"]},{"id":4090,"crm_id":67063081,"name":"Don Franklin Bardstown Chevrolet Buick","dealerSlug":"don+franklin+bardstown+chevrolet+buick","city_state_slug":"Bardstown.KY","brand":"Buick,Chevrolet","website":"www.franklinfamilychevrolet.com","address":"120 W John Rowan Blvd","city":"Bardstown","state":"KY","zip":40004,"latitude":37.8274948,"longitude":-85.4661666,"phone_number_service":"5022334457","phone_number_main":"5023483964","service_hours":"Mo-Fr 08:00 - 17:00 | Sa 08:00 - 12:00","utc_offset":"-240","gplace_id":null,"gplace_url":"https://maps.google.com/?cid=14733210332535876110","dealerID":71229,"trusted":false,"image_id":"v1597283981/buick_RM.png","phone":"5022334457","cityStateSlug":"bardstown.ky","slug":"Bardstown.KY/don+franklin+bardstown+chevrolet+buick","location":"37.8274948,-85.4661666","brandsList":["buick","chevrolet"]},{"id":14622,"crm_id":67063087,"name":"Tri-County Ford","dealerSlug":"tri+county+ford","city_state_slug":"Buckner.KY","brand":"Ford","website":"www.tricountyford.com","address":"4032 Commerce Parkway","city":"Buckner","state":"KY","zip":40010,"latitude":38.3787351,"longitude":-85.4329679,"phone_number_service":"8888215719","phone_number_main":"5022417333","service_hours":"Mo-Fr 07:00 - 18:00 | Sa 08:00 - 14:00","utc_offset":"-240","gplace_id":null,"gplace_url":"https://maps.google.com/?cid=5270721792071328754","dealerID":71230,"trusted":false,"image_id":"v1597283967/ford_RM.png","phone":"8888215719","cityStateSlug":"buckner.ky","slug":"Buckner.KY/tri+county+ford","location":"38.3787351,-85.4329679","brandsList":["ford"]},{"id":2216,"crm_id":67063090,"name":"Browning Chevrolet","dealerSlug":"browning+chevrolet","city_state_slug":"Eminence.KY","brand":"Chevrolet","website":"thinkgm.com","address":"114 S Penn Ave","city":"Eminence","state":"KY","zip":40019,"latitude":38.3690075,"longitude":-85.1791619,"phone_number_service":"8772684504","phone_number_main":"5028454212","service_hours":"Mo-Fr 08:00 - 18:00 | Sa 08:00 - 17:00","utc_offset":"-240","gplace_id":null,"gplace_url":"https://maps.google.com/?cid=6156603792563595464","dealerID":71231,"trusted":false,"image_id":"v1597284079/chevy_ms.png","phone":"8772684504","cityStateSlug":"eminence.ky","slug":"Eminence.KY/browning+chevrolet","location":"38.3690075,-85.1791619","brandsList":["chevrolet"]},{"id":13138,"crm_id":67063093,"name":"Shelbyville Chrysler Products","dealerSlug":"shelbyville+chrysler+products","city_state_slug":"Shelbyville.KY","brand":"Chrysler,Dodge,Jeep,RAM","website":"www.shelbyvillechryslerproducts.com","address":"2121 Midland Trail","city":"Shelbyville","state":"KY","zip":40065,"latitude":38.2144844,"longitude":-85.2573046,"phone_number_service":"5022575085","phone_number_main":"5026337380","service_hours":"Mo-Fr  10:00 - 17:00","utc_offset":"-240","gplace_id":null,"gplace_url":"https://maps.google.com/?cid=712719467614249066","dealerID":71232,"trusted":false,"image_id":"v1597283975/chrysler_RM.png","phone":"5022575085","cityStateSlug":"shelbyville.ky","slug":"Shelbyville.KY/shelbyville+chrysler+products","location":"38.2144844,-85.2573046","brandsList":["chrysler","dodge","jeep","ram"]},{"id":10909,"crm_id":67063096,"name":"O'Brien Ford of Shelbyville","dealerSlug":"obrien+ford+of+shelbyville","city_state_slug":"Shelbyville.KY","brand":"Ford","website":"www.obrienfordteam.com","address":"720 Mt Eden Rd","city":"Shelbyville","state":"KY","zip":40065,"latitude":38.1990021,"longitude":-85.2097587,"phone_number_service":"8662594613","phone_number_main":"5026334535","service_hours":"Mo-Fr 08:00 - 16:00","utc_offset":"-240","gplace_id":null,"gplace_url":"https://maps.google.com/?cid=11195054314217551357","dealerID":71233,"trusted":false,"image_id":"v1597283967/ford_RM.png","phone":"8662594613","cityStateSlug":"shelbyville.ky","slug":"Shelbyville.KY/obrien+ford+of+shelbyville","location":"38.1990021,-85.2097587","brandsList":["ford"]},{"id":12156,"crm_id":67063099,"name":"Ray's Chrysler Dodge Jeep RAM","dealerSlug":"rays+chrysler+dodge+jeep+ram","city_state_slug":"Brandenburg.KY","brand":"Chrysler,Dodge,Jeep,RAM","website":"rayschryslerdodgejeep.net","address":"385 Bypass By Pass Rd","city":"Brandenburg","state":"KY","zip":40108,"latitude":37.9796872,"longitude":-86.1607251,"phone_number_service":"8887683134","phone_number_main":"2703615181","service_hours":"Mo-Fr 07:45 - 17:30 | Sa 07:45 - 12:00","utc_offset":"-240","gplace_id":null,"gplace_url":"https://maps.google.com/?cid=5563961546001549967","dealerID":71234,"trusted":false,"image_id":"v1597283975/chrysler_RM.png","phone":"8887683134","cityStateSlug":"brandenburg.ky","slug":"Brandenburg.KY/rays+chrysler+dodge+jeep+ram","location":"37.9796872,-86.1607251","brandsList":["chrysler","dodge","jeep","ram"]},{"id":13985,"crm_id":67063105,"name":"Swope Mitsubishi of Radcliff","dealerSlug":"swope+mitsubishi+of+radcliff","city_state_slug":"Radcliff.KY","brand":"Mitsubishi","website":"www.swopemitsubishi.com","address":"253 S Dixie Blvd","city":"Radcliff","state":"KY","zip":40160,"latitude":37.8373146,"longitude":-85.9366302,"phone_number_service":"2703512181","phone_number_main":"2703512181","service_hours":"Mo-Fr 07:30 - 17:00 | Sa 08:00-13:00","utc_offset":"-240","gplace_id":null,"gplace_url":"https://maps.google.com/?cid=5038325372514328734","dealerID":71235,"trusted":false,"image_id":"v1597283928/mitsubishi.png","phone":"2703512181","cityStateSlug":"radcliff.ky","slug":"Radcliff.KY/swope+mitsubishi+of+radcliff","location":"37.8373146,-85.9366302","brandsList":["mitsubishi"]},{"id":8038,"crm_id":67063108,"name":"Knox Ford","dealerSlug":"knox+ford","city_state_slug":"Radcliff.KY","brand":"Ford","website":"www.knoxford.com","address":"461 S Dixie Blvd","city":"Radcliff","state":"KY","zip":40160,"latitude":37.835375,"longitude":-85.934967,"phone_number_service":"8884195312","phone_number_main":"2703519800","service_hours":"Mo-Fr 08:00 - 17:00 | Sa 08:00 - 14:00","utc_offset":"-240","gplace_id":null,"gplace_url":"https://maps.google.com/?cid=766840688679827405","dealerID":71236,"trusted":false,"image_id":"v1597283967/ford_RM.png","phone":"8884195312","cityStateSlug":"radcliff.ky","slug":"Radcliff.KY/knox+ford","location":"37.835375,-85.934967","brandsList":["ford"]},{"id":7288,"crm_id":67063111,"name":"Jeff Wyler Nissan of Louisville","dealerSlug":"jeff+wyler+nissan+of+louisville","city_state_slug":"Louisville.KY","brand":"Nissan","website":"jeffwylernissanoflouisville.com","address":"4136 Shelbyville Rd","city":"Louisville","state":"KY","zip":40207,"latitude":38.2512411,"longitude":-85.6426166,"phone_number_service":"5028225455","phone_number_main":"5028973151","service_hours":"Mo-Fr 07:00 - 16:00| Sa 08:00 - 14:00","utc_offset":"-240","gplace_id":null,"gplace_url":"https://maps.google.com/?cid=18096399001762442427","dealerID":71237,"trusted":false,"image_id":"v1597283926/nissan_RM.png","phone":"5028225455","cityStateSlug":"louisville.ky","slug":"Louisville.KY/jeff+wyler+nissan+of+louisville","location":"38.2512411,-85.6426166","brandsList":["nissan"]},{"id":9766,"crm_id":67063114,"name":"Mercedes-Benz of Louisville","dealerSlug":"mercedes+benz+of+louisville","city_state_slug":"Louisville.KY","brand":"Mercedes-Benz","website":"www.mblouisville.com","address":"2520 Terra Crossing Blvd","city":"Louisville","state":"KY","zip":40245,"latitude":38.2752476,"longitude":-85.4994799,"phone_number_service":"5028934709","phone_number_main":"5028964411","service_hours":"Mo-Fr 07:30 - 18:00 | Sa 08:00 - 15:00","utc_offset":"-240","gplace_id":null,"gplace_url":"https://maps.google.com/?cid=13245594740732800617","dealerID":71238,"trusted":false,"image_id":"v1597283934/mercedes_RM.png","phone":"5028934709","cityStateSlug":"louisville.ky","slug":"Louisville.KY/mercedes+benz+of+louisville","location":"38.2752476,-85.4994799","brandsList":["mercedes-benz"]},{"id":9329,"crm_id":67063117,"name":"Maserati Louisville","dealerSlug":"maserati+louisville","city_state_slug":"Louisville.KY","brand":"Maserati","website":"www.maseratilouisville.com","address":"4710 Bowling Blvd","city":"Louisville","state":"KY","zip":40207,"latitude":38.2428401,"longitude":-85.6301787,"phone_number_service":"5023783580","phone_number_main":"5028943428","service_hours":"Mo-Fr 07:30 - 18:00","utc_offset":"-240","gplace_id":null,"gplace_url":"https://maps.google.com/?cid=12200008411428260667","dealerID":71239,"trusted":false,"image_id":"v1597283940/maserati_RM.png","phone":"5023783580","cityStateSlug":"louisville.ky","slug":"Louisville.KY/maserati+louisville","location":"38.2428401,-85.6301787","brandsList":["maserati"]},{"id":7955,"crm_id":67063123,"name":"Kia Store Preston","dealerSlug":"kia+store+preston","city_state_slug":"Louisville.KY","brand":"Kia","website":"www.kiastorepreston.com","address":"5327 Preston Hwy","city":"Louisville","state":"KY","zip":40213,"latitude":38.1698965,"longitude":-85.7062913,"phone_number_service":"5029623286","phone_number_main":"8666276887","service_hours":"Mo-Fr 07:00 - 19:00 | Sa 08:00 - 17:00","utc_offset":"-240","gplace_id":null,"gplace_url":"https://maps.google.com/?cid=617104212745749956","dealerID":71240,"trusted":false,"image_id":"v1597283948/kia_RM.png","phone":"5029623286","cityStateSlug":"louisville.ky","slug":"Louisville.KY/kia+store+preston","location":"38.1698965,-85.7062913","brandsList":["kia"]},{"id":2378,"crm_id":67063126,"name":"Byerly Nissan","dealerSlug":"byerly+nissan","city_state_slug":"Louisville.KY","brand":"Nissan","website":"www.byerlynissan.com","address":"4027 Dixie Hwy","city":"Louisville","state":"KY","zip":40216,"latitude":38.1903123,"longitude":-85.8085361,"phone_number_service":"5024488222","phone_number_main":"5024488222","service_hours":"Mo-Fr 07:30 - 17:30 | Sa 08:00 - 14:00","utc_offset":"-240","gplace_id":null,"gplace_url":"https://maps.google.com/?cid=17809137052299054952","dealerID":71241,"trusted":false,"image_id":"v1597283926/nissan_RM.png","phone":"5024488222","cityStateSlug":"louisville.ky","slug":"Louisville.KY/byerly+nissan","location":"38.1903123,-85.8085361","brandsList":["nissan"]},{"id":10598,"crm_id":67063129,"name":"Neil Huffman Subaru","dealerSlug":"neil+huffman+subaru","city_state_slug":"Louisville.KY","brand":"Subaru","website":"www.neilhuffmansubaru.com","address":"4916 Dixie Hwy","city":"Louisville","state":"KY","zip":40216,"latitude":38.170619,"longitude":-85.827543,"phone_number_service":"8774759915","phone_number_main":"5024486666","service_hours":"Mo-Fr 08:00 - 17:00","utc_offset":"-240","gplace_id":null,"gplace_url":"https://maps.google.com/?cid=1986111936992405637","dealerID":71242,"trusted":false,"image_id":"v1597283982/subaru_ms.png","phone":"8774759915","cityStateSlug":"louisville.ky","slug":"Louisville.KY/neil+huffman+subaru","location":"38.170619,-85.827543","brandsList":["subaru"]},{"id":10596,"crm_id":67063132,"name":"Neil Huffman Mazda","dealerSlug":"neil+huffman+mazda","city_state_slug":"Louisville.KY","brand":"Mazda","website":"www.neilhuffmanmazda.com","address":"4926 Dixie Hwy","city":"Louisville","state":"KY","zip":40216,"latitude":38.1701021,"longitude":-85.8278429,"phone_number_service":"5024100710","phone_number_main":"5024486666","service_hours":"Mo-Fr  08:00 - 17:00","utc_offset":"-240","gplace_id":null,"gplace_url":"https://maps.google.com/?cid=13796009678434163628","dealerID":50891,"trusted":true,"image_id":"v1597283937/mazda.png","phone":"5024100710","cityStateSlug":"louisville.ky","slug":"Louisville.KY/neil+huffman+mazda","location":"38.1701021,-85.8278429","brandsList":["mazda"]},{"id":10599,"crm_id":67063135,"name":"Neil Huffman Volkswagen","dealerSlug":"neil+huffman+volkswagen","city_state_slug":"Louisville.KY","brand":"Volkswagen","website":"www.neilhuffmanvolkswagen.com","address":"4926 Dixie Hwy","city":"Louisville","state":"KY","zip":40216,"latitude":38.1702055,"longitude":-85.8277329,"phone_number_service":"5024345405","phone_number_main":"5024486666","service_hours":"Mo-Fr 08:00 - 17:00","utc_offset":"-240","gplace_id":null,"gplace_url":"https://maps.google.com/?cid=12533378319360582654","dealerID":71244,"trusted":false,"image_id":"v1597283902/volkswagen.png","phone":"5024345405","cityStateSlug":"louisville.ky","slug":"Louisville.KY/neil+huffman+volkswagen","location":"38.1702055,-85.8277329","brandsList":["volkswagen"]},{"id":7284,"crm_id":67063138,"name":"Jeff Wyler Honda Auto Mall","dealerSlug":"jeff+wyler+honda+auto+mall","city_state_slug":"Louisville.KY","brand":"Honda","website":"jeffwylerhondaautomall.com","address":"5244 Dixie Hwy","city":"Louisville","state":"KY","zip":40216,"latitude":38.1618577,"longitude":-85.8334562,"phone_number_service":"5026616051","phone_number_main":"5024482802","service_hours":"Mo-Fr 07:00-18:00 | Sa 08:00-14:00","utc_offset":"-240","gplace_id":null,"gplace_url":"https://maps.google.com/?cid=4928016215674462137","dealerID":71245,"trusted":false,"image_id":"v1597284047/honda_ms.png","phone":"5026616051","cityStateSlug":"louisville.ky","slug":"Louisville.KY/jeff+wyler+honda+auto+mall","location":"38.1618577,-85.8334562","brandsList":["honda"]},{"id":13625,"crm_id":67063141,"name":"Sternberg Chevrolet","dealerSlug":"sternberg+chevrolet","city_state_slug":"Louisville.KY","brand":"Chevrolet","website":"www.sternbergchevrolet.com/","address":"6600 Dixie Hwy","city":"Louisville","state":"KY","zip":40258,"latitude":38.1547635,"longitude":-85.8388945,"phone_number_service":"5024493269","phone_number_main":"5024482802","service_hours":"Mo-Fr 08:00-18:00 | Sa 08:00-13:00","utc_offset":"-240","gplace_id":null,"gplace_url":"https://maps.google.com/?cid=4928016215674462137","dealerID":71246,"trusted":false,"image_id":"v1597284079/chevy_ms.png","phone":"5024493269","cityStateSlug":"louisville.ky","slug":"Louisville.KY/sternberg+chevrolet","location":"38.1547635,-85.8388945","brandsList":["chevrolet"]},{"id":3509,"crm_id":67063144,"name":"Cross Chrysler Jeep FIAT","dealerSlug":"cross+chrysler+jeep+fiat","city_state_slug":"Louisville.KY","brand":"Chrysler,Dodge,Jeep,RAM,Fiat","website":"www.crossjeepchrysler.com","address":"1501 GARDINER LANE","city":"Louisville","state":"KY","zip":40218,"latitude":38.2002256,"longitude":-85.6924623,"phone_number_service":"8773323692","phone_number_main":"5024102413","service_hours":"Mo-Fr 07:30 - 18:00 | Sa 08:00 - 12:00","utc_offset":"-240","gplace_id":null,"gplace_url":"https://maps.google.com/?cid=9101327714344607367","dealerID":71247,"trusted":false,"image_id":"v1597283975/chrysler_RM.png","phone":"8773323692","cityStateSlug":"louisville.ky","slug":"Louisville.KY/cross+chrysler+jeep+fiat","location":"38.2002256,-85.6924623","brandsList":["chrysler","dodge","jeep","ram","fiat"]},{"id":3189,"crm_id":67063147,"name":"Collins Nissan","dealerSlug":"collins+nissan","city_state_slug":"Louisville.KY","brand":"Nissan","website":"www.collinsnissan.com","address":"4220 Bardstown Road","city":"Louisville","state":"KY","zip":40218,"latitude":38.1855061,"longitude":-85.6429737,"phone_number_service":"8663468497","phone_number_main":"5024910882","service_hours":"Mo-Fr 07:30 - 18:00 | Sa 08:00 - 13:00","utc_offset":"-240","gplace_id":null,"gplace_url":"https://maps.google.com/?cid=17264723251623751061","dealerID":71248,"trusted":false,"image_id":"v1597283926/nissan_RM.png","phone":"8663468497","cityStateSlug":"louisville.ky","slug":"Louisville.KY/collins+nissan","location":"38.1855061,-85.6429737","brandsList":["nissan"]},{"id":3235,"crm_id":67063150,"name":"Commonwealth Dodge RAM","dealerSlug":"commonwealth+dodge+ram","city_state_slug":"Louisville.KY","brand":"Chrysler,Dodge,Jeep,RAM,Fiat","website":"www.commonwealthdodge.com","address":"6408 Preston Highway","city":"Louisville","state":"KY","zip":40219,"latitude":38.158621,"longitude":-85.6991612,"phone_number_service":"5027858398","phone_number_main":"5022304295","service_hours":"Mo-Fr 07:30 - 18:00 | Sa 07:30 - 14:00","utc_offset":"-240","gplace_id":null,"gplace_url":"https://maps.google.com/?cid=4073745107874198942","dealerID":71249,"trusted":false,"image_id":"v1597283975/chrysler_RM.png","phone":"5027858398","cityStateSlug":"louisville.ky","slug":"Louisville.KY/commonwealth+dodge+ram","location":"38.158621,-85.6991612","brandsList":["chrysler","dodge","jeep","ram","fiat"]},{"id":7953,"crm_id":67063153,"name":"Kia Store East","dealerSlug":"kia+store+east","city_state_slug":"Louisville.KY","brand":"Kia","website":"www.kiastoreeast.com","address":"7301 New La Grange Rd","city":"Louisville","state":"KY","zip":40222,"latitude":38.25034,"longitude":-85.616322,"phone_number_service":"5024264884","phone_number_main":"5024251234","service_hours":"Mo-Fr 07:00 - 18:00 | Sa 08:00 - 17:00","utc_offset":"-240","gplace_id":null,"gplace_url":"https://maps.google.com/?cid=13023013055141590225","dealerID":71250,"trusted":false,"image_id":"v1597283948/kia_RM.png","phone":"5024264884","cityStateSlug":"louisville.ky","slug":"Louisville.KY/kia+store+east","location":"38.25034,-85.616322","brandsList":["kia"]},{"id":6664,"crm_id":67063159,"name":"Honda World","dealerSlug":"honda+world","city_state_slug":"Louisville.KY","brand":"Honda","website":"www.louisvillehondaworld.com/","address":"1 Autocenter Dr","city":"Louisville","state":"KY","zip":40299,"latitude":38.216911,"longitude":-85.581658,"phone_number_service":"5025654208","phone_number_main":"5024161221","service_hours":"Mo-Th 07:00 - 19:00 | Fr 07:00-18:00 | Sa 08:00 - 17:00","utc_offset":"-240","gplace_id":null,"gplace_url":"https://maps.google.com/?cid=13243380411506665615","dealerID":71251,"trusted":false,"image_id":"v1597284047/honda_ms.png","phone":"5025654208","cityStateSlug":"louisville.ky","slug":"Louisville.KY/honda+world","location":"38.216911,-85.581658","brandsList":["honda"]},{"id":8713,"crm_id":67063162,"name":"Lexus of Louisville","dealerSlug":"lexus+of+louisville","city_state_slug":"Louisville.KY","brand":"Lexus","website":"www.lexusoflouisville.com/","address":"2400 Blankenbaker Pkwy","city":"Louisville","state":"KY","zip":40299,"latitude":38.2109869,"longitude":-85.54005,"phone_number_service":"8442425295","phone_number_main":"5024101737","service_hours":"Mo-Fr 07:00 - 18:00 | Sa 07:30 - 16:00","utc_offset":"-240","gplace_id":null,"gplace_url":"https://maps.google.com/?cid=741096681548873105","dealerID":71252,"trusted":false,"image_id":"v1597284042/lexus_ms.png","phone":"8442425295","cityStateSlug":"louisville.ky","slug":"Louisville.KY/lexus+of+louisville","location":"38.2109869,-85.54005","brandsList":["lexus"]},{"id":15104,"crm_id":67063165,"name":"Volvo Cars of Louisville","dealerSlug":"volvo+cars+of+louisville","city_state_slug":"Louisville.KY","brand":"Volvo","website":"www.volvooflouisville.com","address":"5 Autocenter Dr","city":"Louisville","state":"KY","zip":40299,"latitude":38.217118,"longitude":-85.578425,"phone_number_service":"8884860633","phone_number_main":"5025549929","service_hours":"Mo-Fr  08:00 - 18:00 | Sa 08:00 - 15:00","utc_offset":"-240","gplace_id":null,"gplace_url":"https://maps.google.com/?cid=18340367142072612066","dealerID":71253,"trusted":false,"image_id":"v1597283901/volvo.jpg","phone":"8884860633","cityStateSlug":"louisville.ky","slug":"Louisville.KY/volvo+cars+of+louisville","location":"38.217118,-85.578425","brandsList":["volvo"]},{"id":956,"crm_id":67063171,"name":"Bachman Volkswagen","dealerSlug":"bachman+volkswagen","city_state_slug":"Louisville.KY","brand":"Volkswagen","website":"www.bachmanvolkswagen.com","address":"9652 Bluegrass Pkwy","city":"Louisville","state":"KY","zip":40299,"latitude":38.2207082,"longitude":-85.57865,"phone_number_service":"5027197260","phone_number_main":"5024932920","service_hours":"Mo-Fr 07:30 - 18:00","utc_offset":"-240","gplace_id":null,"gplace_url":"https://maps.google.com/?cid=1728624442321204152","dealerID":71254,"trusted":false,"image_id":"v1597283902/volkswagen.png","phone":"5027197260","cityStateSlug":"louisville.ky","slug":"Louisville.KY/bachman+volkswagen","location":"38.2207082,-85.57865","brandsList":["volkswagen"]},{"id":955,"crm_id":67063174,"name":"Bachman Subaru","dealerSlug":"bachman+subaru","city_state_slug":"Louisville.KY","brand":"Subaru","website":"www.bachmansubaru.net","address":"9800 Bluegrass Pkwy","city":"Louisville","state":"KY","zip":40299,"latitude":38.2216236,"longitude":-85.5756455,"phone_number_service":"8669805171","phone_number_main":"5027197300","service_hours":"Mo-Fr 07:30 - 18:00","utc_offset":"-240","gplace_id":null,"gplace_url":"https://maps.google.com/?cid=14048754152183958374","dealerID":71255,"trusted":false,"image_id":"v1597283982/subaru_ms.png","phone":"8669805171","cityStateSlug":"louisville.ky","slug":"Louisville.KY/bachman+subaru","location":"38.2216236,-85.5756455","brandsList":["subaru"]},{"id":3673,"crm_id":67063177,"name":"Dan Cummins Chrysler Dodge Jeep RAM of Georgetown","dealerSlug":"dan+cummins+chrysler+dodge+jeep+ram+of+georgetown","city_state_slug":"Georgetown.KY","brand":"Chrysler,Dodge,Jeep,RAM","website":"www.dancumminscdjr.com","address":"1470 Cherry Blossom Way","city":"Georgetown","state":"KY","zip":40324,"latitude":38.2188996,"longitude":-84.5395015,"phone_number_service":"5024058260","phone_number_main":"5028633727","service_hours":"Mo-Fr 07:30 - 18:00 | Sa 08:00 - 15:00","utc_offset":"-240","gplace_id":null,"gplace_url":"https://maps.google.com/?cid=7685653193020015280","dealerID":71256,"trusted":false,"image_id":"v1597283975/chrysler_RM.png","phone":"5024058260","cityStateSlug":"georgetown.ky","slug":"Georgetown.KY/dan+cummins+chrysler+dodge+jeep+ram+of+georgetown","location":"38.2188996,-84.5395015","brandsList":["chrysler","dodge","jeep","ram"]},{"id":4311,"crm_id":67063180,"name":"Eagle Chevrolet Buick GMC","dealerSlug":"eagle+chevrolet+buick+gmc","city_state_slug":"Morehead.KY","brand":"Buick,Chevrolet,GMC","website":"eaglechevyky.com","address":"329 E W Main St","city":"Morehead","state":"KY","zip":40351,"latitude":38.186065,"longitude":-83.4319175,"phone_number_service":"6067846411","phone_number_main":"6067846411","service_hours":"Mo-Fr 08:00 - 17:00","utc_offset":"-240","gplace_id":null,"gplace_url":"https://maps.google.com/?cid=5724962444319674474","dealerID":71257,"trusted":false,"image_id":"v1597283981/buick_RM.png","phone":"6067846411","cityStateSlug":"morehead.ky","slug":"Morehead.KY/eagle+chevrolet+buick+gmc","location":"38.186065,-83.4319175","brandsList":["buick","chevrolet","gmc"]},{"id":1399,"crm_id":67063183,"name":"Big M Chrysler Dodge Jeep RAM FIAT","dealerSlug":"big+m+chrysler+dodge+jeep+ram+fiat","city_state_slug":"Nicholasville.KY","brand":"Chrysler,Dodge,Jeep,RAM,Fiat","website":"www.bigmcdjr.com","address":"1010 Elizabeth St","city":"Nicholasville","state":"KY","zip":40356,"latitude":37.9157969,"longitude":-84.5585016,"phone_number_service":"8593544108","phone_number_main":"8598853367","service_hours":"Mo-Fr 07:30 - 18:00 | Sa 08:00 - 14:00","utc_offset":"-240","gplace_id":null,"gplace_url":"https://maps.google.com/?cid=2067631830633851684","dealerID":71258,"trusted":false,"image_id":"v1597283975/chrysler_RM.png","phone":"8593544108","cityStateSlug":"nicholasville.ky","slug":"Nicholasville.KY/big+m+chrysler+dodge+jeep+ram+fiat","location":"37.9157969,-84.5585016","brandsList":["chrysler","dodge","jeep","ram","fiat"]},{"id":13961,"crm_id":67063186,"name":"Sutherland Chevrolet","dealerSlug":"sutherland+chevrolet","city_state_slug":"Nicholasville.KY","brand":"Chevrolet","website":"www.sutherlandchevy.com","address":"1060 N Main St","city":"Nicholasville","state":"KY","zip":40356,"latitude":37.9027142,"longitude":-84.5621553,"phone_number_service":"8006521726","phone_number_main":"8598854101","service_hours":"Mo-Fr 07:30 - 17:00","utc_offset":"-240","gplace_id":null,"gplace_url":"https://maps.google.com/?cid=8068567526581832212","dealerID":71259,"trusted":false,"image_id":"v1597284079/chevy_ms.png","phone":"8006521726","cityStateSlug":"nicholasville.ky","slug":"Nicholasville.KY/sutherland+chevrolet","location":"37.9027142,-84.5621553","brandsList":["chevrolet"]},{"id":14565,"crm_id":67063189,"name":"Toyota On Nicholasville","dealerSlug":"toyota+on+nicholasville","city_state_slug":"Nicholasville.KY","brand":"Toyota","website":"www.toyotaonnicholasville.com","address":"2100 Lexington Rd","city":"Nicholasville","state":"KY","zip":40356,"latitude":37.9171896,"longitude":-84.5550564,"phone_number_service":"8598874200","phone_number_main":"8598874200","service_hours":"Mo-Fr 07:00 - 19:00 | Sa 08:00 - 16:00","utc_offset":"-240","gplace_id":null,"gplace_url":"https://maps.google.com/?cid=6854419716638860320","dealerID":71260,"trusted":false,"image_id":"v1597284039/toyota_ms.png","phone":"8598874200","cityStateSlug":"nicholasville.ky","slug":"Nicholasville.KY/toyota+on+nicholasville","location":"37.9171896,-84.5550564","brandsList":["toyota"]},{"id":11550,"crm_id":67063192,"name":"Pinnacle Ford Lincoln","dealerSlug":"pinnacle+ford+lincoln","city_state_slug":"Nicholasville.KY","brand":"Ford,Lincoln","website":"www.pinnacleford.com","address":"4080 Lexington Rd","city":"Nicholasville","state":"KY","zip":40356,"latitude":37.9539627,"longitude":-84.5383287,"phone_number_service":"8597852194","phone_number_main":"8599030322","service_hours":"Mo-Fr 07:00 - 18:00 | Sa 08:00 - 16:00","utc_offset":"-240","gplace_id":null,"gplace_url":"https://maps.google.com/?cid=18033347354155773341","dealerID":71261,"trusted":false,"image_id":"v1597283967/ford_RM.png","phone":"8597852194","cityStateSlug":"nicholasville.ky","slug":"Nicholasville.KY/pinnacle+ford+lincoln","location":"37.9539627,-84.5383287","brandsList":["ford","lincoln"]},{"id":3671,"crm_id":67063195,"name":"Dan Cummins Chevrolet Buick","dealerSlug":"dan+cummins+chevrolet+buick","city_state_slug":"Paris.KY","brand":"Buick,Chevrolet","website":"www.dancummins.com","address":"1020 Martin Luther King Blvd.","city":"Paris","state":"KY","zip":40361,"latitude":38.1981903,"longitude":-84.2735329,"phone_number_service":"8593401340","phone_number_main":"8593401340","service_hours":"Mo-Fr 07:30 - 18:00 | Sa 08:00 - 15:00","utc_offset":"-240","gplace_id":null,"gplace_url":"https://maps.google.com/?cid=13292987253400038258","dealerID":71262,"trusted":false,"image_id":"v1597283981/buick_RM.png","phone":"8593401340","cityStateSlug":"paris.ky","slug":"Paris.KY/dan+cummins+chevrolet+buick","location":"38.1981903,-84.2735329","brandsList":["buick","chevrolet"]},{"id":14015,"crm_id":67063198,"name":"Tanner Chrysler Products","dealerSlug":"tanner+chrysler+products","city_state_slug":"Stanton.KY","brand":"Chrysler,Dodge,Jeep,RAM","website":"www.tannerchryslerproducts.com","address":"85 East Pendelton Street","city":"Stanton","state":"KY","zip":40380,"latitude":37.839836,"longitude":-83.8563936,"phone_number_service":"8443166030","phone_number_main":"6066632856","service_hours":"Mo-Fr  08:00 - 17:30","utc_offset":"-240","gplace_id":null,"gplace_url":"https://maps.google.com/?cid=15331413459961378019","dealerID":71263,"trusted":false,"image_id":"v1597283975/chrysler_RM.png","phone":"8443166030","cityStateSlug":"stanton.ky","slug":"Stanton.KY/tanner+chrysler+products","location":"37.839836,-83.8563936","brandsList":["chrysler","dodge","jeep","ram"]},{"id":1813,"crm_id":67063207,"name":"Bob Allen Nissan","dealerSlug":"bob+allen+nissan","city_state_slug":"Danville.KY","brand":"Nissan","website":"www.boballennissan.com","address":"725 Maple Ave","city":"Danville","state":"KY","zip":40422,"latitude":37.6584716,"longitude":-84.7842014,"phone_number_service":"8669273749","phone_number_main":"8592363217","service_hours":"Mo-Fr 08:30 - 19:00 | Sa 09:00 - 17:00","utc_offset":"-240","gplace_id":null,"gplace_url":"https://maps.google.com/?cid=4678200791934898161","dealerID":71264,"trusted":false,"image_id":"v1597283926/nissan_RM.png","phone":"8669273749","cityStateSlug":"danville.ky","slug":"Danville.KY/bob+allen+nissan","location":"37.6584716,-84.7842014","brandsList":["nissan"]},{"id":1809,"crm_id":67063210,"name":"Bob Allen Chrysler-Dodge-Jeep-FIAT","dealerSlug":"bob+allen+chrysler+dodge+jeep+fiat","city_state_slug":"Danville.KY","brand":"Chrysler,Dodge,Jeep,RAM,Fiat","website":"www.boballenchryslerdodgejeep.com","address":"725 Maple Ave","city":"Danville","state":"KY","zip":40422,"latitude":37.6568339,"longitude":-84.7839056,"phone_number_service":"8594390418","phone_number_main":"8592363217","service_hours":"Mo-Fr 07:30 - 17:30 | Sa 08:00 - 15:00","utc_offset":"-240","gplace_id":null,"gplace_url":"https://maps.google.com/?cid=7170254736440533766","dealerID":71265,"trusted":false,"image_id":"v1597283975/chrysler_RM.png","phone":"8594390418","cityStateSlug":"danville.ky","slug":"Danville.KY/bob+allen+chrysler+dodge+jeep+fiat","location":"37.6568339,-84.7839056","brandsList":["chrysler","dodge","jeep","ram","fiat"]},{"id":5426,"crm_id":67063219,"name":"Gates Honda","dealerSlug":"gates+honda","city_state_slug":"Richmond.KY","brand":"Honda","website":"www.gateshonda.net","address":"1180 Dr Robert R Martin Bypass","city":"Richmond","state":"KY","zip":40475,"latitude":37.7530579,"longitude":-84.2670228,"phone_number_service":"8596578752","phone_number_main":"8597791000","service_hours":"Mo-We 07:30 - 18:00 | Th 07:30 - 19:00 | Fr 07:30 - 18:00 | Sa 08:00 - 14:00","utc_offset":"-240","gplace_id":null,"gplace_url":"https://maps.google.com/?cid=9010595876696266143","dealerID":71266,"trusted":false,"image_id":"v1597284047/honda_ms.png","phone":"8596578752","cityStateSlug":"richmond.ky","slug":"Richmond.KY/gates+honda","location":"37.7530579,-84.2670228","brandsList":["honda"]},{"id":9216,"crm_id":67063222,"name":"Mann Chrysler Dodge Jeep RAM of Richmond","dealerSlug":"mann+chrysler+dodge+jeep+ram+of+richmond","city_state_slug":"Richmond.KY","brand":"Chrysler,Dodge,Jeep,RAM","website":"www.mannchryslerdodgejeepofrichmond.com","address":"1815 Irvine Rd","city":"Richmond","state":"KY","zip":40475,"latitude":37.7439073,"longitude":-84.2653282,"phone_number_service":"8593534985","phone_number_main":"8593536267","service_hours":"Mo-Fr 09:00 - 19:00 | Sa 09:00 - 17:00","utc_offset":"-240","gplace_id":null,"gplace_url":"https://maps.google.com/?cid=7652809893261503829","dealerID":71267,"trusted":false,"image_id":"v1597283975/chrysler_RM.png","phone":"8593534985","cityStateSlug":"richmond.ky","slug":"Richmond.KY/mann+chrysler+dodge+jeep+ram+of+richmond","location":"37.7439073,-84.2653282","brandsList":["chrysler","dodge","jeep","ram"]},{"id":4113,"crm_id":67063228,"name":"Don Jacobs Honda","dealerSlug":"don+jacobs+honda","city_state_slug":"Lexington.KY","brand":"Honda","website":"www.donjacobshonda.com","address":"2699 Regency Rd","city":"Lexington","state":"KY","zip":40503,"latitude":37.999202,"longitude":-84.523383,"phone_number_service":"8592765555","phone_number_main":"8592765555","service_hours":"Mo-Fr 07:30 - 17:30 | Sa 08:00 - 13:00","utc_offset":"-240","gplace_id":null,"gplace_url":"https://maps.google.com/?cid=11474054319802152699","dealerID":71268,"trusted":false,"image_id":"v1597284047/honda_ms.png","phone":"8592765555","cityStateSlug":"lexington.ky","slug":"Lexington.KY/don+jacobs+honda","location":"37.999202,-84.523383","brandsList":["honda"]},{"id":12483,"crm_id":67063231,"name":"Rod Hatfield Chevrolet","dealerSlug":"rod+hatfield+chevrolet","city_state_slug":"Lexington.KY","brand":"Chevrolet","website":"www.rodhatfieldchevy.com","address":"232 NEW CIRCLE RD NW","city":"Lexington","state":"KY","zip":40505,"latitude":38.0684377,"longitude":-84.4754108,"phone_number_service":"8593095549","phone_number_main":"8592744289","service_hours":"Mo-Fr 07:30 - 17:30 | Sa 08:00 - 16:00","utc_offset":"-240","gplace_id":null,"gplace_url":"https://maps.google.com/?cid=2166853303371196860","dealerID":71269,"trusted":false,"image_id":"v1597284079/chevy_ms.png","phone":"8593095549","cityStateSlug":"lexington.ky","slug":"Lexington.KY/rod+hatfield+chevrolet","location":"38.0684377,-84.4754108","brandsList":["chevrolet"]},{"id":5797,"crm_id":67063234,"name":"Green's Toyota of Lexington","dealerSlug":"greens+toyota+of+lexington","city_state_slug":"Lexington.KY","brand":"Toyota","website":"www.greenstoyotaoflexington.com","address":"630 E New Circle Rd","city":"Lexington","state":"KY","zip":40505,"latitude":38.0501616,"longitude":-84.4564261,"phone_number_service":"8886657257","phone_number_main":"8592545751","service_hours":"Mo-Fr 07:30 - 20:00 | Sa 07:30 - 17:00","utc_offset":"-240","gplace_id":null,"gplace_url":"https://maps.google.com/?cid=6273217593287164737","dealerID":71270,"trusted":false,"image_id":"v1597284039/toyota_ms.png","phone":"8886657257","cityStateSlug":"lexington.ky","slug":"Lexington.KY/greens+toyota+of+lexington","location":"38.0501616,-84.4564261","brandsList":["toyota"]},{"id":11990,"crm_id":67063240,"name":"Quantrell Subaru","dealerSlug":"quantrell+subaru","city_state_slug":"Lexington.KY","brand":"Subaru","website":"www.quantrellsubaru.com","address":"1450 E New Circle Rd","city":"Lexington","state":"KY","zip":40509,"latitude":38.0236111,"longitude":-84.455,"phone_number_service":"8774390668","phone_number_main":"8595779971","service_hours":"Mo-Fr 08:00 - 18:00 | Sa 08:00 - 15:00","utc_offset":"-240","gplace_id":null,"gplace_url":"https://maps.google.com/?cid=3069714003753127668","dealerID":71271,"trusted":false,"image_id":"v1597283982/subaru_ms.png","phone":"8774390668","cityStateSlug":"lexington.ky","slug":"Lexington.KY/quantrell+subaru","location":"38.0236111,-84.455","brandsList":["subaru"]},{"id":4100,"crm_id":67063249,"name":"Don Franklin Lexington Nissan","dealerSlug":"don+franklin+lexington+nissan","city_state_slug":"Lexington.KY","brand":"Nissan","website":"www.donfranklinlexingtonnissan.com","address":"3360 Richmond Rd","city":"Lexington","state":"KY","zip":40509,"latitude":37.996577,"longitude":-84.442758,"phone_number_service":"8888044243","phone_number_main":"8593401431","service_hours":"Mo-Fr 07:30 - 17:30 | Sa 08:00-16:00","utc_offset":"-240","gplace_id":null,"gplace_url":"https://maps.google.com/?cid=8391136737946409419","dealerID":71272,"trusted":false,"image_id":"v1597283926/nissan_RM.png","phone":"8888044243","cityStateSlug":"lexington.ky","slug":"Lexington.KY/don+franklin+lexington+nissan","location":"37.996577,-84.442758","brandsList":["nissan"]},{"id":4099,"crm_id":67063255,"name":"Don Franklin Lexington Hyundai","dealerSlug":"don+franklin+lexington+hyundai","city_state_slug":"Lexington.KY","brand":"Hyundai","website":"www.donfranklinlexingtonhyundai.com","address":"3340 Richmond Rd","city":"Lexington","state":"KY","zip":40509,"latitude":37.997431,"longitude":-84.443553,"phone_number_service":"8885182516","phone_number_main":"8593534750","service_hours":"Mo-Fr 07:30 - 17:30 | Sa 08:00 - 16:00","utc_offset":"-240","gplace_id":null,"gplace_url":"https://maps.google.com/?cid=3866236589077291396","dealerID":71273,"trusted":false,"image_id":"v1597283959/hyundai_RM.png","phone":"8885182516","cityStateSlug":"lexington.ky","slug":"Lexington.KY/don+franklin+lexington+hyundai","location":"37.997431,-84.443553","brandsList":["hyundai"]},{"id":10597,"crm_id":67063264,"name":"Neil Huffman Nissan of Frankfort","dealerSlug":"neil+huffman+nissan+of+frankfort","city_state_slug":"Frankfort.KY","brand":"Nissan","website":"www.neilhuffmannissanfrankfort.com","address":"1220 Versailles Rd #101","city":"Frankfort","state":"KY","zip":40601,"latitude":38.1831292,"longitude":-84.8165437,"phone_number_service":"5023850940","phone_number_main":"5026959050","service_hours":"Mo-Fr 08:00 - 17:00","utc_offset":"-240","gplace_id":null,"gplace_url":"https://maps.google.com/?cid=5315131868014271971","dealerID":71274,"trusted":false,"image_id":"v1597283926/nissan_RM.png","phone":"5023850940","cityStateSlug":"frankfort.ky","slug":"Frankfort.KY/neil+huffman+nissan+of+frankfort","location":"38.1831292,-84.8165437","brandsList":["nissan"]},{"id":10595,"crm_id":67063270,"name":"Neil Huffman Honda of Frankfort","dealerSlug":"neil+huffman+honda+of+frankfort","city_state_slug":"Frankfort.KY","brand":"Honda","website":"www.neilhuffmanhondafrankfort.com","address":"1440 Versailles Rd","city":"Frankfort","state":"KY","zip":40601,"latitude":38.1807636,"longitude":-84.8146291,"phone_number_service":"5023852130","phone_number_main":"5026956100","service_hours":"Mo-Fr 08:00 - 17:00","utc_offset":"-240","gplace_id":null,"gplace_url":"https://maps.google.com/?cid=1925711294654127723","dealerID":71275,"trusted":false,"image_id":"v1597284047/honda_ms.png","phone":"5023852130","cityStateSlug":"frankfort.ky","slug":"Frankfort.KY/neil+huffman+honda+of+frankfort","location":"38.1807636,-84.8146291","brandsList":["honda"]},{"id":1810,"crm_id":67063273,"name":"Bob Allen Chrysler-Dodge-Jeep-RAM-FIAT of Frankfort","dealerSlug":"bob+allen+chrysler+dodge+jeep+ram+fiat+of+frankfort","city_state_slug":"Frankfort.KY","brand":"Chrysler,Dodge,Jeep,RAM,Fiat","website":"www.boballencdjoffrankfort.com","address":"925 Versailles Rd","city":"Frankfort","state":"KY","zip":40601,"latitude":38.1861099,"longitude":-84.8204233,"phone_number_service":"5022193199","phone_number_main":"5022193139","service_hours":"Mo-Fr 07:30 - 17:30 | Sa 08:00 - 12:00","utc_offset":"-240","gplace_id":null,"gplace_url":"https://maps.google.com/?cid=9974137695787560864","dealerID":71276,"trusted":false,"image_id":"v1597283975/chrysler_RM.png","phone":"5022193199","cityStateSlug":"frankfort.ky","slug":"Frankfort.KY/bob+allen+chrysler+dodge+jeep+ram+fiat+of+frankfort","location":"38.1861099,-84.8204233","brandsList":["chrysler","dodge","jeep","ram","fiat"]},{"id":8569,"crm_id":67063279,"name":"Legacy Chevrolet Buick GMC","dealerSlug":"legacy+chevrolet+buick+gmc","city_state_slug":"Corbin.KY","brand":"Buick,Chevrolet,GMC","website":"www.legacychevyky.com","address":"13307 N US Highway 25 E","city":"Corbin","state":"KY","zip":40701,"latitude":36.9460124,"longitude":-84.0496085,"phone_number_service":"8888031291","phone_number_main":"6065281836","service_hours":"Mo-Fr 08:00 - 17:00","utc_offset":"-240","gplace_id":null,"gplace_url":"https://maps.google.com/?cid=13040981514604979503","dealerID":71277,"trusted":false,"image_id":"v1597283981/buick_RM.png","phone":"8888031291","cityStateSlug":"corbin.ky","slug":"Corbin.KY/legacy+chevrolet+buick+gmc","location":"36.9460124,-84.0496085","brandsList":["buick","chevrolet","gmc"]},{"id":14267,"crm_id":67063285,"name":"Tim Short Chrysler Dodge Jeep RAM of Corbin","dealerSlug":"tim+short+chrysler+dodge+jeep+ram+of+corbin","city_state_slug":"Corbin.KY","brand":"Chrysler,Dodge,Jeep,RAM","website":"www.timshortcdjrofcorbin.com","address":"14486 N US Highway 25 E","city":"Corbin","state":"KY","zip":40701,"latitude":36.9570658,"longitude":-84.0673672,"phone_number_service":"8443166185","phone_number_main":"8447240197","service_hours":"Mo-Fr  08:00 - 17:00","utc_offset":"-240","gplace_id":null,"gplace_url":"https://maps.google.com/?cid=4975470726051645597","dealerID":71278,"trusted":false,"image_id":"v1597283975/chrysler_RM.png","phone":"8443166185","cityStateSlug":"corbin.ky","slug":"Corbin.KY/tim+short+chrysler+dodge+jeep+ram+of+corbin","location":"36.9570658,-84.0673672","brandsList":["chrysler","dodge","jeep","ram"]},{"id":4095,"crm_id":67063291,"name":"Don Franklin Ford London","dealerSlug":"don+franklin+ford+london","city_state_slug":"London.KY","brand":"Ford","website":"www.donfranklinfordlondon.com","address":"388 W Hwy 192","city":"London","state":"KY","zip":40741,"latitude":37.1037486,"longitude":-84.0793287,"phone_number_service":"8884593023","phone_number_main":"6068643555","service_hours":"Mo-Fr 07:30 - 18:00 | Sa 08:00 - 14:00","utc_offset":"-240","gplace_id":null,"gplace_url":"https://maps.google.com/?cid=14033566201416885871","dealerID":71279,"trusted":false,"image_id":"v1597283967/ford_RM.png","phone":"8884593023","cityStateSlug":"london.ky","slug":"London.KY/don+franklin+ford+london","location":"37.1037486,-84.0793287","brandsList":["ford"]},{"id":14284,"crm_id":67063294,"name":"Tincher-williams Chevrolet Buick GMC","dealerSlug":"tincher+williams+chevrolet+buick+gmc","city_state_slug":"London.KY","brand":"Buick,Chevrolet,GMC","website":"www.tincherwilliamschevrolet.com","address":"698 S Laurel Rd","city":"London","state":"KY","zip":40744,"latitude":37.0981707,"longitude":-84.0668306,"phone_number_service":"6066570708","phone_number_main":"6066570718","service_hours":"Mo-Fr  08:00 - 17:30","utc_offset":"-240","gplace_id":null,"gplace_url":"https://maps.google.com/?cid=11859543718871440772","dealerID":71280,"trusted":false,"image_id":"v1597283981/buick_RM.png","phone":"6066570708","cityStateSlug":"london.ky","slug":"London.KY/tincher+williams+chevrolet+buick+gmc","location":"37.0981707,-84.0668306","brandsList":["buick","chevrolet","gmc"]},{"id":7859,"crm_id":67063297,"name":"Kerry Chevrolet","dealerSlug":"kerry+chevrolet","city_state_slug":"Alexandria.KY","brand":"Chevrolet","website":"www.kerrychevrolet.com","address":"7500 Alexandria Pike","city":"Alexandria","state":"KY","zip":41001,"latitude":38.9831106,"longitude":-84.3966775,"phone_number_service":"8596356578","phone_number_main":"8596356578","service_hours":"Mo-Fr 07:30 - 18:00 | Sa 08:00 - 13:00","utc_offset":"-240","gplace_id":null,"gplace_url":"https://maps.google.com/?cid=8691338837562984675","dealerID":71281,"trusted":false,"image_id":"v1597284079/chevy_ms.png","phone":"8596356578","cityStateSlug":"alexandria.ky","slug":"Alexandria.KY/kerry+chevrolet","location":"38.9831106,-84.3966775","brandsList":["chevrolet"]},{"id":9295,"crm_id":67063300,"name":"Marshall Chevrolet","dealerSlug":"marshall+chevrolet","city_state_slug":"Carrollton.KY","brand":"Chevrolet","website":"www.marshallchevroletky.com","address":"1934 US HWY 227","city":"Carrollton","state":"KY","zip":41008,"latitude":38.66298,"longitude":-85.1415725,"phone_number_service":"5022337795","phone_number_main":"5022145956","service_hours":"Mo-Fri 08:00 - 17:00 | Sa 08:00 - 17:00","utc_offset":"-240","gplace_id":null,"gplace_url":"https://maps.google.com/?cid=14298835965914173695","dealerID":71282,"trusted":false,"image_id":"v1597284079/chevy_ms.png","phone":"5022337795","cityStateSlug":"carrollton.ky","slug":"Carrollton.KY/marshall+chevrolet","location":"38.66298,-85.1415725","brandsList":["chevrolet"]},{"id":4319,"crm_id":67063303,"name":"Earl Floyd Ford","dealerSlug":"earl+floyd+ford","city_state_slug":"Carrollton.KY","brand":"Ford","website":"www.earlfloydford.net","address":"2687 KY-227","city":"Carrollton","state":"KY","zip":41008,"latitude":38.6558009,"longitude":-85.1300632,"phone_number_service":"8667462167","phone_number_main":"5027326674","service_hours":"Mo-Fr 08:00 - 17:00","utc_offset":"-240","gplace_id":null,"gplace_url":"https://maps.google.com/?cid=3053281249761412090","dealerID":71283,"trusted":false,"image_id":"v1597283967/ford_RM.png","phone":"8667462167","cityStateSlug":"carrollton.ky","slug":"Carrollton.KY/earl+floyd+ford","location":"38.6558009,-85.1300632","brandsList":["ford"]},{"id":2847,"crm_id":67063306,"name":"Cheap Chevrolet","dealerSlug":"cheap+chevrolet","city_state_slug":"Flemingsburg.KY","brand":"Chevrolet","website":"www.cheapchevrolet.com","address":"714 W Water St","city":"Flemingsburg","state":"KY","zip":41041,"latitude":38.430937,"longitude":-83.7403905,"phone_number_service":"8666664308","phone_number_main":"8666063357","service_hours":"Mo-Fr 08:00 - 17:00","utc_offset":"-240","gplace_id":null,"gplace_url":"https://maps.google.com/?cid=3981454157518263961","dealerID":71284,"trusted":false,"image_id":"v1597284079/chevy_ms.png","phone":"8666664308","cityStateSlug":"flemingsburg.ky","slug":"Flemingsburg.KY/cheap+chevrolet","location":"38.430937,-83.7403905","brandsList":["chevrolet"]},{"id":7865,"crm_id":67063309,"name":"Kerry Volkswagen of Florence","dealerSlug":"kerry+volkswagen+of+florence","city_state_slug":"Florence.KY","brand":"Volkswagen","website":"www.kerryvw.com","address":"1010 Burlington Pike","city":"Florence","state":"KY","zip":41042,"latitude":39.0075423,"longitude":-84.659364,"phone_number_service":"8669238455","phone_number_main":"8593718191","service_hours":"Mo-Fr 07:30 - 18:00 | 08:00 - 14:00","utc_offset":"-240","gplace_id":null,"gplace_url":"https://maps.google.com/?cid=10543863023192455482","dealerID":71285,"trusted":false,"image_id":"v1597283902/volkswagen.png","phone":"8669238455","cityStateSlug":"florence.ky","slug":"Florence.KY/kerry+volkswagen+of+florence","location":"39.0075423,-84.659364","brandsList":["volkswagen"]},{"id":7862,"crm_id":67063312,"name":"Kerry Mazda of Florence","dealerSlug":"kerry+mazda+of+florence","city_state_slug":"Florence.KY","brand":"Mazda","website":"www.kerrymazda.com","address":"1020 Burlington Pike","city":"Florence","state":"KY","zip":41042,"latitude":39.0077483,"longitude":-84.6601084,"phone_number_service":"8443278575","phone_number_main":"8593718191","service_hours":"Mo-Fr 07:30 - 18:00 | Sa 08:00 - 14:00","utc_offset":"-240","gplace_id":null,"gplace_url":"https://maps.google.com/?cid=11280527283992864948","dealerID":71286,"trusted":false,"image_id":"v1597283937/mazda.png","phone":"8443278575","cityStateSlug":"florence.ky","slug":"Florence.KY/kerry+mazda+of+florence","location":"39.0077483,-84.6601084","brandsList":["mazda"]},{"id":7283,"crm_id":67063315,"name":"Jeff Wyler Florence Buick GMC","dealerSlug":"jeff+wyler+florence+buick+gmc","city_state_slug":"Florence.KY","brand":"Buick,GMC","website":"jeffwylerflorencebuickgmc.com","address":"1154 Burlington Pike","city":"Florence","state":"KY","zip":41042,"latitude":39.0106617,"longitude":-84.6659902,"phone_number_service":"8592794259","phone_number_main":"8592822337","service_hours":"Mo-Fr 07:30 - 18:00| Sa 08:00 - 13:00","utc_offset":"-240","gplace_id":null,"gplace_url":"https://maps.google.com/?cid=12387022655114736498","dealerID":71287,"trusted":false,"image_id":"v1597283981/buick_RM.png","phone":"8592794259","cityStateSlug":"florence.ky","slug":"Florence.KY/jeff+wyler+florence+buick+gmc","location":"39.0106617,-84.6659902","brandsList":["buick","gmc"]},{"id":7861,"crm_id":67063318,"name":"Kerry Hyundai","dealerSlug":"kerry+hyundai","city_state_slug":"Florence.KY","brand":"Hyundai","website":"www.kerryhyundai.com","address":"6149 Hopeful Church Rd","city":"Florence","state":"KY","zip":41042,"latitude":39.00234,"longitude":-84.655506,"phone_number_service":"8884312418","phone_number_main":"8593718191","service_hours":"Mo-Fr 07:30 - 18:00 | Sa 08:00 - 14:00","utc_offset":"-240","gplace_id":null,"gplace_url":"https://maps.google.com/?cid=3458331870198667103","dealerID":71288,"trusted":false,"image_id":"v1597283959/hyundai_RM.png","phone":"8884312418","cityStateSlug":"florence.ky","slug":"Florence.KY/kerry+hyundai","location":"39.00234,-84.655506","brandsList":["hyundai"]},{"id":7643,"crm_id":67063321,"name":"Joseph Cadillac","dealerSlug":"joseph+cadillac","city_state_slug":"Florence.KY","brand":"Cadillac","website":"www.josephcadillac.com","address":"7600 Industrial Rd","city":"Florence","state":"KY","zip":41042,"latitude":38.9894783,"longitude":-84.6359659,"phone_number_service":"8597952104","phone_number_main":"8595252500","service_hours":"Mo-Fr 07:30 - 18:00 | Sa 08:00 - 12:00","utc_offset":"-240","gplace_id":null,"gplace_url":"https://maps.google.com/?cid=3414396874256602863","dealerID":71289,"trusted":false,"image_id":"v1597283980/cadillac.png","phone":"8597952104","cityStateSlug":"florence.ky","slug":"Florence.KY/joseph+cadillac","location":"38.9894783,-84.6359659","brandsList":["cadillac"]},{"id":14322,"crm_id":67063324,"name":"Tom Gill Chevrolet","dealerSlug":"tom+gill+chevrolet","city_state_slug":"Florence.KY","brand":"Chevrolet","website":"www.tomgill.com","address":"7830 Commerce Dr","city":"Florence","state":"KY","zip":41042,"latitude":39.0034275,"longitude":-84.6430559,"phone_number_service":"8889982309","phone_number_main":"8593717566","service_hours":"Mo-Fr 07:00 - 18:00 | Sa 07:00 - 13:00","utc_offset":"-240","gplace_id":null,"gplace_url":"https://maps.google.com/?cid=5580339013757332108","dealerID":71290,"trusted":false,"image_id":"v1597284079/chevy_ms.png","phone":"8889982309","cityStateSlug":"florence.ky","slug":"Florence.KY/tom+gill+chevrolet","location":"39.0034275,-84.6430559","brandsList":["chevrolet"]},{"id":7863,"crm_id":67063327,"name":"Kerry Nissan of Florence","dealerSlug":"kerry+nissan+of+florence","city_state_slug":"Florence.KY","brand":"Nissan","website":"www.kerrynissan.com","address":"8053 Burlington Pike","city":"Florence","state":"KY","zip":41042,"latitude":39.0032109,"longitude":-84.6543521,"phone_number_service":"8772898757","phone_number_main":"8593718191","service_hours":"Mo-Fr 07:30 - 18:00 | Sa 08:00 - 14:00","utc_offset":"-240","gplace_id":null,"gplace_url":"https://maps.google.com/?cid=9186865853058373256","dealerID":71291,"trusted":false,"image_id":"v1597283926/nissan_RM.png","phone":"8772898757","cityStateSlug":"florence.ky","slug":"Florence.KY/kerry+nissan+of+florence","location":"39.0032109,-84.6543521","brandsList":["nissan"]},{"id":7285,"crm_id":67063330,"name":"Jeff Wyler Honda in Florence","dealerSlug":"jeff+wyler+honda+in+florence","city_state_slug":"Florence.KY","brand":"Honda","website":"jeffwylerflorencehonda.com","address":"949 Burlington Pike","city":"Florence","state":"KY","zip":41042,"latitude":39.0049288,"longitude":-84.6588038,"phone_number_service":"8594792463","phone_number_main":"8592832727","service_hours":"Mo-Fr 08:00 - 18:00| Sa 08:00 - 15:00","utc_offset":"-240","gplace_id":null,"gplace_url":"https://maps.google.com/?cid=1190933617794320231","dealerID":71292,"trusted":false,"image_id":"v1597284047/honda_ms.png","phone":"8594792463","cityStateSlug":"florence.ky","slug":"Florence.KY/jeff+wyler+honda+in+florence","location":"39.0049288,-84.6588038","brandsList":["honda"]},{"id":9217,"crm_id":67063333,"name":"Mann Chrysler, Dodge, Jeep of Maysville","dealerSlug":"mann+chrysler+dodge+jeep+of+maysville","city_state_slug":"Maysville.KY","brand":"Chrysler,Dodge,Jeep,RAM","website":"www.mannchrysler.net","address":"1502 Industrial Park Dr","city":"Maysville","state":"KY","zip":41056,"latitude":38.6379821,"longitude":-83.8104076,"phone_number_service":"8443166187","phone_number_main":"6067599603","service_hours":"Mo-Fr 08:00 - 17:00","utc_offset":"-240","gplace_id":null,"gplace_url":"https://maps.google.com/?cid=4776628523497623867","dealerID":71293,"trusted":false,"image_id":"v1597283975/chrysler_RM.png","phone":"8443166187","cityStateSlug":"maysville.ky","slug":"Maysville.KY/mann+chrysler+dodge+jeep+of+maysville","location":"38.6379821,-83.8104076","brandsList":["chrysler","dodge","jeep","ram"]},{"id":9514,"crm_id":67063336,"name":"McFarland Chevrolet Buick","dealerSlug":"mcfarland+chevrolet+buick","city_state_slug":"Maysville.KY","brand":"Buick,Chevrolet,GMC","website":"www.mcfarlandchevroletbuick.com","address":"609 Martin Luther King Jr Hwy","city":"Maysville","state":"KY","zip":41056,"latitude":38.6339922,"longitude":-83.7974351,"phone_number_service":"8772057042","phone_number_main":"6067597171","service_hours":"Mo-Fr 08:00 - 17:00 | Sa 08:00 - 12:00","utc_offset":"-240","gplace_id":null,"gplace_url":"https://maps.google.com/?cid=13585608578655001592","dealerID":71294,"trusted":false,"image_id":"v1597283981/buick_RM.png","phone":"8772057042","cityStateSlug":"maysville.ky","slug":"Maysville.KY/mcfarland+chevrolet+buick","location":"38.6339922,-83.7974351","brandsList":["buick","chevrolet","gmc"]},{"id":7276,"crm_id":67063339,"name":"Jeff Wyler Chrysler Jeep Dodge RAM of Ft Thomas","dealerSlug":"jeff+wyler+chrysler+jeep+dodge+ram+of+ft+thomas","city_state_slug":"Fort-Thomas.KY","brand":"Chrysler,Dodge,Jeep,RAM,Fiat","website":"jeffwylerfortthomas.net","address":"100 Alexandria Pike","city":"Fort Thomas","state":"KY","zip":41075,"latitude":39.0688778,"longitude":-84.4652564,"phone_number_service":"8599050871","phone_number_main":"8594792943","service_hours":"Mo-Fr 07:30 - 18:00 | Sa 08:00 - 16:00","utc_offset":"-240","gplace_id":null,"gplace_url":"https://maps.google.com/?cid=6846698490799422737","dealerID":71295,"trusted":false,"image_id":"v1597283975/chrysler_RM.png","phone":"8599050871","cityStateSlug":"fort-thomas.ky","slug":"Fort-Thomas.KY/jeff+wyler+chrysler+jeep+dodge+ram+of+ft+thomas","location":"39.0688778,-84.4652564","brandsList":["chrysler","dodge","jeep","ram","fiat"]},{"id":5642,"crm_id":67063342,"name":"Glockner Chrysler, Dodge, Jeep, RAM of Ashland","dealerSlug":"glockner+chrysler+dodge+jeep+ram+of+ashland","city_state_slug":"Ashland.KY","brand":"Chrysler,Dodge,Jeep,RAM","website":"www.glocknerofashland.com","address":"1041 Greenup Avenue","city":"Ashland","state":"KY","zip":41101,"latitude":38.4828662,"longitude":-82.6445039,"phone_number_service":"6066209826","phone_number_main":"6063298616","service_hours":"Mo-Fr 08:00 - 17:30","utc_offset":"-240","gplace_id":null,"gplace_url":"https://maps.google.com/?cid=8742079332182841928","dealerID":71296,"trusted":false,"image_id":"v1597283975/chrysler_RM.png","phone":"6066209826","cityStateSlug":"ashland.ky","slug":"Ashland.KY/glockner+chrysler+dodge+jeep+ram+of+ashland","location":"38.4828662,-82.6445039","brandsList":["chrysler","dodge","jeep","ram"]},{"id":4104,"crm_id":67063345,"name":"Don Hall Supercenter","dealerSlug":"don+hall+supercenter","city_state_slug":"Ashland.KY","brand":"Buick,Chevrolet,GMC","website":"www.donhallgmsupercenter.com","address":"1800 Greenup Ave","city":"Ashland","state":"KY","zip":41101,"latitude":38.478066,"longitude":-82.636472,"phone_number_service":"8886462482","phone_number_main":"6063298777","service_hours":"Mo-Fr 08:00 - 17:30","utc_offset":"-240","gplace_id":null,"gplace_url":"https://maps.google.com/?cid=1321635811246741704","dealerID":71297,"trusted":false,"image_id":"v1597283981/buick_RM.png","phone":"8886462482","cityStateSlug":"ashland.ky","slug":"Ashland.KY/don+hall+supercenter","location":"38.478066,-82.636472","brandsList":["buick","chevrolet","gmc"]},{"id":1429,"crm_id":67063351,"name":"Bill Cole Nissan","dealerSlug":"bill+cole+nissan","city_state_slug":"Ashland.KY","brand":"Nissan","website":"www.billcolenissan.com","address":"2701 Winchester Ave Suite 2","city":"Ashland","state":"KY","zip":41101,"latitude":38.472332,"longitude":-82.626132,"phone_number_service":"6062122680","phone_number_main":"6062356997","service_hours":"Mo-Fr  08:00 - 17:00 | Sa 08:00 - 14:00","utc_offset":"-240","gplace_id":null,"gplace_url":"https://maps.google.com/?cid=2083393056833866147","dealerID":51835,"trusted":true,"image_id":"v1597283926/nissan_RM.png","phone":"6062122680","cityStateSlug":"ashland.ky","slug":"Ashland.KY/bill+cole+nissan","location":"38.472332,-82.626132","brandsList":["nissan"]},{"id":14430,"crm_id":67063366,"name":"Toyota of Ashland","dealerSlug":"toyota+of+ashland","city_state_slug":"Ashland.KY","brand":"Toyota","website":"www.toyotaofashland.com","address":"3503 Winchester Ave","city":"Ashland","state":"KY","zip":41101,"latitude":38.4656804,"longitude":-82.6161805,"phone_number_service":"8886677290","phone_number_main":"6067442727","service_hours":"Mo-Fr 08:00 - 17:00 | Sa 08:00 - 15:00","utc_offset":"-240","gplace_id":null,"gplace_url":"https://maps.google.com/?cid=812097612541995431","dealerID":71299,"trusted":false,"image_id":"v1597284039/toyota_ms.png","phone":"8886677290","cityStateSlug":"ashland.ky","slug":"Ashland.KY/toyota+of+ashland","location":"38.4656804,-82.6161805","brandsList":["toyota"]},{"id":11961,"crm_id":67063369,"name":"Pure Country Chrysler Dodge Jeep RAM","dealerSlug":"pure+country+chrysler+dodge+jeep+ram","city_state_slug":"Grayson.KY","brand":"Chrysler,Dodge,Jeep,RAM","website":"www.purecountrychryslerdodgejeepram.com","address":"333 C W Stevens Boulevard","city":"Grayson","state":"KY","zip":41143,"latitude":38.346705,"longitude":-82.9399464,"phone_number_service":"6066875480","phone_number_main":"6064745414","service_hours":"Mo-Fr 08:00 - 17:00 | Sa 08:00 - 13:00","utc_offset":"-240","gplace_id":null,"gplace_url":"https://maps.google.com/?cid=11685280493634660408","dealerID":71300,"trusted":false,"image_id":"v1597283975/chrysler_RM.png","phone":"6066875480","cityStateSlug":"grayson.ky","slug":"Grayson.KY/pure+country+chrysler+dodge+jeep+ram","location":"38.346705,-82.9399464","brandsList":["chrysler","dodge","jeep","ram"]},{"id":9215,"crm_id":67063375,"name":"Mann Chevrolet-buick","dealerSlug":"mann+chevrolet+buick","city_state_slug":"Campton.KY","brand":"Buick,Chevrolet","website":"www.mannchevybuick.com","address":"449 KY-15","city":"Campton","state":"KY","zip":41301,"latitude":37.7285304,"longitude":-83.5444716,"phone_number_service":"8885943098","phone_number_main":"6065364135","service_hours":"Mo-Fr 08:30 - 17:00","utc_offset":"-240","gplace_id":null,"gplace_url":"https://maps.google.com/?cid=4014404027701150152","dealerID":71301,"trusted":false,"image_id":"v1597283981/buick_RM.png","phone":"8885943098","cityStateSlug":"campton.ky","slug":"Campton.KY/mann+chevrolet+buick","location":"37.7285304,-83.5444716","brandsList":["buick","chevrolet"]},{"id":15244,"crm_id":67063378,"name":"Walters Toyota","dealerSlug":"walters+toyota","city_state_slug":"Pikeville.KY","brand":"Toyota","website":"www.walterstoyota.com","address":"30 Walters Lane","city":"Pikeville","state":"KY","zip":41501,"latitude":37.5372844,"longitude":-82.5989343,"phone_number_service":"6064321451","phone_number_main":"6064321451","service_hours":"Mo-Fr  08:00 - 17:00","utc_offset":"-240","gplace_id":null,"gplace_url":"https://maps.google.com/?cid=2191431019201423646","dealerID":71302,"trusted":false,"image_id":"v1597284039/toyota_ms.png","phone":"6064321451","cityStateSlug":"pikeville.ky","slug":"Pikeville.KY/walters+toyota","location":"37.5372844,-82.5989343","brandsList":["toyota"]},{"id":9218,"crm_id":67063384,"name":"Mann Toyota","dealerSlug":"mann+toyota","city_state_slug":"Prestonsburg.KY","brand":"Toyota","website":"www.manntoyota.com","address":"1811 US-23","city":"Prestonsburg","state":"KY","zip":41653,"latitude":37.6442266,"longitude":-82.7774468,"phone_number_service":"6068863861","phone_number_main":"8778863861","service_hours":"Mo-Fr 08:00 - 17:00","utc_offset":"-240","gplace_id":null,"gplace_url":"https://maps.google.com/?cid=2698267446445739976","dealerID":71303,"trusted":false,"image_id":"v1597284039/toyota_ms.png","phone":"6068863861","cityStateSlug":"prestonsburg.ky","slug":"Prestonsburg.KY/mann+toyota","location":"37.6442266,-82.7774468","brandsList":["toyota"]},{"id":11638,"crm_id":67063387,"name":"Pop'S Chevrolet Buick","dealerSlug":"pops+chevrolet+buick","city_state_slug":"Prestonsburg.KY","brand":"Buick,Chevrolet","website":"www.popschevy.com","address":"600 US-23","city":"Prestonsburg","state":"KY","zip":41653,"latitude":37.6299117,"longitude":-82.7408251,"phone_number_service":"6062631564","phone_number_main":"6062631507","service_hours":"Mo-Fr 07:30 - 17:00","utc_offset":"-240","gplace_id":null,"gplace_url":"https://maps.google.com/?cid=5402809011890584084","dealerID":71304,"trusted":false,"image_id":"v1597283981/buick_RM.png","phone":"6062631564","cityStateSlug":"prestonsburg.ky","slug":"Prestonsburg.KY/pops+chevrolet+buick","location":"37.6299117,-82.7408251","brandsList":["buick","chevrolet"]},{"id":14269,"crm_id":67063390,"name":"Tim Short Ford","dealerSlug":"tim+short+ford","city_state_slug":"Hazard.KY","brand":"Ford","website":"www.timshortford.net","address":"107 Rockwood Lane","city":"Hazard","state":"KY","zip":41701,"latitude":37.2808966,"longitude":-83.229035,"phone_number_service":"8778607817","phone_number_main":"6064365239","service_hours":"Mo-Fr  09:00 - 17:00","utc_offset":"-240","gplace_id":null,"gplace_url":"https://maps.google.com/?cid=4477037049522854521","dealerID":71305,"trusted":false,"image_id":"v1597283967/ford_RM.png","phone":"8778607817","cityStateSlug":"hazard.ky","slug":"Hazard.KY/tim+short+ford","location":"37.2808966,-83.229035","brandsList":["ford"]},{"id":14268,"crm_id":67063393,"name":"Tim Short Chrysler","dealerSlug":"tim+short+chrysler","city_state_slug":"Hazard.KY","brand":"Chrysler,Dodge,Jeep,RAM","website":"www.timshortchrysler.net","address":"270 Fitz Gilbert Rd","city":"Hazard","state":"KY","zip":41701,"latitude":37.2925141,"longitude":-83.2167606,"phone_number_service":"6066875539","phone_number_main":"6064362277","service_hours":"Mo-Fr  08:00 - 17:30","utc_offset":"-240","gplace_id":null,"gplace_url":"https://maps.google.com/?cid=12706379998075048196","dealerID":71306,"trusted":false,"image_id":"v1597283975/chrysler_RM.png","phone":"6066875539","cityStateSlug":"hazard.ky","slug":"Hazard.KY/tim+short+chrysler","location":"37.2925141,-83.2167606","brandsList":["chrysler","dodge","jeep","ram"]},{"id":14188,"crm_id":67063396,"name":"The Rock-Royal Oaks Chevrolet Cadillac","dealerSlug":"the+rock+royal+oaks+chevrolet+cadillac","city_state_slug":"Paducah.KY","brand":"Cadillac,Chevrolet","website":"www.royaloakschevy.us","address":"3417 Park Ave","city":"Paducah","state":"KY","zip":42001,"latitude":37.0845954,"longitude":-88.6575324,"phone_number_service":"2709084810","phone_number_main":"2709084808","service_hours":"Mo-Fr 07:30 - 17:00 | Sa 08:00 - 15:00","utc_offset":"-300","gplace_id":null,"gplace_url":"https://maps.google.com/?cid=7086129510041688308","dealerID":71307,"trusted":false,"image_id":"v1597283980/cadillac.png","phone":"2709084810","cityStateSlug":"paducah.ky","slug":"Paducah.KY/the+rock+royal+oaks+chevrolet+cadillac","location":"37.0845954,-88.6575324","brandsList":["cadillac","chevrolet"]},{"id":11114,"crm_id":67063399,"name":"Paducah Ford","dealerSlug":"paducah+ford","city_state_slug":"Paducah.KY","brand":"Ford","website":"www.paducahfordsvt.com","address":"3476 Park Ave","city":"Paducah","state":"KY","zip":42001,"latitude":37.0827914,"longitude":-88.6611141,"phone_number_service":"2704440011","phone_number_main":"2704440011","service_hours":"Mo-Fr 07:30 - 17:30 | Sa 08:00 - 16:30","utc_offset":"-300","gplace_id":null,"gplace_url":"https://maps.google.com/?cid=12020362491962037330","dealerID":71308,"trusted":false,"image_id":"v1597283967/ford_RM.png","phone":"2704440011","cityStateSlug":"paducah.ky","slug":"Paducah.KY/paducah+ford","location":"37.0827914,-88.6611141","brandsList":["ford"]},{"id":3115,"crm_id":67063402,"name":"Coad Toyota Paducah","dealerSlug":"coad+toyota+paducah","city_state_slug":"Paducah.KY","brand":"Toyota,Scion","website":"www.coadtoyotapaducah.com","address":"3941 Mike Smith Dr","city":"Paducah","state":"KY","zip":42001,"latitude":37.0823873,"longitude":-88.6812942,"phone_number_service":"2704431745","phone_number_main":"2704086453","service_hours":"Mo-Fr 07:30 - 17:30 | Sa 08:00 - 16:00","utc_offset":"-300","gplace_id":null,"gplace_url":"https://maps.google.com/?cid=5971591956719223735","dealerID":71309,"trusted":false,"image_id":"v1597284039/toyota_ms.png","phone":"2704431745","cityStateSlug":"paducah.ky","slug":"Paducah.KY/coad+toyota+paducah","location":"37.0823873,-88.6812942","brandsList":["toyota","scion"]},{"id":3796,"crm_id":67063405,"name":"David Taylor Chrysler Dodge Jeep RAM of Benton","dealerSlug":"david+taylor+chrysler+dodge+jeep+ram+of+benton","city_state_slug":"Benton.KY","brand":"Chrysler,Dodge,Jeep,RAM","website":"www.dtcbenton.com","address":"101 W 5th St.","city":"Benton","state":"KY","zip":42025,"latitude":36.8639358,"longitude":-88.3519136,"phone_number_service":"2707759103","phone_number_main":"2705278603","service_hours":"Mo-Fr 08:00 - 17:00","utc_offset":"-300","gplace_id":null,"gplace_url":"https://maps.google.com/?cid=2047254088598437442","dealerID":71310,"trusted":false,"image_id":"v1597283975/chrysler_RM.png","phone":"2707759103","cityStateSlug":"benton.ky","slug":"Benton.KY/david+taylor+chrysler+dodge+jeep+ram+of+benton","location":"36.8639358,-88.3519136","brandsList":["chrysler","dodge","jeep","ram"]},{"id":3372,"crm_id":67063408,"name":"Country Chevrolet Buick GMC","dealerSlug":"country+chevrolet+buick+gmc","city_state_slug":"Benton.KY","brand":"Buick,Chevrolet,GMC","website":"www.country-chevrolet.com","address":"104 W 5th St","city":"Benton","state":"KY","zip":42025,"latitude":36.865314,"longitude":-88.353295,"phone_number_service":"2705270564","phone_number_main":"2705278671","service_hours":"Mo-Fr 07:30 - 17:00 | Sa 08:00 - 13:00","utc_offset":"-300","gplace_id":null,"gplace_url":"https://maps.google.com/?cid=13974725520715599478","dealerID":71311,"trusted":false,"image_id":"v1597283981/buick_RM.png","phone":"2705270564","cityStateSlug":"benton.ky","slug":"Benton.KY/country+chevrolet+buick+gmc","location":"36.865314,-88.353295","brandsList":["buick","chevrolet","gmc"]},{"id":8632,"crm_id":67063411,"name":"Leon Riley Ford","dealerSlug":"leon+riley+ford","city_state_slug":"Benton.KY","brand":"Ford","website":"www.leonrileyford.net","address":"99 North Main St","city":"Benton","state":"KY","zip":42025,"latitude":36.8692086,"longitude":-88.3478014,"phone_number_service":"2706400814","phone_number_main":"2705273177","service_hours":"Mo-Fr 07:30 - 17:00","utc_offset":"-300","gplace_id":null,"gplace_url":"https://maps.google.com/?cid=11341380140974566116","dealerID":71312,"trusted":false,"image_id":"v1597283967/ford_RM.png","phone":"2706400814","cityStateSlug":"benton.ky","slug":"Benton.KY/leon+riley+ford","location":"36.8692086,-88.3478014","brandsList":["ford"]},{"id":3797,"crm_id":67063414,"name":"David Taylor Chrysler Dodge Jeep RAM of Mayfield","dealerSlug":"david+taylor+chrysler+dodge+jeep+ram+of+mayfield","city_state_slug":"Mayfield.KY","brand":"Chrysler,Dodge,Jeep,RAM","website":"www.davidtaylorchryslerofmayfield.com","address":"915 Paducah Rd.","city":"Mayfield","state":"KY","zip":42066,"latitude":36.7534484,"longitude":-88.6401214,"phone_number_service":"2702897001","phone_number_main":"2702473272","service_hours":"Mo-Fr 08:00 - 17:00","utc_offset":"-300","gplace_id":null,"gplace_url":"https://maps.google.com/?cid=9833560347575412117","dealerID":71313,"trusted":false,"image_id":"v1597283975/chrysler_RM.png","phone":"2702897001","cityStateSlug":"mayfield.ky","slug":"Mayfield.KY/david+taylor+chrysler+dodge+jeep+ram+of+mayfield","location":"36.7534484,-88.6401214","brandsList":["chrysler","dodge","jeep","ram"]},{"id":14506,"crm_id":67063417,"name":"Toyota of Murray","dealerSlug":"toyota+of+murray","city_state_slug":"Murray.KY","brand":"Toyota","website":"www.toyotaofmurray.com","address":"1301 S 12th St","city":"Murray","state":"KY","zip":42071,"latitude":36.5931108,"longitude":-88.3146032,"phone_number_service":"2707676984","phone_number_main":"2707534961","service_hours":"Mo-Fr 07:00 - 17:00 | Sa 08:00 - 14:00","utc_offset":"-300","gplace_id":null,"gplace_url":"https://maps.google.com/?cid=2693104813678265820","dealerID":71314,"trusted":false,"image_id":"v1597284039/toyota_ms.png","phone":"2707676984","cityStateSlug":"murray.ky","slug":"Murray.KY/toyota+of+murray","location":"36.5931108,-88.3146032","brandsList":["toyota"]},{"id":11192,"crm_id":67063420,"name":"Parker Ford","dealerSlug":"parker+ford","city_state_slug":"Murray.KY","brand":"Ford","website":"www.parkerford.net","address":"701 Main St","city":"Murray","state":"KY","zip":42071,"latitude":36.6101824,"longitude":-88.3061238,"phone_number_service":"2706400938","phone_number_main":"2707535273","service_hours":"Mo-Fr 08:00 - 17:00","utc_offset":"-300","gplace_id":null,"gplace_url":"https://maps.google.com/?cid=4864782657925446129","dealerID":71315,"trusted":false,"image_id":"v1597283967/ford_RM.png","phone":"2706400938","cityStateSlug":"murray.ky","slug":"Murray.KY/parker+ford","location":"36.6101824,-88.3061238","brandsList":["ford"]},{"id":3795,"crm_id":67063423,"name":"David Taylor Chrysler Dodge Jeep RAM FIAT Murray","dealerSlug":"david+taylor+chrysler+dodge+jeep+ram+fiat+murray","city_state_slug":"Murray.KY","brand":"Chrysler,Dodge,Jeep,RAM,Fiat","website":"www.davidtaylorchrysler.com","address":"2052 US Hwy 641 N","city":"Murray","state":"KY","zip":42071,"latitude":36.639667,"longitude":-88.3079437,"phone_number_service":"2707536448","phone_number_main":"2707536448","service_hours":"Mo-Fr 08:00 - 17:00 | Sa 08:30 - 16:00","utc_offset":"-300","gplace_id":null,"gplace_url":"https://maps.google.com/?cid=6645886537311282622","dealerID":71316,"trusted":false,"image_id":"v1597283975/chrysler_RM.png","phone":"2707536448","cityStateSlug":"murray.ky","slug":"Murray.KY/david+taylor+chrysler+dodge+jeep+ram+fiat+murray","location":"36.639667,-88.3079437","brandsList":["chrysler","dodge","jeep","ram","fiat"]},{"id":7407,"crm_id":67063426,"name":"Jim Johnson Hyundai","dealerSlug":"jim+johnson+hyundai","city_state_slug":"Bowling-Green.KY","brand":"Hyundai","website":"www.jimjohnsonhyundai.com","address":"2200 Scottsville Rd","city":"Bowling Green","state":"KY","zip":42104,"latitude":36.9578056,"longitude":-86.4274902,"phone_number_service":"8884926952","phone_number_main":"2707816770","service_hours":"Mo-Fr 08:00 - 17:00 | Sa 08:00 - 15:00","utc_offset":"-300","gplace_id":null,"gplace_url":"https://maps.google.com/?cid=8726209969945044995","dealerID":71317,"trusted":false,"image_id":"v1597283959/hyundai_RM.png","phone":"8884926952","cityStateSlug":"bowling-green.ky","slug":"Bowling-Green.KY/jim+johnson+hyundai","location":"36.9578056,-86.4274902","brandsList":["hyundai"]},{"id":9313,"crm_id":67063429,"name":"Martin Dodge Jeep Chrysler RAM","dealerSlug":"martin+dodge+jeep+chrysler+ram","city_state_slug":"Bowling-Green.KY","brand":"Chrysler,Dodge,Jeep,RAM","website":"www.martindodgejeepchrysler.com","address":"2209 Scottsville Rd","city":"Bowling Green","state":"KY","zip":42104,"latitude":36.957103,"longitude":-86.4292536,"phone_number_service":"8883194771","phone_number_main":"2702165185","service_hours":"Mo-Fr 08:00 - 17:00 | Sa 08:00 - 14:00","utc_offset":"-300","gplace_id":null,"gplace_url":"https://maps.google.com/?cid=6251219841079253963","dealerID":71318,"trusted":false,"image_id":"v1597283975/chrysler_RM.png","phone":"8883194771","cityStateSlug":"bowling-green.ky","slug":"Bowling-Green.KY/martin+dodge+jeep+chrysler+ram","location":"36.957103,-86.4292536","brandsList":["chrysler","dodge","jeep","ram"]},{"id":14438,"crm_id":67063432,"name":"Toyota of Bowling Green","dealerSlug":"toyota+of+bowling+green","city_state_slug":"Bowling-Green.KY","brand":"Toyota","website":"www.toyotaofbowlinggreen.com","address":"2398 Scottsville Rd","city":"Bowling Green","state":"KY","zip":42103,"latitude":36.9553277,"longitude":-86.4261565,"phone_number_service":"2703557782","phone_number_main":"2708434321","service_hours":"Mo-Fr 07:00 - 17:30 | Sa 08:00 - 13:00","utc_offset":"-300","gplace_id":null,"gplace_url":"https://maps.google.com/?cid=10612672025588589877","dealerID":71319,"trusted":false,"image_id":"v1597284039/toyota_ms.png","phone":"2703557782","cityStateSlug":"bowling-green.ky","slug":"Bowling-Green.KY/toyota+of+bowling+green","location":"36.9553277,-86.4261565","brandsList":["toyota"]},{"id":9077,"crm_id":67063435,"name":"Luxury Imports of Bowling Green","dealerSlug":"luxury+imports+of+bowling+green","city_state_slug":"Bowling-Green.KY","brand":"Mercedes-Benz","website":"www.mercedesbenzofbowlinggreen.com","address":"325 Three Springs Rd","city":"Bowling Green","state":"KY","zip":42104,"latitude":36.9367589,"longitude":-86.421143,"phone_number_service":"8556457313","phone_number_main":"2707450001","service_hours":"Mo-Sa 08:00 - 17:00","utc_offset":"-300","gplace_id":null,"gplace_url":"https://maps.google.com/?cid=7486186570369405997","dealerID":51751,"trusted":true,"image_id":"v1597283934/mercedes_RM.png","phone":"8556457313","cityStateSlug":"bowling-green.ky","slug":"Bowling-Green.KY/luxury+imports+of+bowling+green","location":"36.9367589,-86.421143","brandsList":["mercedes-benz"]},{"id":13259,"crm_id":67063438,"name":"Sisk Nissan","dealerSlug":"sisk+nissan","city_state_slug":"Hopkinsville.KY","brand":"Nissan","website":"www.sisknissanusa.com","address":"10800 Eagle Way Bypass","city":"Hopkinsville","state":"KY","zip":42240,"latitude":36.8187684,"longitude":-87.4747464,"phone_number_service":"8669445241","phone_number_main":"2708866681","service_hours":"Mo-Fr 07:30 - 17:30 | Sa 08:00-13:00","utc_offset":"-300","gplace_id":null,"gplace_url":"https://maps.google.com/?cid=17872165143534335728","dealerID":51445,"trusted":true,"image_id":"v1597283926/nissan_RM.png","phone":"8669445241","cityStateSlug":"hopkinsville.ky","slug":"Hopkinsville.KY/sisk+nissan","location":"36.8187684,-87.4747464","brandsList":["nissan"]},{"id":14478,"crm_id":67063441,"name":"Toyota of Hopkinsville","dealerSlug":"toyota+of+hopkinsville","city_state_slug":"Hopkinsville.KY","brand":"Toyota","website":"www.toyotaofhopkinsville.com","address":"4395 Fort Campbell Blvd","city":"Hopkinsville","state":"KY","zip":42240,"latitude":36.8232953,"longitude":-87.4748683,"phone_number_service":"8885958216","phone_number_main":"2708869099","service_hours":"Mo-Fr 07:30 - 17:00 | Sa 08:00-16:00","utc_offset":"-300","gplace_id":null,"gplace_url":"https://maps.google.com/?cid=5353724600388365080","dealerID":71322,"trusted":false,"image_id":"v1597284039/toyota_ms.png","phone":"8885958216","cityStateSlug":"hopkinsville.ky","slug":"Hopkinsville.KY/toyota+of+hopkinsville","location":"36.8232953,-87.4748683","brandsList":["toyota"]},{"id":9219,"crm_id":67063450,"name":"Mansfield Chevrolet-Buick","dealerSlug":"mansfield+chevrolet+buick","city_state_slug":"Russellville.KY","brand":"Buick,Chevrolet","website":"www.mansfieldchevybuick.com","address":"452 Hopkinsville Rd","city":"Russellville","state":"KY","zip":42276,"latitude":36.8433921,"longitude":-86.9054104,"phone_number_service":"8775078252","phone_number_main":"2709460250","service_hours":"Mo-Fr 07:30 - 17:00","utc_offset":"-300","gplace_id":null,"gplace_url":"https://maps.google.com/?cid=14512094271151177577","dealerID":71323,"trusted":false,"image_id":"v1597283981/buick_RM.png","phone":"8775078252","cityStateSlug":"russellville.ky","slug":"Russellville.KY/mansfield+chevrolet+buick","location":"36.8433921,-86.9054104","brandsList":["buick","chevrolet"]},{"id":7326,"crm_id":67063453,"name":"Jerry Ray Davis Chrysler Dodge Jeep RAM","dealerSlug":"jerry+ray+davis+chrysler+dodge+jeep+ram","city_state_slug":"Owensboro.KY","brand":"Chrysler,Dodge,Jeep,RAM","website":"www.jerryraydavis.com/","address":"322 W 4th St","city":"Owensboro","state":"KY","zip":42301,"latitude":37.7720016,"longitude":-87.1143299,"phone_number_service":"2708734619","phone_number_main":"2702142714","service_hours":"Mo-Fr 07:00 - 18:00 | Sa 08:00 - 14:00","utc_offset":"-300","gplace_id":null,"gplace_url":"https://maps.google.com/?cid=12513990918861609054","dealerID":71324,"trusted":false,"image_id":"v1597283975/chrysler_RM.png","phone":"2708734619","cityStateSlug":"owensboro.ky","slug":"Owensboro.KY/jerry+ray+davis+chrysler+dodge+jeep+ram","location":"37.7720016,-87.1143299","brandsList":["chrysler","dodge","jeep","ram"]},{"id":4129,"crm_id":67063456,"name":"Don Moore Hyundai","dealerSlug":"don+moore+hyundai","city_state_slug":"Owensboro.KY","brand":"Hyundai","website":"donmoorehyundai.com","address":"3200 Villa Point","city":"Owensboro","state":"KY","zip":42303,"latitude":37.7522916,"longitude":-87.0621919,"phone_number_service":"8667661138","phone_number_main":"2706855555","service_hours":"Mo-Fr 08:00 - 17:00","utc_offset":"-300","gplace_id":null,"gplace_url":"https://maps.google.com/?cid=10176051033287477892","dealerID":71325,"trusted":false,"image_id":"v1597283959/hyundai_RM.png","phone":"8667661138","cityStateSlug":"owensboro.ky","slug":"Owensboro.KY/don+moore+hyundai","location":"37.7522916,-87.0621919","brandsList":["hyundai"]},{"id":4132,"crm_id":67063459,"name":"Don Moore Toyota","dealerSlug":"don+moore+toyota","city_state_slug":"Owensboro.KY","brand":"Toyota","website":"www.donmooretoyota.com","address":"4216 Frederica St","city":"Owensboro","state":"KY","zip":42301,"latitude":37.7309763,"longitude":-87.1234797,"phone_number_service":"8777983935","phone_number_main":"2709262500","service_hours":"Mo-Fr 07:30 - 17:30 | Sa 08:00 - 14:00","utc_offset":"-300","gplace_id":null,"gplace_url":"https://maps.google.com/?cid=12791446811957347545","dealerID":71326,"trusted":false,"image_id":"v1597284039/toyota_ms.png","phone":"8777983935","cityStateSlug":"owensboro.ky","slug":"Owensboro.KY/don+moore+toyota","location":"37.7309763,-87.1234797","brandsList":["toyota"]},{"id":10293,"crm_id":67063462,"name":"Moore Chry-Dodge-Jeep","dealerSlug":"moore+chry+dodge+jeep","city_state_slug":"Hartford.KY","brand":"Chrysler,Dodge,Jeep,RAM","website":"www.moorechryslerdodgejeep.com","address":"1201 S Main St","city":"Hartford","state":"KY","zip":42347,"latitude":37.4428997,"longitude":-86.8939582,"phone_number_service":"2702487050","phone_number_main":"2702984800","service_hours":"Mo-Fr 08:00 - 17:00 | Sa 08:00 - 12:00","utc_offset":"-300","gplace_id":null,"gplace_url":"https://maps.google.com/?cid=15424238099858321665","dealerID":71327,"trusted":false,"image_id":"v1597283975/chrysler_RM.png","phone":"2702487050","cityStateSlug":"hartford.ky","slug":"Hartford.KY/moore+chry+dodge+jeep","location":"37.4428997,-86.8939582","brandsList":["chrysler","dodge","jeep","ram"]},{"id":10296,"crm_id":67063465,"name":"Moore Ford","dealerSlug":"moore+ford","city_state_slug":"Hartford.KY","brand":"Ford","website":"www.moorefordofky.com","address":"1201 S Main St","city":"Hartford","state":"KY","zip":42347,"latitude":37.4429953,"longitude":-86.8936951,"phone_number_service":"8772079131","phone_number_main":"2702984800","service_hours":"Mo-Fr 08:00 - 15:00","utc_offset":"-300","gplace_id":null,"gplace_url":"https://maps.google.com/?cid=1684268438206866269","dealerID":71328,"trusted":false,"image_id":"v1597283967/ford_RM.png","phone":"8772079131","cityStateSlug":"hartford.ky","slug":"Hartford.KY/moore+ford","location":"37.4429953,-86.8936951","brandsList":["ford"]},{"id":946,"crm_id":67063468,"name":"B F Evans Ford","dealerSlug":"b+f+evans+ford","city_state_slug":"Livermore.KY","brand":"Ford","website":"www.bfevansford.com","address":"270 US 431 North","city":"Livermore","state":"KY","zip":42352,"latitude":37.4996327,"longitude":-87.1215261,"phone_number_service":"8887150087","phone_number_main":"2702782376","service_hours":"Mo-Fr 08:00 - 17:00","utc_offset":"-300","gplace_id":null,"gplace_url":"https://maps.google.com/?cid=3165113973358621456","dealerID":71329,"trusted":false,"image_id":"v1597283967/ford_RM.png","phone":"8887150087","cityStateSlug":"livermore.ky","slug":"Livermore.KY/b+f+evans+ford","location":"37.4996327,-87.1215261","brandsList":["ford"]},{"id":11613,"crm_id":67063471,"name":"Pogue Chevrolet Buick GMC","dealerSlug":"pogue+chevrolet+buick+gmc","city_state_slug":"Powderly.KY","brand":"Buick,Chevrolet,GMC","website":"www.poguechevrolet.com","address":"2250 W Everly Brothers Blvd","city":"Powderly","state":"KY","zip":42367,"latitude":37.2300211,"longitude":-87.1570246,"phone_number_service":"2706410300","phone_number_main":"2706410300","service_hours":"Mo-Fr 08:00 - 17:00 | Sa 08:00 - 14:00","utc_offset":"-300","gplace_id":null,"gplace_url":"https://maps.google.com/?cid=3146732501968350016","dealerID":71330,"trusted":false,"image_id":"v1597283981/buick_RM.png","phone":"2706410300","cityStateSlug":"powderly.ky","slug":"Powderly.KY/pogue+chevrolet+buick+gmc","location":"37.2300211,-87.1570246","brandsList":["buick","chevrolet","gmc"]},{"id":11614,"crm_id":67063474,"name":"Pogue Chrysler Dodge Jeep RAM FIAT","dealerSlug":"pogue+chrysler+dodge+jeep+ram+fiat","city_state_slug":"Powderly.KY","brand":"Chrysler,Dodge,Jeep,RAM,Fiat","website":"www.poguechrysler.net","address":"2252 W Everly Brothers Blvd","city":"Powderly","state":"KY","zip":42367,"latitude":37.2294729,"longitude":-87.1576734,"phone_number_service":"2708540244","phone_number_main":"2706410400","service_hours":"Mo-Fr 08:00 - 17:00 | Sa 08:00 - 14:00","utc_offset":"-300","gplace_id":null,"gplace_url":"https://maps.google.com/?cid=5253437292136491534","dealerID":71331,"trusted":false,"image_id":"v1597283975/chrysler_RM.png","phone":"2708540244","cityStateSlug":"powderly.ky","slug":"Powderly.KY/pogue+chrysler+dodge+jeep+ram+fiat","location":"37.2294729,-87.1576734","brandsList":["chrysler","dodge","jeep","ram","fiat"]},{"id":689,"crm_id":67063477,"name":"Audubon Chrysler Center","dealerSlug":"audubon+chrysler+center","city_state_slug":"Henderson.KY","brand":"Chrysler,Dodge,Jeep,RAM","website":"www.audubonchryslercenter.net","address":"2945 US-41","city":"Henderson","state":"KY","zip":42420,"latitude":37.8817467,"longitude":-87.5652729,"phone_number_service":"8669802197","phone_number_main":"2708261270","service_hours":"Mo-Fr 07:00 - 17:30","utc_offset":"-300","gplace_id":null,"gplace_url":"https://maps.google.com/?cid=7805153586367071183","dealerID":71332,"trusted":false,"image_id":"v1597283975/chrysler_RM.png","phone":"8669802197","cityStateSlug":"henderson.ky","slug":"Henderson.KY/audubon+chrysler+center","location":"37.8817467,-87.5652729","brandsList":["chrysler","dodge","jeep","ram"]},{"id":4093,"crm_id":67063480,"name":"Don Franklin Chrysler, Dodge, Jeep, RAM, FIAT","dealerSlug":"don+franklin+chrysler+dodge+jeep+ram+fiat","city_state_slug":"Somerset.KY","brand":"Chrysler,Dodge,Jeep,RAM,Fiat","website":"www.donfranklincdjrf.com","address":"1147 S Highway 27","city":"Somerset","state":"KY","zip":42501,"latitude":37.0784091,"longitude":-84.6189722,"phone_number_service":"6065301006","phone_number_main":"6064514200","service_hours":"Mo-Fr 08:00 - 17:00 | Sa 08:00 - 15:00","utc_offset":"-240","gplace_id":null,"gplace_url":"https://maps.google.com/?cid=14643490897489423276","dealerID":71333,"trusted":false,"image_id":"v1597283975/chrysler_RM.png","phone":"6065301006","cityStateSlug":"somerset.ky","slug":"Somerset.KY/don+franklin+chrysler+dodge+jeep+ram+fiat","location":"37.0784091,-84.6189722","brandsList":["chrysler","dodge","jeep","ram","fiat"]},{"id":4102,"crm_id":67063483,"name":"Don Franklin Nissan | Somerset","dealerSlug":"don+franklin+nissan+somerset","city_state_slug":"Somerset.KY","brand":"Nissan","website":"www.donfranklinsomersetnissan.com/","address":"1147 S Hwy 27","city":"Somerset","state":"KY","zip":42501,"latitude":37.0784091,"longitude":-84.6189722,"phone_number_service":"8887118710","phone_number_main":"6066788178","service_hours":"Mo-Fr  08:00 - 17:00 | Sa 08:00 - 15:00","utc_offset":"-240","gplace_id":null,"gplace_url":"https://maps.google.com/?cid=17376749675405884760","dealerID":71334,"trusted":false,"image_id":"v1597283926/nissan_RM.png","phone":"8887118710","cityStateSlug":"somerset.ky","slug":"Somerset.KY/don+franklin+nissan+somerset","location":"37.0784091,-84.6189722","brandsList":["nissan"]},{"id":4092,"crm_id":67063489,"name":"Don Franklin Chevrolet Buick GMC","dealerSlug":"don+franklin+chevrolet+buick+gmc","city_state_slug":"Somerset.KY","brand":"Buick,Chevrolet,GMC","website":"www.donfranklingm.com","address":"345 S. Highway 27","city":"Somerset","state":"KY","zip":42501,"latitude":37.0893418,"longitude":-84.6196702,"phone_number_service":"6062682780","phone_number_main":"6063944012","service_hours":"Mo-Fr 08:00 - 17:00 | Sa 08:00 - 12:00","utc_offset":"-240","gplace_id":null,"gplace_url":"https://maps.google.com/?cid=16217423952207579627","dealerID":71335,"trusted":false,"image_id":"v1597283981/buick_RM.png","phone":"6062682780","cityStateSlug":"somerset.ky","slug":"Somerset.KY/don+franklin+chevrolet+buick+gmc","location":"37.0893418,-84.6196702","brandsList":["buick","chevrolet","gmc"]},{"id":5109,"crm_id":67063495,"name":"Franklin Chevrolet GMC","dealerSlug":"franklin+chevrolet+gmc","city_state_slug":"Russell-Springs.KY","brand":"Chevrolet,GMC","website":"www.donfranklinrussellsprings.com","address":"57 West Steve Wariner Drive","city":"Russell Springs","state":"KY","zip":42642,"latitude":37.0624105,"longitude":-85.0819369,"phone_number_service":"2708669099","phone_number_main":"2702084959","service_hours":"Mo-Fr 08:00 - 17:00 | Sa 08:00 - 12:00","utc_offset":"-300","gplace_id":null,"gplace_url":"https://maps.google.com/?cid=13957632186866875670","dealerID":71336,"trusted":false,"image_id":"v1597284079/chevy_ms.png","phone":"2708669099","cityStateSlug":"russell-springs.ky","slug":"Russell-Springs.KY/franklin+chevrolet+gmc","location":"37.0624105,-85.0819369","brandsList":["chevrolet","gmc"]},{"id":7954,"crm_id":67063498,"name":"Kia Store Elizabethtown","dealerSlug":"kia+store+elizabethtown","city_state_slug":"Elizabethtown.KY","brand":"Kia","website":"www.kiastoreetown.com","address":"1501 N Dixie Hwy","city":"Elizabethtown","state":"KY","zip":42701,"latitude":37.7246541,"longitude":-85.8814608,"phone_number_service":"8443002361","phone_number_main":"2707370005","service_hours":"Mo-Fr 07:00 - 18:00 | Sa 08:00 - 14:30","utc_offset":"-240","gplace_id":null,"gplace_url":"https://maps.google.com/?cid=14141341529949438484","dealerID":71337,"trusted":false,"image_id":"v1597283948/kia_RM.png","phone":"8443002361","cityStateSlug":"elizabethtown.ky","slug":"Elizabethtown.KY/kia+store+elizabethtown","location":"37.7246541,-85.8814608","brandsList":["kia"]},{"id":4091,"crm_id":67063501,"name":"Don Franklin Campbellsville Chevrolet Buick GMC","dealerSlug":"don+franklin+campbellsville+chevrolet+buick+gmc","city_state_slug":"Campbellsville.KY","brand":"Buick,Chevrolet,GMC","website":"www.donfranklincampbellsville.com","address":"200 N Bypass Rd","city":"Campbellsville","state":"KY","zip":42718,"latitude":37.3462295,"longitude":-85.3606142,"phone_number_service":"8777022230","phone_number_main":"8777039313","service_hours":"Mo-Fr 08:00 - 17:00 | Sa 08:00 - 12:00","utc_offset":"-240","gplace_id":null,"gplace_url":"https://maps.google.com/?cid=12103584844408549923","dealerID":71338,"trusted":false,"image_id":"v1597283981/buick_RM.png","phone":"8777022230","cityStateSlug":"campbellsville.ky","slug":"Campbellsville.KY/don+franklin+campbellsville+chevrolet+buick+gmc","location":"37.3462295,-85.3606142","brandsList":["buick","chevrolet","gmc"]},{"id":4094,"crm_id":67063504,"name":"Don Franklin Ford Lincoln","dealerSlug":"don+franklin+ford+lincoln","city_state_slug":"Columbia.KY","brand":"Ford,Lincoln","website":"www.franklinfordky.com","address":"576 Hudson St","city":"Columbia","state":"KY","zip":42728,"latitude":37.1008012,"longitude":-85.3240662,"phone_number_service":"8884496415","phone_number_main":"2703843016","service_hours":"Mo-Fr 07:30 - 16:30 | Sa 07:30 - 12:00","utc_offset":"-300","gplace_id":null,"gplace_url":"https://maps.google.com/?cid=17513628226127527319","dealerID":71339,"trusted":false,"image_id":"v1597283967/ford_RM.png","phone":"8884496415","cityStateSlug":"columbia.ky","slug":"Columbia.KY/don+franklin+ford+lincoln","location":"37.1008012,-85.3240662","brandsList":["ford","lincoln"]},{"id":2538,"crm_id":67079770,"name":"Car Town Kia USA","dealerSlug":"car+town+kia+usa","city_state_slug":"Nicholasville.KY","brand":"Kia","website":"www.cartownkiausa.com","address":"3120 Lexington Rd","city":"Nicholasville","state":"KY","zip":40356,"latitude":37.9380558,"longitude":-84.5468737,"phone_number_service":"8772950194","phone_number_main":"8598874737","service_hours":"Mo-Fr 08:00 - 18:00 | Sa 09:00 - 15:00","utc_offset":"-240","gplace_id":null,"gplace_url":"https://maps.google.com/?cid=10677819275013655773","dealerID":74864,"trusted":false,"image_id":"v1597283948/kia_RM.png","phone":"8772950194","cityStateSlug":"nicholasville.ky","slug":"Nicholasville.KY/car+town+kia+usa","location":"37.9380558,-84.5468737","brandsList":["kia"]},{"id":8993,"crm_id":78375850,"name":"Louisville Chrysler Dodge Jeep RAM","dealerSlug":"louisville+chrysler+dodge+jeep+ram","city_state_slug":"Louisville.KY","brand":"Chrysler,Dodge,Jeep,RAM","website":"www.louisvillechryslerdodgejeepram.net","address":"5311 Dixie Hwy","city":"Louisville","state":"KY","zip":40216,"latitude":38.160399,"longitude":-85.831754,"phone_number_service":"8447240580","phone_number_main":"5024102413","service_hours":"Mo-Fr 07:00 -18:00 | Sa 07:00 - 15:00","utc_offset":"-240","gplace_id":null,"gplace_url":"https://maps.google.com/?cid=9101327714344607367","dealerID":75197,"trusted":false,"image_id":"v1597283975/chrysler_RM.png","phone":"8447240580","cityStateSlug":"louisville.ky","slug":"Louisville.KY/louisville+chrysler+dodge+jeep+ram","location":"38.160399,-85.831754","brandsList":["chrysler","dodge","jeep","ram"]},{"id":7182,"crm_id":78545770,"name":"Jake Sweeney Alfa Romeo","dealerSlug":"jake+sweeney+alfa+romeo","city_state_slug":"Florence.KY","brand":"Alfa Romeo","website":"www.alfaromeousaofflorence.com","address":"5969 Centennial Cir","city":"Florence","state":"KY","zip":41042,"latitude":39.014203,"longitude":-84.6722118,"phone_number_service":"8595683197","phone_number_main":"8593713428","service_hours":"Mo-Fr 07:30 - 18:00 | Sa 08:00 - 13:00","utc_offset":"-240","gplace_id":null,"gplace_url":"https://maps.google.com/?cid=1163746018705173203","dealerID":75203,"trusted":false,"image_id":"v1597283991/Alfa-Romeo.jpg","phone":"8595683197","cityStateSlug":"florence.ky","slug":"Florence.KY/jake+sweeney+alfa+romeo","location":"39.014203,-84.6722118","brandsList":["alfa romeo"]},{"id":10737,"crm_id":93646996,"name":"Nissan of Paducah","dealerSlug":"nissan+of+paducah","city_state_slug":"Paducah.KY","brand":"Nissan","website":"www.nissanofpaducah.com","address":"3164 Park Ave","city":"Paducah","state":"KY","zip":42001,"latitude":37.0829796,"longitude":-88.6470537,"phone_number_service":"2704430946","phone_number_main":"2704430946","service_hours":"Mo-Fr 08:00 - 17:00 | Sa 08:00 - 12:00","utc_offset":"-300","gplace_id":null,"gplace_url":"https://maps.google.com/?cid=18290421091350596942","dealerID":76183,"trusted":false,"image_id":"v1597283926/nissan_RM.png","phone":"2704430946","cityStateSlug":"paducah.ky","slug":"Paducah.KY/nissan+of+paducah","location":"37.0829796,-88.6470537","brandsList":["nissan"]},{"id":4130,"crm_id":93647038,"name":"Don Moore Nissan","dealerSlug":"don+moore+nissan","city_state_slug":"Owensboro.KY","brand":"Nissan","website":"www.donmoorenissan.com","address":"4216 Frederica St","city":"Owensboro","state":"KY","zip":42301,"latitude":37.7310977,"longitude":-87.1226798,"phone_number_service":"8777983935","phone_number_main":"2709262502","service_hours":"Mo-Fr 08:00 - 15:00","utc_offset":"-300","gplace_id":null,"gplace_url":"https://maps.google.com/?cid=18117459117757408310","dealerID":76184,"trusted":false,"image_id":"v1597283926/nissan_RM.png","phone":"8777983935","cityStateSlug":"owensboro.ky","slug":"Owensboro.KY/don+moore+nissan","location":"37.7310977,-87.1226798","brandsList":["nissan"]},{"id":9316,"crm_id":94340953,"name":"Martin Kia","dealerSlug":"martin+kia","city_state_slug":"Bowling-Green.KY","brand":"Kia","website":"www.martinkia.com","address":"2211 Scottsville Rd","city":"Bowling Green","state":"KY","zip":42104,"latitude":36.9565318,"longitude":-86.4288929,"phone_number_service":"8553831351","phone_number_main":"8773414589","service_hours":"Mo-Fr 08:00 - 18:00 | Sa 08:00 - 14:00","utc_offset":"-300","gplace_id":null,"gplace_url":"https://maps.google.com/?cid=9326287622344926946","dealerID":76214,"trusted":false,"image_id":"v1597283948/kia_RM.png","phone":"8553831351","cityStateSlug":"bowling-green.ky","slug":"Bowling-Green.KY/martin+kia","location":"36.9565318,-86.4288929","brandsList":["kia"]},{"id":6918,"crm_id":102551656,"name":"INFINITI Of Lexington","dealerSlug":"infiniti+of+lexington","city_state_slug":"Lexington.KY","brand":"INFINITI","website":"www.infinitioflexington.com","address":"801 E New Circle Rd","city":"Lexington","state":"KY","zip":40505,"latitude":38.0454288,"longitude":-84.45322350000001,"phone_number_service":"8593597560","phone_number_main":"8592632848","service_hours":"Mo-Fr 07:30 - 17:00","utc_offset":"-240","gplace_id":null,"gplace_url":"https://maps.google.com/?cid=12847217119321083097","dealerID":76594,"trusted":false,"image_id":"v1597283957/infiniti_RM.png","phone":"8593597560","cityStateSlug":"lexington.ky","slug":"Lexington.KY/infiniti+of+lexington","location":"38.0454288,-84.45322350000001","brandsList":["infiniti"]},{"id":8994,"crm_id":102551665,"name":"Louisville INFINITI","dealerSlug":"louisville+infiniti","city_state_slug":"Louisville.KY","brand":"INFINITI","website":"www.louisvilleinfiniti.com","address":"8 Autocenter Dr","city":"Louisville","state":"KY","zip":40299,"latitude":38.218924,"longitude":-85.582687,"phone_number_service":"5025264219","phone_number_main":"5025264228","service_hours":"Mo-Fr 07:00 - 18:00 | Sa 08:00 - 14:00","utc_offset":"-240","gplace_id":null,"gplace_url":"https://maps.google.com/?cid=13518714759202739226","dealerID":76595,"trusted":false,"image_id":"v1597283957/infiniti_RM.png","phone":"5025264219","cityStateSlug":"louisville.ky","slug":"Louisville.KY/louisville+infiniti","location":"38.218924,-85.582687","brandsList":["infiniti"]},{"id":6933,"crm_id":102551683,"name":"INFINITI of Northern Kentucky","dealerSlug":"infiniti+of+northern+kentucky","city_state_slug":"Fort-Wright.KY","brand":"INFINITI","website":"www.infinitiofnorthernkentucky.com","address":"1945 Dixie Hwy","city":"Fort Wright","state":"KY","zip":41011,"latitude":39.0557801,"longitude":-84.5449661,"phone_number_service":"8593201000","phone_number_main":"8593201000","service_hours":"Mo-Fr 07:30 - 17:30","utc_offset":"-240","gplace_id":null,"gplace_url":"https://maps.google.com/?cid=12992310393036543201","dealerID":76596,"trusted":false,"image_id":"v1597283957/infiniti_RM.png","phone":"8593201000","cityStateSlug":"fort-wright.ky","slug":"Fort-Wright.KY/infiniti+of+northern+kentucky","location":"39.0557801,-84.5449661","brandsList":["infiniti"]},{"id":14390,"crm_id":105259966,"name":"Town & Country Ford","dealerSlug":"town+and+country+ford","city_state_slug":"Louisville.KY","brand":"Ford","website":"www.fordlouisville.net","address":"6015 Preston Hwy","city":"Louisville","state":"KY","zip":40219,"latitude":38.1637319,"longitude":-85.7005478,"phone_number_service":"8777258813","phone_number_main":"5029648131","service_hours":"Mo-Fr 08:00 - 18:00 | Sa 08:00 - 14:00","utc_offset":"-240","gplace_id":null,"gplace_url":"https://maps.google.com/?cid=6406760049603351258","dealerID":76630,"trusted":false,"image_id":"v1597283967/ford_RM.png","phone":"8777258813","cityStateSlug":"louisville.ky","slug":"Louisville.KY/town+and+country+ford","location":"38.1637319,-85.7005478","brandsList":["ford"]},{"id":1427,"crm_id":105970666,"name":"Bill Cole Ford Lincoln","dealerSlug":"bill+cole+ford+lincoln","city_state_slug":"Ashland.KY","brand":"Ford,Lincoln","website":"www.billcoleford.com","address":"2119 Greenup Ave","city":"Ashland","state":"KY","zip":41101,"latitude":38.476754,"longitude":-82.632345,"phone_number_service":"6063287329","phone_number_main":"6062689257","service_hours":"Mo-Fr 08:00 - 18:00","utc_offset":"-240","gplace_id":null,"gplace_url":"https://maps.google.com/?cid=12109030222646853618","dealerID":51485,"trusted":true,"image_id":"v1597283967/ford_RM.png","phone":"6063287329","cityStateSlug":"ashland.ky","slug":"Ashland.KY/bill+cole+ford+lincoln","location":"38.476754,-82.632345","brandsList":["ford","lincoln"]},{"id":11115,"crm_id":106042357,"name":"Paducah Mazda","dealerSlug":"paducah+mazda","city_state_slug":"Paducah.KY","brand":"Mazda","website":"www.paducahmazda.com","address":"3476 Park Ave","city":"Paducah","state":"KY","zip":42001,"latitude":37.0829415,"longitude":-88.6607434,"phone_number_service":"2704440011","phone_number_main":"2704440011","service_hours":"Mo-Fr 07:30 - 17:30 | Sa 08:00 - 16:30","utc_offset":"-300","gplace_id":null,"gplace_url":"https://maps.google.com/?cid=463266870414234007","dealerID":76648,"trusted":false,"image_id":"v1597283937/mazda.png","phone":"2704440011","cityStateSlug":"paducah.ky","slug":"Paducah.KY/paducah+mazda","location":"37.0829415,-88.6607434","brandsList":["mazda"]},{"id":2777,"crm_id":106042552,"name":"Champion Mazda","dealerSlug":"champion+mazda","city_state_slug":"Owensboro.KY","brand":"Mazda","website":"www.owensboromazda.com","address":"140 Southtown Blvd","city":"Owensboro","state":"KY","zip":42303,"latitude":37.7194013,"longitude":-87.1154814,"phone_number_service":"2706400760","phone_number_main":"2706841441","service_hours":"Mo-Fr 07:30 - 18:00 | Sa 07:30 - 16:00","utc_offset":"-300","gplace_id":null,"gplace_url":"https://maps.google.com/?cid=1424109796599122190","dealerID":76649,"trusted":false,"image_id":"v1597283937/mazda.png","phone":"2706400760","cityStateSlug":"owensboro.ky","slug":"Owensboro.KY/champion+mazda","location":"37.7194013,-87.1154814","brandsList":["mazda"]},{"id":14266,"crm_id":108258736,"name":"Tim Short Chrysler Dodge Jeep RAM Fiat of Pikeville","dealerSlug":"tim+short+chrysler+dodge+jeep+ram+fiat+of+pikeville","city_state_slug":"Pikeville.KY","brand":"Chrysler,Dodge,Jeep,RAM,Fiat","website":"www.timshortcdjrofpikeville.com","address":"100 Deskins Dr","city":"Pikeville","state":"KY","zip":41501,"latitude":37.5357465,"longitude":-82.6067509,"phone_number_service":"6065369986","phone_number_main":"8887202758","service_hours":"Mo-Fr  08:00 - 17:00","utc_offset":"-240","gplace_id":null,"gplace_url":"https://maps.google.com/?cid=10511109240553820979","dealerID":76740,"trusted":false,"image_id":"v1597283975/chrysler_RM.png","phone":"6065369986","cityStateSlug":"pikeville.ky","slug":"Pikeville.KY/tim+short+chrysler+dodge+jeep+ram+fiat+of+pikeville","location":"37.5357465,-82.6067509","brandsList":["chrysler","dodge","jeep","ram","fiat"]},{"id":5630,"crm_id":108260038,"name":"Glenn's Freedom Chrysler Dodge Jeep RAM","dealerSlug":"glenns+freedom+chrysler+dodge+jeep+ram","city_state_slug":"Lexington.KY","brand":"Chrysler,Dodge,Jeep,RAM","website":"www.glennfreedomchryslerdodgejeepram.com","address":"1560 E New Circle Rd","city":"Lexington","state":"KY","zip":40509,"latitude":38.01847,"longitude":-84.45752,"phone_number_service":"8592683000","phone_number_main":"8592683000","service_hours":"Mo-Fr 07:00 - 18:00 | Sa 08:00 - 14:00","utc_offset":"-240","gplace_id":null,"gplace_url":"https://maps.google.com/?cid=3547726640790410656","dealerID":76741,"trusted":false,"image_id":"v1597283975/chrysler_RM.png","phone":"8592683000","cityStateSlug":"lexington.ky","slug":"Lexington.KY/glenns+freedom+chrysler+dodge+jeep+ram","location":"38.01847,-84.45752","brandsList":["chrysler","dodge","jeep","ram"]},{"id":14264,"crm_id":111891898,"name":"Tim Short Auto Mall","dealerSlug":"tim+short+auto+mall","city_state_slug":"Corbin.KY","brand":"Chrysler,Dodge,Jeep,RAM","website":"www.timshortautomall.com","address":"14486 North U.S. Highway 25 E","city":"Corbin","state":"KY","zip":40701,"latitude":36.9570658,"longitude":-84.0673672,"phone_number_service":"8886856179","phone_number_main":"6065232657","service_hours":"Mo-Fr  08:00 - 17:00","utc_offset":"-240","gplace_id":null,"gplace_url":"https://maps.google.com/?cid=12905413749919146238","dealerID":76786,"trusted":false,"image_id":"v1597283975/chrysler_RM.png","phone":"8886856179","cityStateSlug":"corbin.ky","slug":"Corbin.KY/tim+short+auto+mall","location":"36.9570658,-84.0673672","brandsList":["chrysler","dodge","jeep","ram"]},{"id":1637,"crm_id":114418198,"name":"BMW of Bowling Green","dealerSlug":"bmw+of+bowling+green","city_state_slug":"Bowling-Green.KY","brand":"BMW","website":"bmwofbowlinggreen.com","address":"325 Three Springs Rd","city":"Bowling Green","state":"KY","zip":42104,"latitude":36.9369076,"longitude":-86.4211727,"phone_number_service":"2707450001","phone_number_main":"2707450001","service_hours":"Mo-Fr 08:00 - 17:00 | Sa 08:00 - 17:00 (Closed: 7/4, 7/18, 8/1, 8/15, 8/29)","utc_offset":"-300","gplace_id":null,"gplace_url":"https://maps.google.com/?cid=8573966826618838895","dealerID":76902,"trusted":false,"image_id":"v1597283982/bmw_RM.png","phone":"2707450001","cityStateSlug":"bowling-green.ky","slug":"Bowling-Green.KY/bmw+of+bowling+green","location":"36.9369076,-86.4211727","brandsList":["bmw"]}]