[{"id":16096,"crm_id":999,"name":"Cannon Nissan","dealerSlug":"cannon+nissan","city_state_slug":"Greenwood.MS","brand":"Nissan","website":"www.cannonnissan.com","address":"69900 HIGHWAY 82 W","city":"Greenwood","state":"MS","zip":38930,"latitude":33.531485,"longitude":-90.242471,"phone_number_service":"6624534211","phone_number_main":"","service_hours":"Mo-Fr 09:00 - 18:00\n | Sa 08:00 - 17:00\n | Su Closed","utc_offset":"","gplace_id":0,"gplace_url":"","dealerID":60200,"trusted":false,"image_id":"v1597283926/nissan_RM.png","phone":"6624534211","cityStateSlug":"greenwood.ms","slug":"Greenwood.MS/cannon+nissan","location":"33.531485,-90.242471","brandsList":["nissan"]},{"id":16380,"crm_id":999,"name":"Estabrook Toyota","dealerSlug":"estabrook+toyota","city_state_slug":"Moss-Point.MS","brand":"Toyota","website":"www.estabrooktoyota.com","address":"6521 Highway 63","city":"Moss Point","state":"MS","zip":39563,"latitude":30.433899,"longitude":-88.526996,"phone_number_service":"8778149165","phone_number_main":"8888780258","service_hours":"Mo-Fr 08:00 - 19:00 | Sa 08:30 - 17:00","utc_offset":"","gplace_id":0,"gplace_url":"","dealerID":60311,"trusted":false,"image_id":"v1597284039/toyota_ms.png","phone":"8778149165","cityStateSlug":"moss-point.ms","slug":"Moss-Point.MS/estabrook+toyota","location":"30.433899,-88.526996","brandsList":["toyota"]},{"id":16578,"crm_id":999,"name":"Heafner Motors","dealerSlug":"heafner+motors","city_state_slug":"Batesville.MS","brand":"Chrysler,Dodge,Jeep,RAM","website":"www.heafnermotors.net","address":"935 Highway 6 West","city":"Batesville","state":"MS","zip":38606,"latitude":34.34986,"longitude":-89.719398,"phone_number_service":"6625637631","phone_number_main":"","service_hours":"Mo-Fr 08:00 - 18:00 | Sa 08:00 - 16:00 | Su Closed","utc_offset":"","gplace_id":0,"gplace_url":"","dealerID":60380,"trusted":false,"image_id":"v1597283975/chrysler_RM.png","phone":"6625637631","cityStateSlug":"batesville.ms","slug":"Batesville.MS/heafner+motors","location":"34.34986,-89.719398","brandsList":["chrysler","dodge","jeep","ram"]},{"id":17625,"crm_id":999,"name":"Summit Truck Group of Tupelo","dealerSlug":"summit+truck+group+of+tupelo","city_state_slug":"Tupelo.MS","brand":"Ford","website":"","address":"1007 International Drive","city":"Tupelo","state":"MS","zip":38804,"latitude":34.234849,"longitude":-88.698699,"phone_number_service":"6628423401","phone_number_main":"","service_hours":"Mo-Fr 08:00 - 17:00 | Sa-Su Closed","utc_offset":"","gplace_id":0,"gplace_url":"","dealerID":60409,"trusted":false,"image_id":"v1597283967/ford_RM.png","phone":"6628423401","cityStateSlug":"tupelo.ms","slug":"Tupelo.MS/summit+truck+group+of+tupelo","location":"34.234849,-88.698699","brandsList":["ford"]},{"id":16533,"crm_id":999,"name":"Griffis Motors","dealerSlug":"griffis+motors","city_state_slug":"Philadelphia.MS","brand":"Chrysler,Dodge,Jeep,RAM","website":"www.griffismotors.net","address":"1012 Holland Ave","city":"Philadelphia","state":"MS","zip":39350,"latitude":32.753173,"longitude":-89.100798,"phone_number_service":"6016564244","phone_number_main":"","service_hours":"Mo-Fr 09:00 - 18:00 | Sa 08:00 - 14:00 | Su Closed","utc_offset":"","gplace_id":0,"gplace_url":"","dealerID":60427,"trusted":false,"image_id":"v1597283975/chrysler_RM.png","phone":"6016564244","cityStateSlug":"philadelphia.ms","slug":"Philadelphia.MS/griffis+motors","location":"32.753173,-89.100798","brandsList":["chrysler","dodge","jeep","ram"]},{"id":17247,"crm_id":999,"name":"Parker McGill Chrysler Dodge Jeep RAM","dealerSlug":"parker+mcgill+chrysler+dodge+jeep+ram","city_state_slug":"Starkville.MS","brand":"Chrysler,Dodge,Jeep,RAM","website":"www.parkermcgillcdjr.com","address":"105 Parker-Mcgill Drive","city":"Starkville","state":"MS","zip":39759,"latitude":33.42554,"longitude":-88.879117,"phone_number_service":"6624944344","phone_number_main":"","service_hours":"Mo-Fr 08:00 - 18:30 | Sa 08:00 - 17:00 | Su Closed","utc_offset":"","gplace_id":0,"gplace_url":"","dealerID":60453,"trusted":false,"image_id":"v1597283975/chrysler_RM.png","phone":"6624944344","cityStateSlug":"starkville.ms","slug":"Starkville.MS/parker+mcgill+chrysler+dodge+jeep+ram","location":"33.42554,-88.879117","brandsList":["chrysler","dodge","jeep","ram"]},{"id":17278,"crm_id":999,"name":"Perry Brothers Ford","dealerSlug":"perry+brothers+ford","city_state_slug":"Tylertown.MS","brand":"Ford","website":"www.perrybrothersford.com","address":"108 Old Highway 98 East","city":"Tylertown","state":"MS","zip":39667,"latitude":31.11548,"longitude":-90.123899,"phone_number_service":"6018762166","phone_number_main":"","service_hours":"","utc_offset":"","gplace_id":0,"gplace_url":"","dealerID":60469,"trusted":false,"image_id":"v1597283967/ford_RM.png","phone":"6018762166","cityStateSlug":"tylertown.ms","slug":"Tylertown.MS/perry+brothers+ford","location":"31.11548,-90.123899","brandsList":["ford"]},{"id":16735,"crm_id":999,"name":"Jeff Wilson Cdjrf","dealerSlug":"jeff+wilson+cdjrf","city_state_slug":"Brookhaven.MS","brand":"Chrysler,Dodge,Jeep,RAM,Fiat","website":"www.jeffwilsondeals.com","address":"109 Us-51","city":"Brookhaven","state":"MS","zip":39601,"latitude":31.583075,"longitude":-90.457011,"phone_number_service":"6018331000","phone_number_main":"","service_hours":"Mo-Fr 08:30 - 18:00 | Sa 09:00 - 17:00 | Su Closed","utc_offset":"","gplace_id":0,"gplace_url":"","dealerID":60474,"trusted":false,"image_id":"v1597283975/chrysler_RM.png","phone":"6018331000","cityStateSlug":"brookhaven.ms","slug":"Brookhaven.MS/jeff+wilson+cdjrf","location":"31.583075,-90.457011","brandsList":["chrysler","dodge","jeep","ram","fiat"]},{"id":15232,"crm_id":999,"name":"Walt Massey Chevrolet Buick GMC","dealerSlug":"walt+massey+chevrolet+buick+gmc","city_state_slug":"Lucedale.MS","brand":"Buick,Chevrolet,GMC","website":"www.waltmassey.com","address":"11241 Old 63 South","city":"Lucedale","state":"MS","zip":39452,"latitude":30.9032639,"longitude":-88.5987254,"phone_number_service":"6012024961","phone_number_main":"6015300627","service_hours":"Mo-Fr 07:00 - 19:00 | Sa 08:00 - 14:00","utc_offset":"-300","gplace_id":null,"gplace_url":"https://maps.google.com/?cid=14201479678690653855","dealerID":60509,"trusted":false,"image_id":"v1597283981/buick_RM.png","phone":"6012024961","cityStateSlug":"lucedale.ms","slug":"Lucedale.MS/walt+massey+chevrolet+buick+gmc","location":"30.9032639,-88.5987254","brandsList":["buick","chevrolet","gmc"]},{"id":17085,"crm_id":999,"name":"Mike Whatley Honda","dealerSlug":"mike+whatley+honda","city_state_slug":"Brookhaven.MS","brand":"Honda","website":"mikewhatleyhonda.com/","address":"115 Highway 51 N","city":"Brookhaven","state":"MS","zip":39601,"latitude":31.581598,"longitude":-90.457024,"phone_number_service":"6018232400","phone_number_main":"6018232400","service_hours":"Mo-Fr 08:30 - 19:00 | Sa 09:00 - 17:00 | Su Closed","utc_offset":"","gplace_id":0,"gplace_url":"","dealerID":60521,"trusted":false,"image_id":"v1597284047/honda_ms.png","phone":"6018232400","cityStateSlug":"brookhaven.ms","slug":"Brookhaven.MS/mike+whatley+honda","location":"31.581598,-90.457024","brandsList":["honda"]},{"id":16795,"crm_id":999,"name":"K H NISSAN","dealerSlug":"k+h+nissan","city_state_slug":"Summit.MS","brand":"Nissan","website":"www.howellnissan.com","address":"1158 HIGHWAY 51-98","city":"Summit","state":"MS","zip":39666,"latitude":31.30009,"longitude":-90.467861,"phone_number_service":"6012767711","phone_number_main":"","service_hours":"Mo-Fr 08:00 - 18:00\n | Sa 09:00 - 14:00\n | Su Closed","utc_offset":"","gplace_id":0,"gplace_url":"","dealerID":60528,"trusted":false,"image_id":"v1597283926/nissan_RM.png","phone":"6012767711","cityStateSlug":"summit.ms","slug":"Summit.MS/k+h+nissan","location":"31.30009,-90.467861","brandsList":["nissan"]},{"id":17359,"crm_id":999,"name":"Ray Brandt Nissan of South Mississippi","dealerSlug":"ray+brandt+nissan+so+miss","city_state_slug":"D'Iberville.MS","brand":"Nissan","website":"www.nissanofsm.com","address":"11600 BOBBY ELEUTERIUS BL","city":"D'Iberville","state":"MS","zip":39540,"latitude":30.4532721,"longitude":-88.9050601,"phone_number_service":"2282200800","phone_number_main":"","service_hours":"Mo-Sa 10:00 - 18:00\n | Su Closed","utc_offset":"","gplace_id":0,"gplace_url":"","dealerID":60531,"trusted":false,"image_id":"v1597283926/nissan_RM.png","phone":"2282200800","cityStateSlug":"d'iberville.ms","slug":"D'Iberville.MS/ray+brandt+nissan+so+miss","location":"30.4532721,-88.9050601","brandsList":["nissan"]},{"id":16783,"crm_id":999,"name":"Johnson Dodge","dealerSlug":"johnson+dodge","city_state_slug":"Meridian.MS","brand":"Chrysler,Dodge,Jeep,RAM","website":"www.johnsondodge.net","address":"1210 Hwy 39 N","city":"Meridian","state":"MS","zip":39301,"latitude":32.36892,"longitude":-88.677448,"phone_number_service":"6016936343","phone_number_main":"","service_hours":"Mo-Sa 08:30 - 17:00 | Su Closed","utc_offset":"","gplace_id":0,"gplace_url":"","dealerID":60556,"trusted":false,"image_id":"v1597283975/chrysler_RM.png","phone":"6016936343","cityStateSlug":"meridian.ms","slug":"Meridian.MS/johnson+dodge","location":"32.36892,-88.677448","brandsList":["chrysler","dodge","jeep","ram"]},{"id":16957,"crm_id":999,"name":"Mack Grubbs Motors","dealerSlug":"mack+grubbs+motors","city_state_slug":"Columbia.MS","brand":"Chrysler,Dodge,Jeep,RAM","website":"www.mackgrubbsmotors.net","address":"1470 Hwy 98 E","city":"Columbia","state":"MS","zip":39429,"latitude":31.252544,"longitude":-89.785004,"phone_number_service":"6017363432","phone_number_main":"","service_hours":"Mo-Fr 09:00 - 17:00 | Sa 09:00 - 15:00 | Su Closed","utc_offset":"","gplace_id":0,"gplace_url":"","dealerID":60649,"trusted":false,"image_id":"v1597283975/chrysler_RM.png","phone":"6017363432","cityStateSlug":"columbia.ms","slug":"Columbia.MS/mack+grubbs+motors","location":"31.252544,-89.785004","brandsList":["chrysler","dodge","jeep","ram"]},{"id":16099,"crm_id":999,"name":"Canton Mac Haik Cdjr","dealerSlug":"canton+mac+haik+cdjr","city_state_slug":"Madison.MS","brand":"Chrysler,Dodge,Jeep,RAM","website":"www.machaikcdjr.net","address":"150 Autobahn Loop","city":"Madison","state":"MS","zip":39110,"latitude":32.553769,"longitude":-90.138906,"phone_number_service":"6014998900","phone_number_main":"","service_hours":"Mo-Sa 08:00 - 19:00 | Su Closed","utc_offset":"","gplace_id":0,"gplace_url":"","dealerID":60657,"trusted":false,"image_id":"v1597283975/chrysler_RM.png","phone":"6014998900","cityStateSlug":"madison.ms","slug":"Madison.MS/canton+mac+haik+cdjr","location":"32.553769,-90.138906","brandsList":["chrysler","dodge","jeep","ram"]},{"id":16807,"crm_id":999,"name":"Keith White Ford","dealerSlug":"keith+white+ford","city_state_slug":"McComb.MS","brand":"Ford","website":"www.keithwhitefl.com","address":"2102 Veterans Blvd.","city":"McComb","state":"MS","zip":39648,"latitude":31.259623,"longitude":-90.483602,"phone_number_service":"6016843970","phone_number_main":"","service_hours":"Mo-Fr 09:00 - 19:00 | Sa 09:00 - 18:00 | Su Closed","utc_offset":"","gplace_id":0,"gplace_url":"","dealerID":60868,"trusted":false,"image_id":"v1597283967/ford_RM.png","phone":"6016843970","cityStateSlug":"mccomb.ms","slug":"McComb.MS/keith+white+ford","location":"31.259623,-90.483602","brandsList":["ford"]},{"id":16103,"crm_id":999,"name":"Carl Hogan Automotive","dealerSlug":"carl+hogan+automotive","city_state_slug":"Columbus.MS","brand":"Chrysler,Dodge,Jeep,RAM","website":"www.carlhoganautomotive.net","address":"2335 Highway 45 N","city":"Columbus","state":"MS","zip":39705,"latitude":33.533716,"longitude":-88.437525,"phone_number_service":"6623284351","phone_number_main":"","service_hours":"Mo-Sa 09:00 - 17:00 | Su Closed","utc_offset":"","gplace_id":0,"gplace_url":"","dealerID":60943,"trusted":false,"image_id":"v1597283975/chrysler_RM.png","phone":"6623284351","cityStateSlug":"columbus.ms","slug":"Columbus.MS/carl+hogan+automotive","location":"33.533716,-88.437525","brandsList":["chrysler","dodge","jeep","ram"]},{"id":16822,"crm_id":999,"name":"Kirk Auto Company","dealerSlug":"kirk+auto+company","city_state_slug":"Grenada.MS","brand":"Ford","website":"www.kirkautoco.com","address":"235 SW Frontage Rd.","city":"Grenada","state":"MS","zip":38901,"latitude":33.785795,"longitude":-89.845558,"phone_number_service":"8554016662","phone_number_main":"","service_hours":"Mo-Fr 07:30 - 19:00 | Sa 08:00 - 17:00 | Su Closed","utc_offset":"","gplace_id":0,"gplace_url":"","dealerID":60946,"trusted":false,"image_id":"v1597283967/ford_RM.png","phone":"8554016662","cityStateSlug":"grenada.ms","slug":"Grenada.MS/kirk+auto+company","location":"33.785795,-89.845558","brandsList":["ford"]},{"id":17424,"crm_id":999,"name":"Rogel Ford","dealerSlug":"rogel+ford","city_state_slug":"Crystal-Springs.MS","brand":"Ford","website":"www.rogelford.com","address":"26167 Highway 27","city":"Crystal Springs","state":"MS","zip":39059,"latitude":32.011929,"longitude":-90.356031,"phone_number_service":"6018921851","phone_number_main":"","service_hours":"Mo-Fr 08:30 - 18:30 | Sa 08:30 - 15:00 | Su Closed","utc_offset":"","gplace_id":0,"gplace_url":"","dealerID":61002,"trusted":false,"image_id":"v1597283967/ford_RM.png","phone":"6018921851","cityStateSlug":"crystal-springs.ms","slug":"Crystal-Springs.MS/rogel+ford","location":"32.011929,-90.356031","brandsList":["ford"]},{"id":17890,"crm_id":999,"name":"Woolwine Cdjr","dealerSlug":"woolwine+cdjr","city_state_slug":"Collins.MS","brand":"Chrysler,Dodge,Jeep,RAM","website":"www.woolwinecdjr.com","address":"3040 Hwy 49","city":"Collins","state":"MS","zip":39428,"latitude":31.608574,"longitude":-89.534216,"phone_number_service":"6017652066","phone_number_main":"","service_hours":"Mo-Fr 07:30 - 17:30 | Sa 08:00 - 14:00 | Su Closed","utc_offset":"","gplace_id":0,"gplace_url":"","dealerID":61089,"trusted":false,"image_id":"v1597283975/chrysler_RM.png","phone":"6017652066","cityStateSlug":"collins.ms","slug":"Collins.MS/woolwine+cdjr","location":"31.608574,-89.534216","brandsList":["chrysler","dodge","jeep","ram"]},{"id":16870,"crm_id":999,"name":"Landers Chrysler Dodge Jeep","dealerSlug":"landers+chrysler+dodge+jeep","city_state_slug":"Southaven.MS","brand":"Chrysler,Dodge,Jeep,RAM","website":"www.landersdodge.com","address":"315 East Goodman Rd","city":"Southaven","state":"MS","zip":38671,"latitude":34.962589,"longitude":-89.983641,"phone_number_service":"6623493006","phone_number_main":"","service_hours":"Mo-Sa 08:00 - 18:00 | Su Closed","utc_offset":"","gplace_id":0,"gplace_url":"","dealerID":61123,"trusted":false,"image_id":"v1597283975/chrysler_RM.png","phone":"6623493006","cityStateSlug":"southaven.ms","slug":"Southaven.MS/landers+chrysler+dodge+jeep","location":"34.962589,-89.983641","brandsList":["chrysler","dodge","jeep","ram"]},{"id":17867,"crm_id":999,"name":"Wilson Premier Hyundai","dealerSlug":"wilson+premier+hyundai","city_state_slug":"Ridgeland.MS","brand":"Hyundai","website":"www.wilsonpremierhyundai.com","address":"450 Steed Road","city":"Ridgeland","state":"MS","zip":39157,"latitude":32.4396877,"longitude":-90.1434445,"phone_number_service":"6018566423","phone_number_main":"","service_hours":"Mo-Fr 07:30 - 18:00 | Sa 08:00 - 12:00","utc_offset":"","gplace_id":0,"gplace_url":"","dealerID":61307,"trusted":false,"image_id":"v1597283959/hyundai_RM.png","phone":"6018566423","cityStateSlug":"ridgeland.ms","slug":"Ridgeland.MS/wilson+premier+hyundai","location":"32.4396877,-90.1434445","brandsList":["hyundai"]},{"id":16094,"crm_id":999,"name":"Cannon Cleveland Cdjr","dealerSlug":"cannon+cleveland+cdjr","city_state_slug":"Cleveland.MS","brand":"Chrysler,Dodge,Jeep,RAM","website":"www.cannoncdjrofcleveland.com","address":"607 N Davis Ave","city":"Cleveland","state":"MS","zip":38732,"latitude":33.751805,"longitude":-90.715986,"phone_number_service":"8007185197","phone_number_main":"","service_hours":"Mo-Fr 08:00 - 18:00 | Sa 08:00 - 17:00 | Su Closed","utc_offset":"","gplace_id":0,"gplace_url":"","dealerID":61443,"trusted":false,"image_id":"v1597283975/chrysler_RM.png","phone":"8007185197","cityStateSlug":"cleveland.ms","slug":"Cleveland.MS/cannon+cleveland+cdjr","location":"33.751805,-90.715986","brandsList":["chrysler","dodge","jeep","ram"]},{"id":16211,"crm_id":999,"name":"Courtesy Motors","dealerSlug":"courtesy+motors","city_state_slug":"Hattiesburg.MS","brand":"Ford","website":"www.courtesyfordsales.net","address":"6393 Highway 98 West","city":"Hattiesburg","state":"MS","zip":39402,"latitude":31.318364,"longitude":-89.406046,"phone_number_service":"6015448111","phone_number_main":"","service_hours":"Mo-Fr 08:00 - 19:00 | Sa 08:00 - 15:00 | Su Closed","utc_offset":"","gplace_id":0,"gplace_url":"","dealerID":61478,"trusted":false,"image_id":"v1597283967/ford_RM.png","phone":"6015448111","cityStateSlug":"hattiesburg.ms","slug":"Hattiesburg.MS/courtesy+motors","location":"31.318364,-89.406046","brandsList":["ford"]},{"id":17326,"crm_id":999,"name":"Pride Hyundai","dealerSlug":"pride+hyundai","city_state_slug":"Batesville.MS","brand":"Hyundai","website":"www.pridehyundaiinc.com","address":"680 Highway 6 W","city":"Batesville","state":"MS","zip":38606,"latitude":34.306297,"longitude":-89.968881,"phone_number_service":"6625635464","phone_number_main":"","service_hours":"Mo-Fr 09:00 - 17:00 | Sa 09:00 - 12:00","utc_offset":"","gplace_id":0,"gplace_url":"","dealerID":61506,"trusted":false,"image_id":"v1597283959/hyundai_RM.png","phone":"6625635464","cityStateSlug":"batesville.ms","slug":"Batesville.MS/pride+hyundai","location":"34.306297,-89.968881","brandsList":["hyundai"]},{"id":16093,"crm_id":999,"name":"Cannon Chrysler Dodge Jeep RAM","dealerSlug":"cannon+chrysler+dodge+jeep+ram","city_state_slug":"Greenwood.MS","brand":"Chrysler,Dodge,Jeep,RAM","website":"www.cannonchryslerdodgejeepram.net","address":"69860 Highway 82 West","city":"Greenwood","state":"MS","zip":38930,"latitude":33.510019,"longitude":-90.149283,"phone_number_service":"6624534212","phone_number_main":"","service_hours":"Mo-Fr 08:00 - 18:00 | Sa 08:00 - 17:00 | Su Closed","utc_offset":"","gplace_id":0,"gplace_url":"","dealerID":61511,"trusted":false,"image_id":"v1597283975/chrysler_RM.png","phone":"6624534212","cityStateSlug":"greenwood.ms","slug":"Greenwood.MS/cannon+chrysler+dodge+jeep+ram","location":"33.510019,-90.149283","brandsList":["chrysler","dodge","jeep","ram"]},{"id":16262,"crm_id":999,"name":"Davis Ford Sales","dealerSlug":"davis+ford+sales","city_state_slug":"Fulton.MS","brand":"Ford","website":"www.davisfordsales.com","address":"904 West Main","city":"Fulton","state":"MS","zip":38843,"latitude":34.274165,"longitude":-88.421456,"phone_number_service":"6628623711","phone_number_main":"","service_hours":"Mo-Fr 07:00 - 18:30 | Sa 07:00 - 16:00 | Su Closed","utc_offset":"","gplace_id":0,"gplace_url":"","dealerID":61669,"trusted":false,"image_id":"v1597283967/ford_RM.png","phone":"6628623711","cityStateSlug":"fulton.ms","slug":"Fulton.MS/davis+ford+sales","location":"34.274165,-88.421456","brandsList":["ford"]},{"id":16097,"crm_id":999,"name":"Cannon Nissan Jackson","dealerSlug":"cannon+nissan+jackson","city_state_slug":"Jackson.MS","brand":"Nissan","website":"www.cannonnissanofjackson.com","address":"905 I-20 FRONTAGE RD","city":"Jackson","state":"MS","zip":39204,"latitude":32.2740748,"longitude":-90.1934061,"phone_number_service":"6013607490","phone_number_main":"","service_hours":"Mo-Fr 08:00 - 19:00\n | Sa 08:00 - 18:00\n | Su Closed","utc_offset":"","gplace_id":0,"gplace_url":"","dealerID":61670,"trusted":false,"image_id":"v1597283926/nissan_RM.png","phone":"6013607490","cityStateSlug":"jackson.ms","slug":"Jackson.MS/cannon+nissan+jackson","location":"32.2740748,-90.1934061","brandsList":["nissan"]},{"id":16531,"crm_id":999,"name":"Griffin Motors","dealerSlug":"griffin+motors","city_state_slug":"Houston.MS","brand":"Chrysler,Jeep,RAM","website":"","address":"925 North Jackson St","city":"Houston","state":"MS","zip":38851,"latitude":33.912917,"longitude":-89.004969,"phone_number_service":"6624564281","phone_number_main":"","service_hours":"Mo-Fr 08:00 - 17:00 | Sa 08:00 - 24:00 | Su Closed","utc_offset":"","gplace_id":0,"gplace_url":"","dealerID":61685,"trusted":false,"image_id":"v1597283975/chrysler_RM.png","phone":"6624564281","cityStateSlug":"houston.ms","slug":"Houston.MS/griffin+motors","location":"33.912917,-89.004969","brandsList":["chrysler","jeep","ram"]},{"id":3230,"crm_id":51924391,"name":"Columbus Nissan","dealerSlug":"columbus+nissan","city_state_slug":"Columbus.MS","brand":"Nissan","website":"www.columbusnissan.com","address":"100 Hwy 12 East","city":"Columbus","state":"MS","zip":39702,"latitude":33.520836,"longitude":-88.362655,"phone_number_service":"6623286691","phone_number_main":"6623286691","service_hours":"Mo-Fr 08:00 - 17:30","utc_offset":"-300","gplace_id":null,"gplace_url":"https://maps.google.com/?cid=1524365150940108078","dealerID":61879,"trusted":false,"image_id":"v1597283926/nissan_RM.png","phone":"6623286691","cityStateSlug":"columbus.ms","slug":"Columbus.MS/columbus+nissan","location":"33.520836,-88.362655","brandsList":["nissan"]},{"id":2770,"crm_id":51925186,"name":"Champion Chrysler Dodge Jeep RAM","dealerSlug":"champion+chrysler+dodge+jeep+ram","city_state_slug":"Gulfport.MS","brand":"Chrysler,Dodge,Jeep,RAM","website":"www.championchryslerdodgemississippi.com","address":"435 E Pass Rd","city":"Gulfport","state":"MS","zip":39507,"latitude":30.3932849,"longitude":-89.0421981,"phone_number_service":"2282841401","phone_number_main":"2288961515","service_hours":"Mo-Fr 07:30 - 18:00 | Sa 08:00 - 15:00","utc_offset":"-300","gplace_id":null,"gplace_url":"https://maps.google.com/?cid=15609616118404338511","dealerID":61922,"trusted":false,"image_id":"v1597283975/chrysler_RM.png","phone":"2282841401","cityStateSlug":"gulfport.ms","slug":"Gulfport.MS/champion+chrysler+dodge+jeep+ram","location":"30.3932849,-89.0421981","brandsList":["chrysler","dodge","jeep","ram"]},{"id":10944,"crm_id":51925537,"name":"Oakes Chevrolet Buick GMC","dealerSlug":"oakes+chevrolet+buick+gmc","city_state_slug":"Greenville.MS","brand":"Buick,Chevrolet,GMC","website":"www.oakeschevy.com","address":"1009 Highway 82 East","city":"Greenville","state":"MS","zip":38701,"latitude":33.3987156,"longitude":-91.0390896,"phone_number_service":"6625804280","phone_number_main":"6623352886","service_hours":"Mo-Fr 07:30 - 17:00","utc_offset":"-300","gplace_id":null,"gplace_url":"https://maps.google.com/?cid=8923233375324210917","dealerID":61984,"trusted":false,"image_id":"v1597283981/buick_RM.png","phone":"6625804280","cityStateSlug":"greenville.ms","slug":"Greenville.MS/oakes+chevrolet+buick+gmc","location":"33.3987156,-91.0390896","brandsList":["buick","chevrolet","gmc"]},{"id":12508,"crm_id":51926479,"name":"Rogers-Dabbs Chevrolet","dealerSlug":"rogers+dabbs+chevrolet","city_state_slug":"Brandon.MS","brand":"Chevrolet","website":"www.rogersdabbs.com","address":"1501 W Government St","city":"Brandon","state":"MS","zip":39042,"latitude":32.2825226,"longitude":-90.0211445,"phone_number_service":"8665295578","phone_number_main":"8004892070","service_hours":"Mo-Fr 07:00 - 18:00 | Sa 07:00 - 15:00","utc_offset":"-300","gplace_id":null,"gplace_url":"https://maps.google.com/?cid=8763553132801978076","dealerID":62146,"trusted":false,"image_id":"v1597284079/chevy_ms.png","phone":"8665295578","cityStateSlug":"brandon.ms","slug":"Brandon.MS/rogers+dabbs+chevrolet","location":"32.2825226,-90.0211445","brandsList":["chevrolet"]},{"id":11287,"crm_id":51926704,"name":"Patty Peck Honda","dealerSlug":"patty+peck+honda","city_state_slug":"Ridgeland.MS","brand":"Honda","website":"www.pattypeckhonda.com","address":"555 Sunnybrook Rd","city":"Ridgeland","state":"MS","zip":39157,"latitude":32.4438095,"longitude":-90.1432189,"phone_number_service":"6019573400","phone_number_main":"6019573400","service_hours":"Mo-Fr 07:30 - 18:00 | Sa 08:00 - 17:00","utc_offset":"-300","gplace_id":null,"gplace_url":"https://maps.google.com/?cid=6961645648755674112","dealerID":50112,"trusted":true,"image_id":"v1597284047/honda_ms.png","phone":"6019573400","cityStateSlug":"ridgeland.ms","slug":"Ridgeland.MS/patty+peck+honda","location":"32.4438095,-90.1432189","brandsList":["honda"]},{"id":8211,"crm_id":52028407,"name":"Lakeshore Chrysler, Dodge, Jeep, RAM of Picayune","dealerSlug":"lakeshore+chrysler+dodge+jeep+ram+of+picayune","city_state_slug":"Picayune.MS","brand":"Chrysler,Dodge,Jeep,RAM","website":"www.lakeshorechryslerdodgejeepramofpicayune.com","address":"251 Frontage Rd","city":"Picayune","state":"MS","zip":39466,"latitude":30.509544,"longitude":-89.665324,"phone_number_service":"6013396202","phone_number_main":"6012152310","service_hours":"Mo-Fr 08:00 - 17:00","utc_offset":"-300","gplace_id":null,"gplace_url":"https://maps.google.com/?cid=9572449275348545556","dealerID":62252,"trusted":false,"image_id":"v1597283975/chrysler_RM.png","phone":"6013396202","cityStateSlug":"picayune.ms","slug":"Picayune.MS/lakeshore+chrysler+dodge+jeep+ram+of+picayune","location":"30.509544,-89.665324","brandsList":["chrysler","dodge","jeep","ram"]},{"id":14443,"crm_id":52028557,"name":"Toyota of Brookhaven","dealerSlug":"toyota+of+brookhaven","city_state_slug":"Brookhaven.MS","brand":"Toyota","website":"www.toyotaofbrookhaven.com","address":"890 Brookway Blvd","city":"Brookhaven","state":"MS","zip":39601,"latitude":31.5797144,"longitude":-90.4641119,"phone_number_service":"6018237000","phone_number_main":"6018237000","service_hours":"Mo-Fr 07:30 - 17:30","utc_offset":"-300","gplace_id":null,"gplace_url":"https://maps.google.com/?cid=17865591231173189560","dealerID":62253,"trusted":false,"image_id":"v1597284039/toyota_ms.png","phone":"6018237000","cityStateSlug":"brookhaven.ms","slug":"Brookhaven.MS/toyota+of+brookhaven","location":"31.5797144,-90.4641119","brandsList":["toyota"]},{"id":14475,"crm_id":56258524,"name":"Toyota of Hattiesburg","dealerSlug":"toyota+of+hattiesburg","city_state_slug":"Hattiesburg.MS","brand":"Toyota","website":"www.toyotahattiesburg.com","address":"6461 US Hwy 98","city":"Hattiesburg","state":"MS","zip":39402,"latitude":31.3180957,"longitude":-89.4110904,"phone_number_service":"8773366106","phone_number_main":"6015449630","service_hours":"Mo-Fr 07:00 - 17:30 | Sa 07:00 - 12:30","utc_offset":"-300","gplace_id":null,"gplace_url":"https://maps.google.com/?cid=14028697413364993330","dealerID":50239,"trusted":true,"image_id":"v1597284039/toyota_ms.png","phone":"8773366106","cityStateSlug":"hattiesburg.ms","slug":"Hattiesburg.MS/toyota+of+hattiesburg","location":"31.3180957,-89.4110904","brandsList":["toyota"]},{"id":7080,"crm_id":67031962,"name":"Jackson Mac Haik CDJR","dealerSlug":"jackson+mac+haik+cdjr","city_state_slug":"Jackson.MS","brand":"Chrysler,Dodge,Jeep,RAM,Fiat","website":"www.machaikchryslerdodgejeepram.com","address":"5395 Interstate 55 North Frontage Rd","city":"Jackson","state":"MS","zip":39206,"latitude":32.3743366,"longitude":-90.1495029,"phone_number_service":"6012929297","phone_number_main":"8443321864","service_hours":"Mo-Fr 07:00 - 18:00 | Sa 08:00 - 14:00","utc_offset":"-300","gplace_id":null,"gplace_url":"https://maps.google.com/?cid=14227020621314297346","dealerID":62745,"trusted":false,"image_id":"v1597283975/chrysler_RM.png","phone":"6012929297","cityStateSlug":"jackson.ms","slug":"Jackson.MS/jackson+mac+haik+cdjr","location":"32.3743366,-90.1495029","brandsList":["chrysler","dodge","jeep","ram","fiat"]},{"id":4950,"crm_id":67032193,"name":"Flowood Mac Haik CDJR","dealerSlug":"flowood+mac+haik+cdjr","city_state_slug":"Flowood.MS","brand":"Chrysler,Dodge,Jeep,RAM","website":"www.machaikcdjrf.com","address":"4000 Lakeland Dr","city":"Flowood","state":"MS","zip":39232,"latitude":32.336622,"longitude":-90.098513,"phone_number_service":"6015637071","phone_number_main":"6015637046","service_hours":"Mo-Fr 07:30 - 18:00 | Sa 07:30 - 14:30","utc_offset":"-300","gplace_id":null,"gplace_url":"https://maps.google.com/?cid=13093621872226951462","dealerID":62812,"trusted":false,"image_id":"v1597283975/chrysler_RM.png","phone":"6015637071","cityStateSlug":"flowood.ms","slug":"Flowood.MS/flowood+mac+haik+cdjr","location":"32.336622,-90.098513","brandsList":["chrysler","dodge","jeep","ram"]},{"id":3547,"crm_id":67032532,"name":"Crown Dodge Chrysler Jeep RAM FIAT","dealerSlug":"crown+dodge+chrysler+jeep+ram+fiat","city_state_slug":"Pascagoula.MS","brand":"Chrysler,Dodge,Jeep,RAM,Fiat","website":"www.crowndodgechrysler.net","address":"2707 Shortcut Rd","city":"Pascagoula","state":"MS","zip":39567,"latitude":30.3805175,"longitude":-88.5344073,"phone_number_service":"2284714532","phone_number_main":"2287691660","service_hours":"Mo-Fr 07:30 - 17:30","utc_offset":"-300","gplace_id":null,"gplace_url":"https://maps.google.com/?cid=2058735125964719408","dealerID":62908,"trusted":false,"image_id":"v1597283975/chrysler_RM.png","phone":"2284714532","cityStateSlug":"pascagoula.ms","slug":"Pascagoula.MS/crown+dodge+chrysler+jeep+ram+fiat","location":"30.3805175,-88.5344073","brandsList":["chrysler","dodge","jeep","ram","fiat"]},{"id":8568,"crm_id":67032673,"name":"Legacy Buick GMC Of Laurel","dealerSlug":"legacy+buick+gmc+of+laurel","city_state_slug":"Laurel.MS","brand":"Buick,GMC","website":"www.legacybuickgmcoflaurel.com","address":"2820 Highway 15 N","city":"Laurel","state":"MS","zip":39440,"latitude":31.7255552,"longitude":-89.1487385,"phone_number_service":"6016514359","phone_number_main":"6016514719","service_hours":"Mo-Fr 08:00 - 17:00","utc_offset":"-300","gplace_id":null,"gplace_url":"https://maps.google.com/?cid=4384181787320198008","dealerID":62948,"trusted":false,"image_id":"v1597283981/buick_RM.png","phone":"6016514359","cityStateSlug":"laurel.ms","slug":"Laurel.MS/legacy+buick+gmc+of+laurel","location":"31.7255552,-89.1487385","brandsList":["buick","gmc"]},{"id":7567,"crm_id":67032937,"name":"John O'Neil Johnson Hyundai","dealerSlug":"john+oneil+johnson+hyundai","city_state_slug":"Meridian.MS","brand":"Hyundai","website":"www.johnoneiljohnsonhyundai.com","address":"2001 Highway 39 North","city":"Meridian","state":"MS","zip":39301,"latitude":32.3783826,"longitude":-88.6810165,"phone_number_service":"6014851620","phone_number_main":"6016215100","service_hours":"Mo-Fr 07:15 - 17:30 | Sa 07:45 - 17:00","utc_offset":"-300","gplace_id":null,"gplace_url":"https://maps.google.com/?cid=5391775729279559366","dealerID":63022,"trusted":false,"image_id":"v1597283959/hyundai_RM.png","phone":"6014851620","cityStateSlug":"meridian.ms","slug":"Meridian.MS/john+oneil+johnson+hyundai","location":"32.3783826,-88.6810165","brandsList":["hyundai"]},{"id":9432,"crm_id":67033285,"name":"Mazda of Jackson","dealerSlug":"mazda+of+jackson","city_state_slug":"Jackson.MS","brand":"Mazda","website":"www.mazdaofjackson.com","address":"5397 I-55 South Frontage Rd","city":"Jackson","state":"MS","zip":39212,"latitude":32.2127495,"longitude":-90.2340301,"phone_number_service":"8884615468","phone_number_main":"8885194736","service_hours":"Mo-Fr 07:30 - 18:00 | Sa 08:00 - 13:00","utc_offset":"-300","gplace_id":null,"gplace_url":"https://maps.google.com/?cid=335257515208893403","dealerID":63115,"trusted":false,"image_id":"v1597283937/mazda.png","phone":"8884615468","cityStateSlug":"jackson.ms","slug":"Jackson.MS/mazda+of+jackson","location":"32.2127495,-90.2340301","brandsList":["mazda"]},{"id":10581,"crm_id":67034086,"name":"Natchez Ford Lincoln","dealerSlug":"natchez+ford+lincoln","city_state_slug":"Natchez.MS","brand":"Ford,Lincoln","website":"www.natchezford.com","address":"14 Sgt Prentiss Dr","city":"Natchez","state":"MS","zip":39120,"latitude":31.5227731,"longitude":-91.390853,"phone_number_service":"6014450076","phone_number_main":"8885089699","service_hours":"Mo-Fr 07:30 - 17:30 | Sa 08:00 - 15:00","utc_offset":"-300","gplace_id":null,"gplace_url":"https://maps.google.com/?cid=2621446325321450387","dealerID":63338,"trusted":false,"image_id":"v1597283967/ford_RM.png","phone":"6014450076","cityStateSlug":"natchez.ms","slug":"Natchez.MS/natchez+ford+lincoln","location":"31.5227731,-91.390853","brandsList":["ford","lincoln"]},{"id":15233,"crm_id":67034233,"name":"Walt Massey Chrysler Dodge Jeep RAM","dealerSlug":"walt+massey+chrysler+dodge+jeep+ram","city_state_slug":"Lucedale.MS","brand":"Chrysler,Dodge,Jeep,RAM","website":"www.waltmasseycdjr.com","address":"148 Ventura Dr","city":"Lucedale","state":"MS","zip":39452,"latitude":30.903808,"longitude":-88.600321,"phone_number_service":"6019095013","phone_number_main":"6012024433","service_hours":"Mo-Fr 07:00 - 19:00 | Sa 08:00 - 14:00","utc_offset":"-300","gplace_id":null,"gplace_url":"https://maps.google.com/?cid=4222990911222062729","dealerID":63376,"trusted":false,"image_id":"v1597283975/chrysler_RM.png","phone":"6019095013","cityStateSlug":"lucedale.ms","slug":"Lucedale.MS/walt+massey+chrysler+dodge+jeep+ram","location":"30.903808,-88.600321","brandsList":["chrysler","dodge","jeep","ram"]},{"id":3511,"crm_id":67034305,"name":"Crossroads Chevrolet Buick GMC","dealerSlug":"crossroads+chevrolet+buick+gmc","city_state_slug":"West-Corinth.MS","brand":"Buick,Chevrolet,GMC","website":"www.crossroadsgm.net","address":"1701 Highway 72","city":"West Corinth","state":"MS","zip":38834,"latitude":34.9303598,"longitude":-88.5413883,"phone_number_service":"6626434092","phone_number_main":"6623378269","service_hours":"Mo-Fr 07:30 - 17:00","utc_offset":"-300","gplace_id":null,"gplace_url":"https://maps.google.com/?cid=17411895600192285896","dealerID":63396,"trusted":false,"image_id":"v1597283981/buick_RM.png","phone":"6626434092","cityStateSlug":"west-corinth.ms","slug":"West-Corinth.MS/crossroads+chevrolet+buick+gmc","location":"34.9303598,-88.5413883","brandsList":["buick","chevrolet","gmc"]},{"id":5116,"crm_id":67034485,"name":"Franks Chevrolet Buick GMC","dealerSlug":"franks+chevrolet+buick+gmc","city_state_slug":"Kosciusko.MS","brand":"Buick,Chevrolet,GMC","website":"www.frankschevy.com","address":"1001 Highway 35 N","city":"Kosciusko","state":"MS","zip":39090,"latitude":33.0766049,"longitude":-89.5917344,"phone_number_service":"6622894611","phone_number_main":"6626333074","service_hours":"Mo-Fr 07:00 - 17:00","utc_offset":"-300","gplace_id":null,"gplace_url":"https://maps.google.com/?cid=14154380621010916975","dealerID":63448,"trusted":false,"image_id":"v1597283981/buick_RM.png","phone":"6622894611","cityStateSlug":"kosciusko.ms","slug":"Kosciusko.MS/franks+chevrolet+buick+gmc","location":"33.0766049,-89.5917344","brandsList":["buick","chevrolet","gmc"]},{"id":8011,"crm_id":67035115,"name":"Kirk Brothers Supercenter","dealerSlug":"kirk+brothers+supercenter","city_state_slug":"Grenada.MS","brand":"Chevrolet","website":"www.kirkbrothers.com","address":"3000 Gateway St","city":"Grenada","state":"MS","zip":38901,"latitude":33.7829818,"longitude":-89.8296395,"phone_number_service":"6623072002","phone_number_main":"6623072968","service_hours":"Mo-Fr 07:30 - 17:30 | Sa 08:00 - 12:00","utc_offset":"-300","gplace_id":null,"gplace_url":"https://maps.google.com/?cid=3965071406728446726","dealerID":63615,"trusted":false,"image_id":"v1597284079/chevy_ms.png","phone":"6623072002","cityStateSlug":"grenada.ms","slug":"Grenada.MS/kirk+brothers+supercenter","location":"33.7829818,-89.8296395","brandsList":["chevrolet"]},{"id":2571,"crm_id":67035184,"name":"Carl Hogan Automotive","dealerSlug":"carl+hogan+automotive","city_state_slug":"Columbus.MS","brand":"Buick,Chevrolet,GMC","website":"www.carlhogangm.com","address":"2333 Hwy 45 N","city":"Columbus","state":"MS","zip":39705,"latitude":33.5329415,"longitude":-88.438322,"phone_number_service":"8772759032","phone_number_main":"6625800726","service_hours":"Mo-Fr 07:30 - 17:30","utc_offset":"-300","gplace_id":null,"gplace_url":"https://maps.google.com/?cid=10213285124643929987","dealerID":63636,"trusted":false,"image_id":"v1597283981/buick_RM.png","phone":"8772759032","cityStateSlug":"columbus.ms","slug":"Columbus.MS/carl+hogan+automotive","location":"33.5329415,-88.438322","brandsList":["buick","chevrolet","gmc"]},{"id":6033,"crm_id":67035370,"name":"Hallmark Ford","dealerSlug":"hallmark+ford","city_state_slug":"Batesville.MS","brand":"Ford","website":"www.hallmarkford.net","address":"921 Highway 6 W","city":"Batesville","state":"MS","zip":38606,"latitude":34.3055262,"longitude":-89.9761991,"phone_number_service":"8772398006","phone_number_main":"6625637684","service_hours":"Mo-Fr 07:00 - 17:30 | Sa 07:00 - 12:00","utc_offset":"-300","gplace_id":null,"gplace_url":"https://maps.google.com/?cid=2413988273598218390","dealerID":63688,"trusted":false,"image_id":"v1597283967/ford_RM.png","phone":"8772398006","cityStateSlug":"batesville.ms","slug":"Batesville.MS/hallmark+ford","location":"34.3055262,-89.9761991","brandsList":["ford"]},{"id":2462,"crm_id":67035688,"name":"Cannon Ford of Starkville","dealerSlug":"cannon+ford+of+starkville","city_state_slug":"Starkville.MS","brand":"Ford","website":"www.cannonfordlincolnofstarkville.net","address":"12249 MS-182","city":"Starkville","state":"MS","zip":39759,"latitude":33.4713865,"longitude":-88.765751,"phone_number_service":"8773678206","phone_number_main":"6625464201","service_hours":"Mo-Fr 07:30 - 17:30","utc_offset":"-300","gplace_id":null,"gplace_url":"https://maps.google.com/?cid=12320068928573908767","dealerID":63780,"trusted":false,"image_id":"v1597283967/ford_RM.png","phone":"8773678206","cityStateSlug":"starkville.ms","slug":"Starkville.MS/cannon+ford+of+starkville","location":"33.4713865,-88.765751","brandsList":["ford"]},{"id":11536,"crm_id":67035778,"name":"Pine Belt Chevrolet","dealerSlug":"pine+belt+chevrolet","city_state_slug":"Hattiesburg.MS","brand":"Chevrolet","website":"www.mypinebeltchevy.com","address":"7300 US-98","city":"Hattiesburg","state":"MS","zip":39402,"latitude":31.3094818,"longitude":-89.4791187,"phone_number_service":"6014751240","phone_number_main":"6012648500","service_hours":"Mo-Fr 07:00 - 18:00 | Sa 08:00 - 15:00","utc_offset":"-300","gplace_id":null,"gplace_url":"https://maps.google.com/?cid=11318449376574378280","dealerID":63804,"trusted":false,"image_id":"v1597284079/chevy_ms.png","phone":"6014751240","cityStateSlug":"hattiesburg.ms","slug":"Hattiesburg.MS/pine+belt+chevrolet","location":"31.3094818,-89.4791187","brandsList":["chevrolet"]},{"id":1515,"crm_id":67035907,"name":"Bill Russell Ford Lincoln","dealerSlug":"bill+russell+ford+lincoln","city_state_slug":"Columbus.MS","brand":"Ford,Lincoln","website":"www.billrussellford.com","address":"2120 US-45","city":"Columbus","state":"MS","zip":39705,"latitude":33.5261662,"longitude":-88.435782,"phone_number_service":"8664306117","phone_number_main":"6623273673","service_hours":"Mo-Fr 07:00 - 18:00","utc_offset":"-300","gplace_id":null,"gplace_url":"https://maps.google.com/?cid=15114368158878017123","dealerID":63838,"trusted":false,"image_id":"v1597283967/ford_RM.png","phone":"8664306117","cityStateSlug":"columbus.ms","slug":"Columbus.MS/bill+russell+ford+lincoln","location":"33.5261662,-88.435782","brandsList":["ford","lincoln"]},{"id":2993,"crm_id":67036264,"name":"Clark Ford","dealerSlug":"clark+ford","city_state_slug":"Amory.MS","brand":"Ford","website":"www.clarkfordinc.com","address":"1410 MS-25","city":"Amory","state":"MS","zip":38821,"latitude":33.9680485,"longitude":-88.4901752,"phone_number_service":"8443389728","phone_number_main":"6622571900","service_hours":"Mo-Fr 07:00 - 17:00","utc_offset":"-300","gplace_id":null,"gplace_url":"https://maps.google.com/?cid=17717453053583781895","dealerID":63931,"trusted":false,"image_id":"v1597283967/ford_RM.png","phone":"8443389728","cityStateSlug":"amory.ms","slug":"Amory.MS/clark+ford","location":"33.9680485,-88.4901752","brandsList":["ford"]},{"id":3239,"crm_id":67036366,"name":"Community Ford","dealerSlug":"community+ford","city_state_slug":"New-Albany.MS","brand":"Ford","website":"www.communityford.com","address":"706 Carter Ave","city":"New Albany","state":"MS","zip":38652,"latitude":34.4846191,"longitude":-89.01573,"phone_number_service":"8772741606","phone_number_main":"8006016288","service_hours":"Mo-Fr 08:00 - 17:00","utc_offset":"-300","gplace_id":null,"gplace_url":"https://maps.google.com/?cid=819450114367416876","dealerID":63957,"trusted":false,"image_id":"v1597283967/ford_RM.png","phone":"8772741606","cityStateSlug":"new-albany.ms","slug":"New-Albany.MS/community+ford","location":"34.4846191,-89.01573","brandsList":["ford"]},{"id":11310,"crm_id":67037506,"name":"Paul Moak Honda","dealerSlug":"paul+moak+honda","city_state_slug":"Jackson.MS","brand":"Honda","website":"www.paulmoakhonda.com","address":"802 Harding St","city":"Jackson","state":"MS","zip":39202,"latitude":32.3063049,"longitude":-90.1666107,"phone_number_service":"6013608303","phone_number_main":"6013608300","service_hours":"Mo-Fr 07:30 - 17:30 | Sa 08:00 - 14:00","utc_offset":"-300","gplace_id":null,"gplace_url":"https://maps.google.com/?cid=6118586884320239532","dealerID":64281,"trusted":false,"image_id":"v1597284047/honda_ms.png","phone":"6013608303","cityStateSlug":"jackson.ms","slug":"Jackson.MS/paul+moak+honda","location":"32.3063049,-90.1666107","brandsList":["honda"]},{"id":6550,"crm_id":67037701,"name":"Homer Skelton Hyundai","dealerSlug":"homer+skelton+hyundai","city_state_slug":"Olive-Branch.MS","brand":"Hyundai,Genesis","website":"www.homerskeltonhyundai.com/","address":"8145 Craft Road","city":"Olive Branch","state":"MS","zip":38654,"latitude":34.9790538,"longitude":-89.8667666,"phone_number_service":"6629323361","phone_number_main":"6626380362","service_hours":"Mo-Fr 07:30 - 17:30 | Sa 08:00 - 13:30","utc_offset":"-300","gplace_id":null,"gplace_url":"https://maps.google.com/?cid=17187430780319300972","dealerID":64333,"trusted":false,"image_id":"v1597283959/hyundai_RM.png","phone":"6629323361","cityStateSlug":"olive-branch.ms","slug":"Olive-Branch.MS/homer+skelton+hyundai","location":"34.9790538,-89.8667666","brandsList":["hyundai","genesis"]},{"id":1563,"crm_id":67038415,"name":"Blackburn Chrysler Dodge Jeep RAM","dealerSlug":"blackburn+chrysler+dodge+jeep+ram","city_state_slug":"Vicksburg.MS","brand":"Chrysler,Dodge,Jeep,RAM","website":"www.blackburnmotor.net","address":"2135 N Frontage Rd","city":"Vicksburg","state":"MS","zip":39180,"latitude":32.3250284,"longitude":-90.867063,"phone_number_service":"6012743020","phone_number_main":"8884720423","service_hours":"Mo-Fr 07:30 - 17:30 | Sa 07:30 - 14:30","utc_offset":"-300","gplace_id":null,"gplace_url":"https://maps.google.com/?cid=12563627629922353344","dealerID":64535,"trusted":false,"image_id":"v1597283975/chrysler_RM.png","phone":"6012743020","cityStateSlug":"vicksburg.ms","slug":"Vicksburg.MS/blackburn+chrysler+dodge+jeep+ram","location":"32.3250284,-90.867063","brandsList":["chrysler","dodge","jeep","ram"]},{"id":15551,"crm_id":67038478,"name":"Wilson Hyundai","dealerSlug":"wilson+hyundai","city_state_slug":"Jackson.MS","brand":"Hyundai","website":"www.wilsonhyundai.com","address":"4200 Lakeland Dr","city":"Jackson","state":"MS","zip":39232,"latitude":32.336832,"longitude":-90.097396,"phone_number_service":"6019144250","phone_number_main":"6019144200","service_hours":"Mo-Fr 07:30 - 18:00 | Sa 08:00-14:00","utc_offset":"-300","gplace_id":null,"gplace_url":"https://maps.google.com/?cid=17562656238027167652","dealerID":64548,"trusted":false,"image_id":"v1597283959/hyundai_RM.png","phone":"6019144250","cityStateSlug":"jackson.ms","slug":"Jackson.MS/wilson+hyundai","location":"32.336832,-90.097396","brandsList":["hyundai"]},{"id":6389,"crm_id":67039024,"name":"Herrin-Gear Toyota","dealerSlug":"herrin+gear+toyota","city_state_slug":"Jackson.MS","brand":"Toyota","website":"www.herrin-geartoyota.com","address":"6100 Interstate 55 North Frontage Rd","city":"Jackson","state":"MS","zip":39211,"latitude":32.3938545,"longitude":-90.1439454,"phone_number_service":"6012285671","phone_number_main":"6018820351","service_hours":"Mo-Fr 07:00-18:00 | Sa 08:00-13:30","utc_offset":"-300","gplace_id":null,"gplace_url":"https://maps.google.com/?cid=14357729115977841158","dealerID":64699,"trusted":false,"image_id":"v1597284039/toyota_ms.png","phone":"6012285671","cityStateSlug":"jackson.ms","slug":"Jackson.MS/herrin+gear+toyota","location":"32.3938545,-90.1439454","brandsList":["toyota"]},{"id":8009,"crm_id":67039819,"name":"Kirk Brothers Buick GMC","dealerSlug":"kirk+brothers+buick+gmc","city_state_slug":"Greenwood.MS","brand":"Buick,GMC","website":"www.kirkbrothersbuickgmc.com/","address":"1601 Highway 82 West","city":"Greenwood","state":"MS","zip":38930,"latitude":33.4760621,"longitude":-89.7913964,"phone_number_service":"8772138584","phone_number_main":"6624536131","service_hours":"Mo-Fr 07:30-17:30 | Sa 08:00-12:00","utc_offset":"-300","gplace_id":null,"gplace_url":"https://maps.google.com/?cid=1012608806027798519","dealerID":64918,"trusted":false,"image_id":"v1597283981/buick_RM.png","phone":"8772138584","cityStateSlug":"greenwood.ms","slug":"Greenwood.MS/kirk+brothers+buick+gmc","location":"33.4760621,-89.7913964","brandsList":["buick","gmc"]},{"id":8375,"crm_id":67039930,"name":"Landers Ford South","dealerSlug":"landers+ford+south","city_state_slug":"Southaven.MS","brand":"Ford","website":"www.landersfordsouth.com","address":"95 East Goodman Road","city":"Southaven","state":"MS","zip":38671,"latitude":34.9621599,"longitude":-89.9884507,"phone_number_service":"8885164892","phone_number_main":"6623494300","service_hours":"Mo-Fr 07:00 - 18:00 | Sa 07:00 - 15:00","utc_offset":"-300","gplace_id":null,"gplace_url":"https://maps.google.com/?cid=12392472856555684235","dealerID":64948,"trusted":false,"image_id":"v1597283967/ford_RM.png","phone":"8885164892","cityStateSlug":"southaven.ms","slug":"Southaven.MS/landers+ford+south","location":"34.9621599,-89.9884507","brandsList":["ford"]},{"id":7568,"crm_id":67040485,"name":"John O'Neil Johnson Toyota","dealerSlug":"john+oneil+johnson+toyota","city_state_slug":"North-Meridian.MS","brand":"Toyota","website":"www.johnsontoyota.com","address":"2900 Hwy 39","city":"North Meridian","state":"MS","zip":39301,"latitude":32.3882672,"longitude":-88.6837911,"phone_number_service":"6014851620","phone_number_main":"6014851620","service_hours":"Mo-Fr 07:15 - 17:30 | Sa 07:45 - 17:00","utc_offset":"-300","gplace_id":null,"gplace_url":"https://maps.google.com/?cid=8192827656420799832","dealerID":65099,"trusted":false,"image_id":"v1597284039/toyota_ms.png","phone":"6014851620","cityStateSlug":"north-meridian.ms","slug":"North-Meridian.MS/john+oneil+johnson+toyota","location":"32.3882672,-88.6837911","brandsList":["toyota"]},{"id":4298,"crm_id":67043563,"name":"Dwayne Blackmon Chevrolet","dealerSlug":"dwayne+blackmon+chevrolet","city_state_slug":"Tupelo.MS","brand":"Chevrolet","website":"www.blackmonchevrolet.com","address":"1410 S Gloster Street","city":"Tupelo","state":"MS","zip":38802,"latitude":34.2232467,"longitude":-88.7206212,"phone_number_service":"6622694774","phone_number_main":"6628423611","service_hours":"Mo-Fr 07:30 - 17:00","utc_offset":"-300","gplace_id":null,"gplace_url":"https://maps.google.com/?cid=5311429323086586463","dealerID":65923,"trusted":false,"image_id":"v1597284079/chevy_ms.png","phone":"6622694774","cityStateSlug":"tupelo.ms","slug":"Tupelo.MS/dwayne+blackmon+chevrolet","location":"34.2232467,-88.7206212","brandsList":["chevrolet"]},{"id":2580,"crm_id":67043854,"name":"Carlock Toyota of Tupelo","dealerSlug":"carlock+toyota+of+tupelo","city_state_slug":"Saltillo.MS","brand":"Toyota","website":"www.carlocktoyotaoftupelo.com","address":"882 Cross Creek Dr","city":"Saltillo","state":"MS","zip":38866,"latitude":34.3211741,"longitude":-88.6985814,"phone_number_service":"6628212816","phone_number_main":"6628210642","service_hours":"Mo-Fr 07:30 - 18:00 | Sa 07:30 - 17:00","utc_offset":"-300","gplace_id":null,"gplace_url":"https://maps.google.com/?cid=2613037929359741929","dealerID":66001,"trusted":false,"image_id":"v1597284039/toyota_ms.png","phone":"6628212816","cityStateSlug":"saltillo.ms","slug":"Saltillo.MS/carlock+toyota+of+tupelo","location":"34.3211741,-88.6985814","brandsList":["toyota"]},{"id":2572,"crm_id":67043935,"name":"Carl Hogan Honda","dealerSlug":"carl+hogan+honda","city_state_slug":"Columbus.MS","brand":"Honda","website":"www.carlhoganhonda.com","address":"3621 Highway 45 N","city":"Columbus","state":"MS","zip":39705,"latitude":33.54642,"longitude":-88.436014,"phone_number_service":"6623288236","phone_number_main":"6623288236","service_hours":"Mo-Fr 07:30 - 17:00","utc_offset":"-300","gplace_id":null,"gplace_url":"https://maps.google.com/?cid=10878426500273645595","dealerID":66021,"trusted":false,"image_id":"v1597284047/honda_ms.png","phone":"6623288236","cityStateSlug":"columbus.ms","slug":"Columbus.MS/carl+hogan+honda","location":"33.54642,-88.436014","brandsList":["honda"]},{"id":1044,"crm_id":67044289,"name":"Barnes Crossing Hyundai","dealerSlug":"barnes+crossing+hyundai","city_state_slug":"Tupelo.MS","brand":"Hyundai","website":"www.bchyundaioftupelo.com","address":"3983 N Gloster St","city":"Tupelo","state":"MS","zip":38804,"latitude":34.3131164,"longitude":-88.7074154,"phone_number_service":"8886356051","phone_number_main":"6628441383","service_hours":"Mo-Fr 07:30 - 18:00 | Sa 07:30 - 16:00","utc_offset":"-300","gplace_id":null,"gplace_url":"https://maps.google.com/?cid=4515777227377073022","dealerID":66114,"trusted":false,"image_id":"v1597283959/hyundai_RM.png","phone":"8886356051","cityStateSlug":"tupelo.ms","slug":"Tupelo.MS/barnes+crossing+hyundai","location":"34.3131164,-88.7074154","brandsList":["hyundai"]},{"id":14873,"crm_id":67044577,"name":"Vardaman Buick","dealerSlug":"vardaman+buick","city_state_slug":"Hattiesburg.MS","brand":"Buick","website":"www.vardamanbuick.com","address":"710 Broadway Dr","city":"Hattiesburg","state":"MS","zip":39401,"latitude":31.3118848,"longitude":-89.3104998,"phone_number_service":"6016204723","phone_number_main":"6016204732","service_hours":"Mo-Fr 07:30 - 17:30","utc_offset":"-300","gplace_id":null,"gplace_url":"https://maps.google.com/?cid=16701378866156928436","dealerID":66192,"trusted":false,"image_id":"v1597283981/buick_RM.png","phone":"6016204723","cityStateSlug":"hattiesburg.ms","slug":"Hattiesburg.MS/vardaman+buick","location":"31.3118848,-89.3104998","brandsList":["buick"]},{"id":2573,"crm_id":67044862,"name":"Carl Hogan Toyota","dealerSlug":"carl+hogan+toyota","city_state_slug":"Columbus.MS","brand":"Toyota","website":"www.carlhogantoyota.com","address":"3907 Highway 45 North","city":"Columbus","state":"MS","zip":39705,"latitude":33.5498263,"longitude":-88.4347141,"phone_number_service":"6622416000","phone_number_main":"6622416000","service_hours":"Mo-Fr 07:30 - 18:00 | Sa 09:00 - 17:00","utc_offset":"-300","gplace_id":null,"gplace_url":"https://maps.google.com/?cid=18335106687981593044","dealerID":66271,"trusted":false,"image_id":"v1597284039/toyota_ms.png","phone":"6622416000","cityStateSlug":"columbus.ms","slug":"Columbus.MS/carl+hogan+toyota","location":"33.5498263,-88.4347141","brandsList":["toyota"]},{"id":2738,"crm_id":67046869,"name":"Centreville Motor Company","dealerSlug":"centreville+motor+company","city_state_slug":"Centreville.MS","brand":"Ford","website":"www.centrevillemotors.com","address":"475 Highway 24","city":"Centreville","state":"MS","zip":39631,"latitude":31.07939,"longitude":-91.0599641,"phone_number_service":"6016455328","phone_number_main":"6016455328","service_hours":"Mo-Fr 08:00 - 17:00","utc_offset":"-300","gplace_id":null,"gplace_url":"https://maps.google.com/?cid=7833794652488800748","dealerID":66791,"trusted":false,"image_id":"v1597283967/ford_RM.png","phone":"6016455328","cityStateSlug":"centreville.ms","slug":"Centreville.MS/centreville+motor+company","location":"31.07939,-91.0599641","brandsList":["ford"]},{"id":5777,"crm_id":67047457,"name":"Great River Nissan","dealerSlug":"great+river+nissan","city_state_slug":"Natchez.MS","brand":"Nissan","website":"www.natcheznissan.com/","address":"203 Devereaux Drive","city":"Natchez","state":"MS","zip":39120,"latitude":31.5585386,"longitude":-91.368873,"phone_number_service":"6014922222","phone_number_main":"8884503480","service_hours":"Mo-Fr 07:30 - 17:30","utc_offset":"-300","gplace_id":null,"gplace_url":"https://maps.google.com/?cid=833741867084820975","dealerID":66961,"trusted":false,"image_id":"v1597283926/nissan_RM.png","phone":"6014922222","cityStateSlug":"natchez.ms","slug":"Natchez.MS/great+river+nissan","location":"31.5585386,-91.368873","brandsList":["nissan"]},{"id":7935,"crm_id":67047601,"name":"Kia of McComb","dealerSlug":"kia+of+mccomb","city_state_slug":"McComb.MS","brand":"Kia","website":"www.kiaofmccomb.com","address":"1030 Long Leaf Drive","city":"McComb","state":"MS","zip":39648,"latitude":31.2659251,"longitude":-90.472035,"phone_number_service":"8664197995","phone_number_main":"6012501005","service_hours":"Mo-Fr 07:30 - 17:00","utc_offset":"-300","gplace_id":null,"gplace_url":"https://maps.google.com/?cid=8428285109614430807","dealerID":66999,"trusted":false,"image_id":"v1597283948/kia_RM.png","phone":"8664197995","cityStateSlug":"mccomb.ms","slug":"McComb.MS/kia+of+mccomb","location":"31.2659251,-90.472035","brandsList":["kia"]},{"id":5765,"crm_id":67048915,"name":"Gray-Daniels Toyota","dealerSlug":"gray+daniels+toyota","city_state_slug":"Brandon.MS","brand":"Toyota","website":"www.gray-danielstoyota.com","address":"104 Gray Daniels Blvd","city":"Brandon","state":"MS","zip":39042,"latitude":32.2803039,"longitude":-90.0340564,"phone_number_service":"8886024369","phone_number_main":"6012079658","service_hours":"Mo-Fr 07:00 - 18:00 | Sa 07:00 - 15:00","utc_offset":"-300","gplace_id":null,"gplace_url":"https://maps.google.com/?cid=3842356658884361085","dealerID":67345,"trusted":false,"image_id":"v1597284039/toyota_ms.png","phone":"8886024369","cityStateSlug":"brandon.ms","slug":"Brandon.MS/gray+daniels+toyota","location":"32.2803039,-90.0340564","brandsList":["toyota"]},{"id":14631,"crm_id":67050592,"name":"Triple M Motors","dealerSlug":"triple+m+motors","city_state_slug":"Carthage.MS","brand":"Chevrolet,GMC","website":"www.triplemmotors.com","address":"600 Highway 35 S","city":"Carthage","state":"MS","zip":39051,"latitude":32.7289667,"longitude":-89.5336748,"phone_number_service":"8884583519","phone_number_main":"6017415400","service_hours":"Mo-Fr 07:30 - 17:00","utc_offset":"-300","gplace_id":null,"gplace_url":"https://maps.google.com/?cid=16289240698607601917","dealerID":67813,"trusted":false,"image_id":"v1597284079/chevy_ms.png","phone":"8884583519","cityStateSlug":"carthage.ms","slug":"Carthage.MS/triple+m+motors","location":"32.7289667,-89.5336748","brandsList":["chevrolet","gmc"]},{"id":2460,"crm_id":67051111,"name":"Cannon Chevrolet Cadillac","dealerSlug":"cannon+chevrolet+cadillac","city_state_slug":"Greenwood.MS","brand":"Cadillac","website":"www.cannonchevrolet.com","address":"69900 Highway 82 West","city":"Greenwood","state":"MS","zip":38930,"latitude":33.5297948,"longitude":-90.2481291,"phone_number_service":"8667550195","phone_number_main":"6625954237","service_hours":"Mo-Fr 07:30 - 17:30","utc_offset":"-300","gplace_id":null,"gplace_url":"https://maps.google.com/?cid=10520936046014341456","dealerID":67954,"trusted":false,"image_id":"v1597283980/cadillac.png","phone":"8667550195","cityStateSlug":"greenwood.ms","slug":"Greenwood.MS/cannon+chevrolet+cadillac","location":"33.5297948,-90.2481291","brandsList":["cadillac"]},{"id":76,"crm_id":67051477,"name":"Acura Of Jackson","dealerSlug":"acura+of+jackson","city_state_slug":"Ridgeland.MS","brand":"Acura","website":"www.acuraofjackson.com","address":"828 Adcock St","city":"Ridgeland","state":"MS","zip":39157,"latitude":32.4027983,"longitude":-90.1434653,"phone_number_service":"8443626839","phone_number_main":"","service_hours":"Mo-Fr 07:00 - 19:00 | Sa 08:00 - 17:00","utc_offset":"-300","gplace_id":null,"gplace_url":"https://maps.google.com/?cid=15715205268355236491","dealerID":68055,"trusted":false,"image_id":"v1597283988/acura.png","phone":"8443626839","cityStateSlug":"ridgeland.ms","slug":"Ridgeland.MS/acura+of+jackson","location":"32.4027983,-90.1434653","brandsList":["acura"]},{"id":10208,"crm_id":67051588,"name":"Mitchell Automotive","dealerSlug":"mitchell+automotive","city_state_slug":"West-Point.MS","brand":"Buick,Chevrolet,GMC","website":"www.parkermcgillgm.com","address":"1522 US-45 ALT","city":"West Point","state":"MS","zip":39773,"latitude":33.6316124,"longitude":-88.6582966,"phone_number_service":"6624944344","phone_number_main":"6624944344","service_hours":"Mo-Fr 07:30 - 17:30","utc_offset":"-300","gplace_id":null,"gplace_url":"https://maps.google.com/?cid=14402870313035242953","dealerID":68082,"trusted":false,"image_id":"v1597283981/buick_RM.png","phone":"6624944344","cityStateSlug":"west-point.ms","slug":"West-Point.MS/mitchell+automotive","location":"33.6316124,-88.6582966","brandsList":["buick","chevrolet","gmc"]},{"id":10601,"crm_id":67052953,"name":"Nelson Hall Chevrolet","dealerSlug":"nelson+hall+chevrolet","city_state_slug":"Meridian.MS","brand":"Chevrolet","website":"www.nelsonhallchevrolet.com","address":"1811 S Frontage Rd","city":"Meridian","state":"MS","zip":39301,"latitude":32.3553994,"longitude":-88.6867386,"phone_number_service":"6016214327","phone_number_main":"6016214593","service_hours":"Mo-Fr 07:30 - 17:30","utc_offset":"-300","gplace_id":null,"gplace_url":"https://maps.google.com/?cid=5557252212979210649","dealerID":68455,"trusted":false,"image_id":"v1597284079/chevy_ms.png","phone":"6016214327","cityStateSlug":"meridian.ms","slug":"Meridian.MS/nelson+hall+chevrolet","location":"32.3553994,-88.6867386","brandsList":["chevrolet"]},{"id":10375,"crm_id":67053133,"name":"Mossy of Picayune","dealerSlug":"mossy+of+picayune","city_state_slug":"Picayune.MS","brand":"Buick,Chevrolet,GMC","website":"www.mossysuperstore.com","address":"241 Frontage Rd","city":"Picayune","state":"MS","zip":39466,"latitude":30.512096,"longitude":-89.6642075,"phone_number_service":"6012734183","phone_number_main":"6012733595","service_hours":"Mo-Fr 07:30 - 18:00 | Sa 08:00 - 13:00","utc_offset":"-300","gplace_id":null,"gplace_url":"https://maps.google.com/?cid=2041078596511473305","dealerID":68509,"trusted":false,"image_id":"v1597283981/buick_RM.png","phone":"6012734183","cityStateSlug":"picayune.ms","slug":"Picayune.MS/mossy+of+picayune","location":"30.512096,-89.6642075","brandsList":["buick","chevrolet","gmc"]},{"id":5860,"crm_id":67054393,"name":"Grenada Nissan","dealerSlug":"grenada+nissan","city_state_slug":"Grenada.MS","brand":"Nissan","website":"www.grenadanissanusa.com","address":"2105 Sunset Dr","city":"Grenada","state":"MS","zip":38901,"latitude":33.78564,"longitude":-89.8527684,"phone_number_service":"6622690139","phone_number_main":"6622262116","service_hours":"Mo-Fr 08:00 - 17:00 | Sa 08:00 - 12:00","utc_offset":"-300","gplace_id":null,"gplace_url":"https://maps.google.com/?cid=12274617856604393042","dealerID":68855,"trusted":false,"image_id":"v1597283926/nissan_RM.png","phone":"6622690139","cityStateSlug":"grenada.ms","slug":"Grenada.MS/grenada+nissan","location":"33.78564,-89.8527684","brandsList":["nissan"]},{"id":11098,"crm_id":67054870,"name":"Oxford Toyota","dealerSlug":"oxford+toyota","city_state_slug":"Oxford.MS","brand":"Toyota","website":"www.oxfordtoyota.com","address":"447 Highway 6 West","city":"Oxford","state":"MS","zip":38655,"latitude":34.3597915,"longitude":-89.5828592,"phone_number_service":"8778050323","phone_number_main":"6622344661","service_hours":"Mo-Fr 07:30 - 17:30 | Sa 07:00 - 12:00","utc_offset":"-300","gplace_id":null,"gplace_url":"https://maps.google.com/?cid=14581464647482764041","dealerID":68989,"trusted":false,"image_id":"v1597284039/toyota_ms.png","phone":"8778050323","cityStateSlug":"oxford.ms","slug":"Oxford.MS/oxford+toyota","location":"34.3597915,-89.5828592","brandsList":["toyota"]},{"id":11311,"crm_id":67055158,"name":"Paul Moak Subaru","dealerSlug":"paul+moak+subaru","city_state_slug":"Jackson.MS","brand":"Subaru","website":"www.paulmoaksubaru.com","address":"740 Larson St","city":"Jackson","state":"MS","zip":39202,"latitude":32.3052471,"longitude":-90.1667267,"phone_number_service":"8883158036","phone_number_main":"6013608300","service_hours":"Mo-Fr 07:30 - 17:30","utc_offset":"-300","gplace_id":null,"gplace_url":"https://maps.google.com/?cid=15072615755977845247","dealerID":69068,"trusted":false,"image_id":"v1597283982/subaru_ms.png","phone":"8883158036","cityStateSlug":"jackson.ms","slug":"Jackson.MS/paul+moak+subaru","location":"32.3052471,-90.1667267","brandsList":["subaru"]},{"id":14874,"crm_id":67055605,"name":"Vardaman Honda","dealerSlug":"vardaman+honda","city_state_slug":"Hattiesburg.MS","brand":"Honda","website":"www.vardamanhonda.com","address":"802 Broadway Dr","city":"Hattiesburg","state":"MS","zip":39401,"latitude":31.311618,"longitude":-89.3106939,"phone_number_service":"6015828261","phone_number_main":"6015828261","service_hours":"Mo-Fr  08:00 - 17:00","utc_offset":"-300","gplace_id":null,"gplace_url":"https://maps.google.com/?cid=17094358763499305693","dealerID":69192,"trusted":false,"image_id":"v1597284047/honda_ms.png","phone":"6015828261","cityStateSlug":"hattiesburg.ms","slug":"Hattiesburg.MS/vardaman+honda","location":"31.311618,-89.3106939","brandsList":["honda"]},{"id":2416,"crm_id":67055620,"name":"Cadillac Of Jackson","dealerSlug":"cadillac+of+jackson","city_state_slug":"Ridgeland.MS","brand":"Cadillac","website":"www.cadillacofjacksonms.com","address":"700 Adcock St","city":"Ridgeland","state":"MS","zip":39157,"latitude":32.4054971,"longitude":-90.1435972,"phone_number_service":"8663046451","phone_number_main":"6012080433","service_hours":"Mo-Fr 07:30 - 18:00 | Sa 08:00 - 15:00","utc_offset":"-300","gplace_id":null,"gplace_url":"https://maps.google.com/?cid=1424516104384257878","dealerID":69196,"trusted":false,"image_id":"v1597283980/cadillac.png","phone":"8663046451","cityStateSlug":"ridgeland.ms","slug":"Ridgeland.MS/cadillac+of+jackson","location":"32.4054971,-90.1435972","brandsList":["cadillac"]},{"id":9114,"crm_id":67055821,"name":"Mac Haik Ford","dealerSlug":"mac+haik+ford","city_state_slug":"Jackson.MS","brand":"Ford","website":"www.machaikfordjackson.com","address":"6130 I-55","city":"Jackson","state":"MS","zip":39211,"latitude":32.3949738,"longitude":-90.1444092,"phone_number_service":"6013746553","phone_number_main":"6019567000","service_hours":"Mo-Fr 07:00 - 18:00 | Sa 08:00 - 16:00","utc_offset":"-300","gplace_id":null,"gplace_url":"https://maps.google.com/?cid=11037938493214177603","dealerID":69253,"trusted":false,"image_id":"v1597283967/ford_RM.png","phone":"6013746553","cityStateSlug":"jackson.ms","slug":"Jackson.MS/mac+haik+ford","location":"32.3949738,-90.1444092","brandsList":["ford"]},{"id":8418,"crm_id":67056136,"name":"Larry Clark Chevrolet Buick Cadillac GMC","dealerSlug":"larry+clark+chevrolet+buick+cadillac+gmc","city_state_slug":"Amory.MS","brand":"Buick,Cadillac,Chevrolet,GMC","website":"www.mr-truck.com","address":"533 Highway 278 West","city":"Amory","state":"MS","zip":38821,"latitude":33.9767795,"longitude":-88.4945915,"phone_number_service":"6626404230","phone_number_main":"6622569606","service_hours":"Mo-Fr 08:00- 17:00","utc_offset":"-300","gplace_id":null,"gplace_url":"https://maps.google.com/?cid=8294126813870667884","dealerID":69333,"trusted":false,"image_id":"v1597283981/buick_RM.png","phone":"6626404230","cityStateSlug":"amory.ms","slug":"Amory.MS/larry+clark+chevrolet+buick+cadillac+gmc","location":"33.9767795,-88.4945915","brandsList":["buick","cadillac","chevrolet","gmc"]},{"id":6549,"crm_id":67056535,"name":"Homer Skelton Ford","dealerSlug":"homer+skelton+ford","city_state_slug":"Olive-Branch.MS","brand":"Ford","website":"www.homerskeltonford.com","address":"6950 Hanna Cove","city":"Olive Branch","state":"MS","zip":38654,"latitude":34.9598744,"longitude":-89.8489708,"phone_number_service":"6628908822","phone_number_main":"6626380362","service_hours":"Mo-Fr 07:00 - 18:00 | Sa 07:00 - 17:00","utc_offset":"-300","gplace_id":null,"gplace_url":"https://maps.google.com/?cid=17187430780319300972","dealerID":69435,"trusted":false,"image_id":"v1597283967/ford_RM.png","phone":"6628908822","cityStateSlug":"olive-branch.ms","slug":"Olive-Branch.MS/homer+skelton+ford","location":"34.9598744,-89.8489708","brandsList":["ford"]},{"id":274,"crm_id":67057336,"name":"Allen Toyota","dealerSlug":"allen+toyota","city_state_slug":"Gulfport.MS","brand":"Toyota","website":"www.allentoyota.com","address":"11397 Helen Richards Dr","city":"Gulfport","state":"MS","zip":39503,"latitude":30.446302,"longitude":-89.028515,"phone_number_service":"2282564032","phone_number_main":"2282564040","service_hours":"Mo-Fr 07:00 - 18:00 | Sa 07:30 - 17:30","utc_offset":"-300","gplace_id":null,"gplace_url":"https://maps.google.com/?cid=2907028374413315976","dealerID":69654,"trusted":false,"image_id":"v1597284039/toyota_ms.png","phone":"2282564032","cityStateSlug":"gulfport.ms","slug":"Gulfport.MS/allen+toyota","location":"30.446302,-89.028515","brandsList":["toyota"]},{"id":2464,"crm_id":67059700,"name":"Cannon Motors","dealerSlug":"cannon+motors","city_state_slug":"Oxford.MS","brand":"Buick,Cadillac,Chevrolet","website":"www.cannonchevroletcadillac.com","address":"100 Thacker Loop","city":"Oxford","state":"MS","zip":38655,"latitude":34.3617351,"longitude":-89.5785004,"phone_number_service":"8777752110","phone_number_main":"6622696993","service_hours":"Mo-Fr 07:30 - 18:00| Sa 07:30 - 17:00","utc_offset":"-300","gplace_id":null,"gplace_url":"https://maps.google.com/?cid=13543124091306824537","dealerID":70314,"trusted":false,"image_id":"v1597283981/buick_RM.png","phone":"8777752110","cityStateSlug":"oxford.ms","slug":"Oxford.MS/cannon+motors","location":"34.3617351,-89.5785004","brandsList":["buick","cadillac","chevrolet"]},{"id":11706,"crm_id":67060714,"name":"Porsche of Jackson","dealerSlug":"porsche+of+jackson","city_state_slug":"Jackson.MS","brand":"Porsche","website":"www.porscheofjackson.com","address":"5385 Interstate 55 North Frontage Rd","city":"Jackson","state":"MS","zip":39206,"latitude":32.3731912,"longitude":-90.1496444,"phone_number_service":"8338245549","phone_number_main":"6013267677","service_hours":"Mo-Fr 07:30 - 18:00","utc_offset":"-300","gplace_id":null,"gplace_url":"https://maps.google.com/?cid=4679782043463250863","dealerID":70593,"trusted":false,"image_id":"v1597283919/porsche.jpg","phone":"8338245549","cityStateSlug":"jackson.ms","slug":"Jackson.MS/porsche+of+jackson","location":"32.3731912,-90.1496444","brandsList":["porsche"]},{"id":459,"crm_id":67061020,"name":"Astro Ford","dealerSlug":"astro+ford","city_state_slug":"D'Iberville.MS","brand":"Ford","website":"www.astroford.net","address":"10350 Auto Mall Pkwy","city":"D'Iberville","state":"MS","zip":39540,"latitude":30.4328804,"longitude":-88.8987045,"phone_number_service":"8449041805","phone_number_main":"8883941591","service_hours":"Mo-Fr 07:30 - 17:30","utc_offset":"-300","gplace_id":null,"gplace_url":"https://maps.google.com/?cid=8568242102699391597","dealerID":70680,"trusted":false,"image_id":"v1597283967/ford_RM.png","phone":"8449041805","cityStateSlug":"d'iberville.ms","slug":"D'Iberville.MS/astro+ford","location":"30.4328804,-88.8987045","brandsList":["ford"]},{"id":6204,"crm_id":67062781,"name":"Heafner Motors","dealerSlug":"heafner+motors","city_state_slug":"Batesville.MS","brand":"Buick,Chevrolet,GMC","website":"www.heafnerchevy.com","address":"935 Highway 6 West","city":"Batesville","state":"MS","zip":38606,"latitude":34.3058043,"longitude":-89.9785357,"phone_number_service":"6622537276","phone_number_main":"6622537142","service_hours":"Mo-Fr 07:30 - 17:30 | Sa 07:30 - 12:00","utc_offset":"-300","gplace_id":null,"gplace_url":"https://maps.google.com/?cid=11073276856198765141","dealerID":71145,"trusted":false,"image_id":"v1597283981/buick_RM.png","phone":"6622537276","cityStateSlug":"batesville.ms","slug":"Batesville.MS/heafner+motors","location":"34.3058043,-89.9785357","brandsList":["buick","chevrolet","gmc"]},{"id":11913,"crm_id":67062784,"name":"Principle Toyota of Hernando","dealerSlug":"principle+toyota+of+hernando","city_state_slug":"Hernando.MS","brand":"Toyota","website":"www.principletoyotaofhernando.com","address":"2887 McIngvale Rd","city":"Hernando","state":"MS","zip":38632,"latitude":34.8197408,"longitude":-89.9724817,"phone_number_service":"6626277200","phone_number_main":"8884067043","service_hours":"Mo-Fr 09:00 - 18:00 | Sa 09:00 - 16:00","utc_offset":"-300","gplace_id":null,"gplace_url":"https://maps.google.com/?cid=8645952894903830365","dealerID":71146,"trusted":false,"image_id":"v1597284039/toyota_ms.png","phone":"6626277200","cityStateSlug":"hernando.ms","slug":"Hernando.MS/principle+toyota+of+hernando","location":"34.8197408,-89.9724817","brandsList":["toyota"]},{"id":236,"crm_id":67062787,"name":"All Star Chevrolet of Olive Branch","dealerSlug":"all+star+chevrolet+of+olive+branch","city_state_slug":"Olive-Branch.MS","brand":"Chevrolet","website":"www.allstarautogroup.com","address":"7240 Craft-Goodman Rd","city":"Olive Branch","state":"MS","zip":38654,"latitude":34.9755853,"longitude":-89.8617911,"phone_number_service":"8668843931","phone_number_main":"6624412630","service_hours":"Mo-Fr 07:00 - 17:30 | Sa 08:00 - 13:00","utc_offset":"-300","gplace_id":null,"gplace_url":"https://maps.google.com/?cid=15467375778412470217","dealerID":71147,"trusted":false,"image_id":"v1597284079/chevy_ms.png","phone":"8668843931","cityStateSlug":"olive-branch.ms","slug":"Olive-Branch.MS/all+star+chevrolet+of+olive+branch","location":"34.9755853,-89.8617911","brandsList":["chevrolet"]},{"id":272,"crm_id":67062790,"name":"Allen Samuels Jeep RAM of Oxford","dealerSlug":"allen+samuels+jeep+ram+of+oxford","city_state_slug":"Oxford.MS","brand":"Ford","website":"www.allensamuelsoxford.com","address":"2201 University Ave","city":"Oxford","state":"MS","zip":38655,"latitude":34.3618627,"longitude":-89.5000172,"phone_number_service":"6625504210","phone_number_main":"6622348000","service_hours":"Mo-Fr 07:30 - 18:00 | Sa 07:30 - 14:00","utc_offset":"-300","gplace_id":null,"gplace_url":"https://maps.google.com/?cid=12075701561749653453","dealerID":71148,"trusted":false,"image_id":"v1597283967/ford_RM.png","phone":"6625504210","cityStateSlug":"oxford.ms","slug":"Oxford.MS/allen+samuels+jeep+ram+of+oxford","location":"34.3618627,-89.5000172","brandsList":["ford"]},{"id":2465,"crm_id":67062793,"name":"Cannon Nissan Of Oxford","dealerSlug":"cannon+nissan+of+oxford","city_state_slug":"Oxford.MS","brand":"Nissan","website":"www.cannonnissanofoxford.com","address":"479 HIGHWAY 6 WEST","city":"Oxford","state":"MS","zip":38655,"latitude":34.359062,"longitude":-89.5899093,"phone_number_service":"8777728338","phone_number_main":"6622696993","service_hours":"Mo-Fr 07:30 - 17:30| Sa 08:00 - 13:00","utc_offset":"-300","gplace_id":null,"gplace_url":"https://maps.google.com/?cid=13543124091306824537","dealerID":71149,"trusted":false,"image_id":"v1597283926/nissan_RM.png","phone":"8777728338","cityStateSlug":"oxford.ms","slug":"Oxford.MS/cannon+nissan+of+oxford","location":"34.359062,-89.5899093","brandsList":["nissan"]},{"id":4685,"crm_id":67062796,"name":"Farrow - Ward Ford","dealerSlug":"farrow+ward+ford","city_state_slug":"Ripley.MS","brand":"Ford","website":"www.farrow-wardford.com","address":"1524 City Ave N","city":"Ripley","state":"MS","zip":38663,"latitude":34.7488483,"longitude":-88.9441174,"phone_number_service":"8338906997","phone_number_main":"6628373001","service_hours":"Mo-Fr 07:30 - 17:00","utc_offset":"-300","gplace_id":null,"gplace_url":"https://maps.google.com/?cid=16865974352704729639","dealerID":71150,"trusted":false,"image_id":"v1597283967/ford_RM.png","phone":"8338906997","cityStateSlug":"ripley.ms","slug":"Ripley.MS/farrow+ward+ford","location":"34.7488483,-88.9441174","brandsList":["ford"]},{"id":2358,"crm_id":67062799,"name":"Butch Davis Chevrolet","dealerSlug":"butch+davis+chevrolet","city_state_slug":"Ripley.MS","brand":"Chevrolet","website":"www.butchdavischevrolet.com","address":"2015 City Ave N","city":"Ripley","state":"MS","zip":38663,"latitude":34.7595527,"longitude":-88.9400339,"phone_number_service":"6623042044","phone_number_main":"6628378171","service_hours":"Mo-Fr 07:30 - 17:00","utc_offset":"-300","gplace_id":null,"gplace_url":"https://maps.google.com/?cid=2258288868572689151","dealerID":71151,"trusted":false,"image_id":"v1597284079/chevy_ms.png","phone":"6623042044","cityStateSlug":"ripley.ms","slug":"Ripley.MS/butch+davis+chevrolet","location":"34.7595527,-88.9400339","brandsList":["chevrolet"]},{"id":12604,"crm_id":67062802,"name":"Ross Motor Company","dealerSlug":"ross+motor+company","city_state_slug":"Senatobia.MS","brand":"Chrysler,Dodge,Jeep,RAM","website":"www.rossmotor.net","address":"113 East Quality Lane","city":"Senatobia","state":"MS","zip":38668,"latitude":34.6271515,"longitude":-89.9631404,"phone_number_service":"6622537099","phone_number_main":"6626124131","service_hours":"Mo-Fr 07:30 - 17:30 | Sa 08:00-14:45","utc_offset":"-300","gplace_id":null,"gplace_url":"https://maps.google.com/?cid=2796906785870643052","dealerID":71152,"trusted":false,"image_id":"v1597283975/chrysler_RM.png","phone":"6622537099","cityStateSlug":"senatobia.ms","slug":"Senatobia.MS/ross+motor+company","location":"34.6271515,-89.9631404","brandsList":["chrysler","dodge","jeep","ram"]},{"id":7462,"crm_id":67062805,"name":"Jimmy Gray Chevrolet","dealerSlug":"jimmy+gray+chevrolet","city_state_slug":"Southaven.MS","brand":"Chevrolet","website":"www.jimmygraychevy.com","address":"181 East Goodman Road","city":"Southaven","state":"MS","zip":38671,"latitude":34.9616008,"longitude":-89.9866715,"phone_number_service":"6629964863","phone_number_main":"6623498808","service_hours":"Mo-Fri 07:00 - 18:00 | Sa 08:00 - 13:00","utc_offset":"-300","gplace_id":null,"gplace_url":"https://maps.google.com/?cid=1864813403250326920","dealerID":71153,"trusted":false,"image_id":"v1597284079/chevy_ms.png","phone":"6629964863","cityStateSlug":"southaven.ms","slug":"Southaven.MS/jimmy+gray+chevrolet","location":"34.9616008,-89.9866715","brandsList":["chevrolet"]},{"id":8381,"crm_id":67062808,"name":"Landers Nissan","dealerSlug":"landers+nissan","city_state_slug":"Southaven.MS","brand":"Nissan","website":"www.landersnissan.com","address":"371 Goodman Rd E","city":"Southaven","state":"MS","zip":38671,"latitude":34.9619444,"longitude":-89.9833333,"phone_number_service":"6623495557","phone_number_main":"6623495557","service_hours":"Mo-Fr 07:00 - 18:00 | Sa 07:00 - 17:00","utc_offset":"-300","gplace_id":null,"gplace_url":"https://maps.google.com/?cid=4920859449056341986","dealerID":71154,"trusted":false,"image_id":"v1597283926/nissan_RM.png","phone":"6623495557","cityStateSlug":"southaven.ms","slug":"Southaven.MS/landers+nissan","location":"34.9619444,-89.9833333","brandsList":["nissan"]},{"id":8369,"crm_id":67062811,"name":"Landers Buick GMC","dealerSlug":"landers+buick+gmc","city_state_slug":"Southaven.MS","brand":"Buick,GMC","website":"landersbuickgmc.com","address":"78 Goodman Rd E","city":"Southaven","state":"MS","zip":38671,"latitude":34.9633914,"longitude":-89.9884554,"phone_number_service":"8666062931","phone_number_main":"6623495600","service_hours":"Mo-Fr 07:00 - 18:00 | Sa 07:00 - 17:00","utc_offset":"-300","gplace_id":null,"gplace_url":"https://maps.google.com/?cid=18279324530654470763","dealerID":71155,"trusted":false,"image_id":"v1597283981/buick_RM.png","phone":"8666062931","cityStateSlug":"southaven.ms","slug":"Southaven.MS/landers+buick+gmc","location":"34.9633914,-89.9884554","brandsList":["buick","gmc"]},{"id":10946,"crm_id":67062814,"name":"Oakes Toyota","dealerSlug":"oakes+toyota","city_state_slug":"Greenville.MS","brand":"Toyota","website":"oakestoyota.com","address":"1753 Highway 1 South","city":"Greenville","state":"MS","zip":38701,"latitude":33.3703868,"longitude":-91.0409874,"phone_number_service":"6623788101","phone_number_main":"6623788101","service_hours":"Mo-Fr 07:30 - 17:30 | Sa 08:00 - 12:00","utc_offset":"-300","gplace_id":null,"gplace_url":"https://maps.google.com/?cid=9157892290935423002","dealerID":71156,"trusted":false,"image_id":"v1597284039/toyota_ms.png","phone":"6623788101","cityStateSlug":"greenville.ms","slug":"Greenville.MS/oakes+toyota","location":"33.3703868,-91.0409874","brandsList":["toyota"]},{"id":7189,"crm_id":67062817,"name":"James Ceranti Motors","dealerSlug":"james+ceranti+motors","city_state_slug":"Greenville.MS","brand":"Chrysler,Dodge,Jeep,RAM","website":"www.jamescerantimotors.net","address":"3064 Highway 82 E","city":"Greenville","state":"MS","zip":38703,"latitude":33.4007752,"longitude":-91.010793,"phone_number_service":"6623361376","phone_number_main":"6623327231","service_hours":"Mo-Fr 07:30 - 17:30 | Sa 08:00 - 12:00","utc_offset":"-300","gplace_id":null,"gplace_url":"https://maps.google.com/?cid=6709136368993009738","dealerID":71157,"trusted":false,"image_id":"v1597283975/chrysler_RM.png","phone":"6623361376","cityStateSlug":"greenville.ms","slug":"Greenville.MS/james+ceranti+motors","location":"33.4007752,-91.010793","brandsList":["chrysler","dodge","jeep","ram"]},{"id":7190,"crm_id":67062820,"name":"James Ceranti Nissan","dealerSlug":"james+ceranti+nissan","city_state_slug":"Greenville.MS","brand":"Nissan","website":"www.jamescerantinissan.net","address":"3130 Hwy 82 E.","city":"Greenville","state":"MS","zip":38703,"latitude":33.400824,"longitude":-91.008354,"phone_number_service":"8662076203","phone_number_main":"6623353505","service_hours":"Mo-Fr 07:30 - 17:30 | Sa 08:00 - 12:00","utc_offset":"-300","gplace_id":null,"gplace_url":"https://maps.google.com/?cid=1428733393421393249","dealerID":71158,"trusted":false,"image_id":"v1597283926/nissan_RM.png","phone":"8662076203","cityStateSlug":"greenville.ms","slug":"Greenville.MS/james+ceranti+nissan","location":"33.400824,-91.008354","brandsList":["nissan"]},{"id":2461,"crm_id":67062826,"name":"Cannon Ford of Cleveland","dealerSlug":"cannon+ford+of+cleveland","city_state_slug":"Cleveland.MS","brand":"Ford","website":"www.cannonford.net","address":"904 N Davis Ave","city":"Cleveland","state":"MS","zip":38732,"latitude":33.7632452,"longitude":-90.7144587,"phone_number_service":"8772380263","phone_number_main":"6628432785","service_hours":"Mo-Fr 07:30 - 17:00","utc_offset":"-300","gplace_id":null,"gplace_url":"https://maps.google.com/?cid=8609741817362228136","dealerID":71159,"trusted":false,"image_id":"v1597283967/ford_RM.png","phone":"8772380263","cityStateSlug":"cleveland.ms","slug":"Cleveland.MS/cannon+ford+of+cleveland","location":"33.7632452,-90.7144587","brandsList":["ford"]},{"id":4187,"crm_id":67062829,"name":"Dossett Big 4 Buick GMC Cadillac","dealerSlug":"dossett+big+4+buick+gmc+cadillac","city_state_slug":"Tupelo.MS","brand":"Buick,Cadillac,Chevrolet,GMC","website":"www.dossettbig4.com","address":"628 S Gloster St","city":"Tupelo","state":"MS","zip":38801,"latitude":34.2468594,"longitude":-88.7163353,"phone_number_service":"6622694653","phone_number_main":"6622694778","service_hours":"Mo-Fr 07:30 - 17:00","utc_offset":"-300","gplace_id":null,"gplace_url":"https://maps.google.com/?cid=10030891420810088858","dealerID":71160,"trusted":false,"image_id":"v1597283981/buick_RM.png","phone":"6622694653","cityStateSlug":"tupelo.ms","slug":"Tupelo.MS/dossett+big+4+buick+gmc+cadillac","location":"34.2468594,-88.7163353","brandsList":["buick","cadillac","chevrolet","gmc"]},{"id":6700,"crm_id":67062832,"name":"House of Honda","dealerSlug":"house+of+honda","city_state_slug":"Tupelo.MS","brand":"Honda","website":"www.houseofhondatupelo.com","address":"712 S Gloster St","city":"Tupelo","state":"MS","zip":38801,"latitude":34.2456757,"longitude":-88.7166516,"phone_number_service":"8888929403","phone_number_main":"8888929403","service_hours":"Mo-Fr 07:30 - 17:00","utc_offset":"-300","gplace_id":null,"gplace_url":"https://maps.google.com/?cid=7957310649780992652","dealerID":71161,"trusted":false,"image_id":"v1597284047/honda_ms.png","phone":"8888929403","cityStateSlug":"tupelo.ms","slug":"Tupelo.MS/house+of+honda","location":"34.2456757,-88.7166516","brandsList":["honda"]},{"id":2576,"crm_id":67062835,"name":"Carlock Chrysler Dodge Jeep RAM of Tupelo","dealerSlug":"carlock+chrysler+dodge+jeep+ram+of+tupelo","city_state_slug":"Saltillo.MS","brand":"Chrysler,Dodge,Jeep,RAM","website":"www.carlockdodgetupelo.com","address":"966 Cross Creek Dr","city":"Saltillo","state":"MS","zip":38866,"latitude":34.3197222,"longitude":-88.6986111,"phone_number_service":"8442808149","phone_number_main":"6628422277","service_hours":"Mo-Fr 08:30 - 18:00 | Sa 08:30 - 17:00","utc_offset":"-300","gplace_id":null,"gplace_url":"https://maps.google.com/?cid=3116397802257375285","dealerID":71162,"trusted":false,"image_id":"v1597283975/chrysler_RM.png","phone":"8442808149","cityStateSlug":"saltillo.ms","slug":"Saltillo.MS/carlock+chrysler+dodge+jeep+ram+of+tupelo","location":"34.3197222,-88.6986111","brandsList":["chrysler","dodge","jeep","ram"]},{"id":9896,"crm_id":67062838,"name":"Metro Ford Auto Sales","dealerSlug":"metro+ford+auto+sales","city_state_slug":"Tupelo.MS","brand":"Ford","website":"www.metrofordautosales.com","address":"1000 Barnes Crossing Rd","city":"Tupelo","state":"MS","zip":38804,"latitude":34.3177021,"longitude":-88.7019372,"phone_number_service":"8669791432","phone_number_main":"6628411000","service_hours":"Mo-Fr 07:00 - 17:30 | Sa 07:00 - 16:00","utc_offset":"-300","gplace_id":null,"gplace_url":"https://maps.google.com/?cid=12624648942724270204","dealerID":71163,"trusted":false,"image_id":"v1597283967/ford_RM.png","phone":"8669791432","cityStateSlug":"tupelo.ms","slug":"Tupelo.MS/metro+ford+auto+sales","location":"34.3177021,-88.7019372","brandsList":["ford"]},{"id":2579,"crm_id":67062841,"name":"Carlock Nissan of Tupelo","dealerSlug":"carlock+nissan+of+tupelo","city_state_slug":"Tupelo.MS","brand":"Nissan","website":"www.carlocknissanoftupelo.com","address":"3969 N Gloster St","city":"Tupelo","state":"MS","zip":38804,"latitude":34.3116542,"longitude":-88.7076233,"phone_number_service":"6628443113","phone_number_main":"6628443113","service_hours":"Mo-Fr 07:30 - 18:00 | Sa 08:00 - 18:00","utc_offset":"-300","gplace_id":null,"gplace_url":"https://maps.google.com/?cid=5444968202713811653","dealerID":71164,"trusted":false,"image_id":"v1597283926/nissan_RM.png","phone":"6628443113","cityStateSlug":"tupelo.ms","slug":"Tupelo.MS/carlock+nissan+of+tupelo","location":"34.3116542,-88.7076233","brandsList":["nissan"]},{"id":8958,"crm_id":67062850,"name":"Long-Lewis Ford of Corinth","dealerSlug":"long+lewis+ford+of+corinth","city_state_slug":"Corinth.MS","brand":"Ford","website":"www.longlewiscorinth.com","address":"1500 S Harper Rd","city":"Corinth","state":"MS","zip":38834,"latitude":34.9183487,"longitude":-88.4990116,"phone_number_service":"8888596822","phone_number_main":"6622873184","service_hours":"Mo-Sa 08:30 - 18:00","utc_offset":"-300","gplace_id":null,"gplace_url":"https://maps.google.com/?cid=13357268918516251479","dealerID":71165,"trusted":false,"image_id":"v1597283967/ford_RM.png","phone":"8888596822","cityStateSlug":"corinth.ms","slug":"Corinth.MS/long+lewis+ford+of+corinth","location":"34.9183487,-88.4990116","brandsList":["ford"]},{"id":13901,"crm_id":67062856,"name":"Sunset Chrysler Dodge & Jeep","dealerSlug":"sunset+chrysler+dodge+and+jeep","city_state_slug":"Grenada.MS","brand":"Chrysler,Dodge,Jeep,RAM","website":"www.sunsetchryslerdodgejeep.com","address":"1202 Sunset Drive","city":"Grenada","state":"MS","zip":38901,"latitude":33.7680341,"longitude":-89.8118377,"phone_number_service":"6622942608","phone_number_main":"6622265124","service_hours":"Mo-Fr 07:30 - 17:30 | Sa 08:00-12:00","utc_offset":"-300","gplace_id":null,"gplace_url":"https://maps.google.com/?cid=10239240359898195004","dealerID":71166,"trusted":false,"image_id":"v1597283975/chrysler_RM.png","phone":"6622942608","cityStateSlug":"grenada.ms","slug":"Grenada.MS/sunset+chrysler+dodge+and+jeep","location":"33.7680341,-89.8118377","brandsList":["chrysler","dodge","jeep","ram"]},{"id":8012,"crm_id":67062859,"name":"Kirk Toyota","dealerSlug":"kirk+toyota","city_state_slug":"Grenada.MS","brand":"Toyota","website":"kirktoyota.com","address":"237 Southwest Frontage Rd","city":"Grenada","state":"MS","zip":38901,"latitude":33.7848877,"longitude":-89.8447398,"phone_number_service":"6622261181","phone_number_main":"6622261181","service_hours":"Mo-Fr 08:00 - 17:30","utc_offset":"-300","gplace_id":null,"gplace_url":"https://maps.google.com/?cid=15143756315699580266","dealerID":71167,"trusted":false,"image_id":"v1597284039/toyota_ms.png","phone":"6622261181","cityStateSlug":"grenada.ms","slug":"Grenada.MS/kirk+toyota","location":"33.7848877,-89.8447398","brandsList":["toyota"]},{"id":8010,"crm_id":67062862,"name":"Kirk Brothers Ford-Lincoln","dealerSlug":"kirk+brothers+ford+lincoln","city_state_slug":"Greenwood.MS","brand":"Ford,Lincoln","website":"www.kirkbrothersford.com","address":"1512 Hwy 82 West","city":"Greenwood","state":"MS","zip":38930,"latitude":33.4760576,"longitude":-89.7892077,"phone_number_service":"8773166853","phone_number_main":"6624536131","service_hours":"Mo-Fr 07:30-17:30 | Sa 08:00-12:30","utc_offset":"-300","gplace_id":null,"gplace_url":"https://maps.google.com/?cid=1012608806027798519","dealerID":71168,"trusted":false,"image_id":"v1597283967/ford_RM.png","phone":"8773166853","cityStateSlug":"greenwood.ms","slug":"Greenwood.MS/kirk+brothers+ford+lincoln","location":"33.4760576,-89.7892077","brandsList":["ford","lincoln"]},{"id":5763,"crm_id":67062865,"name":"Gray-Daniels Nissan Brandon","dealerSlug":"gray+daniels+nissan+brandon","city_state_slug":"Brandon.MS","brand":"Nissan","website":"www.graydanielsnissanbrandon.com","address":"108 Gray Daniels Blvd","city":"Brandon","state":"MS","zip":39042,"latitude":32.280319,"longitude":-90.032027,"phone_number_service":"8883773590","phone_number_main":"6018638463","service_hours":"Mo-Fr 07:00 - 18:00 | Sa 08:00 - 13:00","utc_offset":"-300","gplace_id":null,"gplace_url":"https://maps.google.com/?cid=13360563486937624438","dealerID":51220,"trusted":true,"image_id":"v1597283926/nissan_RM.png","phone":"8883773590","cityStateSlug":"brandon.ms","slug":"Brandon.MS/gray+daniels+nissan+brandon","location":"32.280319,-90.032027","brandsList":["nissan"]},{"id":1825,"crm_id":67062871,"name":"Bob Boyte Honda","dealerSlug":"bob+boyte+honda","city_state_slug":"Brandon.MS","brand":"Honda","website":"www.bobboytehonda.com","address":"2188 MS-18","city":"Brandon","state":"MS","zip":39042,"latitude":32.2709716,"longitude":-90.0372359,"phone_number_service":"6015915000","phone_number_main":"6015915000","service_hours":"Mo-Fr 07:30 - 18:00 | Sa 07:30 - 16:00","utc_offset":"-300","gplace_id":null,"gplace_url":"https://maps.google.com/?cid=6166168245648102554","dealerID":71170,"trusted":false,"image_id":"v1597284047/honda_ms.png","phone":"6015915000","cityStateSlug":"brandon.ms","slug":"Brandon.MS/bob+boyte+honda","location":"32.2709716,-90.0372359","brandsList":["honda"]},{"id":6053,"crm_id":67062874,"name":"Hammett Motor Company","dealerSlug":"hammett+motor+company","city_state_slug":"Durant.MS","brand":"Ford","website":"www.hammettmotorco.com","address":"16041 N Jackson St","city":"Durant","state":"MS","zip":39063,"latitude":33.0847798,"longitude":-89.8513829,"phone_number_service":"8558970067","phone_number_main":"6626533141","service_hours":"Mo-Fr 08:00 - 17:00","utc_offset":"-300","gplace_id":null,"gplace_url":"https://maps.google.com/?cid=7608359858936947472","dealerID":71171,"trusted":false,"image_id":"v1597283967/ford_RM.png","phone":"8558970067","cityStateSlug":"durant.ms","slug":"Durant.MS/hammett+motor+company","location":"33.0847798,-89.8513829","brandsList":["ford"]},{"id":5010,"crm_id":67062877,"name":"Forest Ford","dealerSlug":"forest+ford","city_state_slug":"Forest.MS","brand":"Ford","website":"www.forestford.com","address":"1126 Highway 35 North","city":"Forest","state":"MS","zip":39074,"latitude":32.381066,"longitude":-89.480406,"phone_number_service":"8778491908","phone_number_main":"6014693421","service_hours":"Mo-Fr 07:30 - 17:00","utc_offset":"-300","gplace_id":null,"gplace_url":"https://maps.google.com/?cid=16100326429038279130","dealerID":71172,"trusted":false,"image_id":"v1597283967/ford_RM.png","phone":"8778491908","cityStateSlug":"forest.ms","slug":"Forest.MS/forest+ford","location":"32.381066,-89.480406","brandsList":["ford"]},{"id":5776,"crm_id":67062880,"name":"Great River Chevrolet GMC","dealerSlug":"great+river+chevrolet+gmc","city_state_slug":"Natchez.MS","brand":"Chevrolet,GMC","website":"www.greatriverchevy.net","address":"264 Devereux Dr","city":"Natchez","state":"MS","zip":39120,"latitude":31.5581564,"longitude":-91.3694472,"phone_number_service":"8662975845","phone_number_main":"6016534829","service_hours":"Mo-Fr 07:30 - 17:00","utc_offset":"-300","gplace_id":null,"gplace_url":"https://maps.google.com/?cid=12505239079822401549","dealerID":71173,"trusted":false,"image_id":"v1597284079/chevy_ms.png","phone":"8662975845","cityStateSlug":"natchez.ms","slug":"Natchez.MS/great+river+chevrolet+gmc","location":"31.5581564,-91.3694472","brandsList":["chevrolet","gmc"]},{"id":12847,"crm_id":67062883,"name":"Sango Chrysler Dodge Jeep RAM","dealerSlug":"sango+chrysler+dodge+jeep+ram","city_state_slug":"Natchez.MS","brand":"Chrysler,Dodge,Jeep,RAM","website":"www.sangododge.com","address":"201 Sergeant Prentiss Dr","city":"Natchez","state":"MS","zip":39120,"latitude":31.5436071,"longitude":-91.374262,"phone_number_service":"6012552138","phone_number_main":"8773047831","service_hours":"Mo-Fr 07:30 - 17:00","utc_offset":"-300","gplace_id":null,"gplace_url":"https://maps.google.com/?cid=13321296441604815830","dealerID":71174,"trusted":false,"image_id":"v1597283975/chrysler_RM.png","phone":"6012552138","cityStateSlug":"natchez.ms","slug":"Natchez.MS/sango+chrysler+dodge+jeep+ram","location":"31.5436071,-91.374262","brandsList":["chrysler","dodge","jeep","ram"]},{"id":10582,"crm_id":67062886,"name":"Natchez Toyota","dealerSlug":"natchez+toyota","city_state_slug":"South-Natchez.MS","brand":"Toyota","website":"www.natcheztoyota.com","address":"335 Highway 61","city":"South Natchez","state":"MS","zip":39120,"latitude":31.5090776,"longitude":-91.3722791,"phone_number_service":"6013858233","phone_number_main":"6014465588","service_hours":"Mo-Fr 07:30 - 17:30","utc_offset":"-300","gplace_id":null,"gplace_url":"https://maps.google.com/?cid=12600222083267669684","dealerID":71175,"trusted":false,"image_id":"v1597284039/toyota_ms.png","phone":"6013858233","cityStateSlug":"south-natchez.ms","slug":"South-Natchez.MS/natchez+toyota","location":"31.5090776,-91.3722791","brandsList":["toyota"]},{"id":13263,"crm_id":67062892,"name":"Skinners Chevrolet Buick GMC","dealerSlug":"skinners+chevrolet+buick+gmc","city_state_slug":"Terry.MS","brand":"Buick,Chevrolet,GMC","website":"www.skinners.com","address":"12580 I-55","city":"Terry","state":"MS","zip":39170,"latitude":32.0862031,"longitude":-90.3088843,"phone_number_service":"6013084194","phone_number_main":"6013084201","service_hours":"Mo-Fr 07:30 - 17:30","utc_offset":"-300","gplace_id":null,"gplace_url":"https://maps.google.com/?cid=13225065131515526049","dealerID":71176,"trusted":false,"image_id":"v1597283981/buick_RM.png","phone":"6013084194","cityStateSlug":"terry.ms","slug":"Terry.MS/skinners+chevrolet+buick+gmc","location":"32.0862031,-90.3088843","brandsList":["buick","chevrolet","gmc"]},{"id":1564,"crm_id":67062898,"name":"Blackburn Nissan","dealerSlug":"blackburn+nissan","city_state_slug":"Vicksburg.MS","brand":"Nissan","website":"www.blackburnnissan.com","address":"2195 N Frontage Rd","city":"Vicksburg","state":"MS","zip":39180,"latitude":32.3254166,"longitude":-90.8665453,"phone_number_service":"8773159321","phone_number_main":"8885685807","service_hours":"Mo-Fr 07:30 - 17:30 | Sa 07:30 - 14:30","utc_offset":"-300","gplace_id":null,"gplace_url":"https://maps.google.com/?cid=2390028527732544321","dealerID":71177,"trusted":false,"image_id":"v1597283926/nissan_RM.png","phone":"8773159321","cityStateSlug":"vicksburg.ms","slug":"Vicksburg.MS/blackburn+nissan","location":"32.3254166,-90.8665453","brandsList":["nissan"]},{"id":8008,"crm_id":67062904,"name":"Kirk Brother's Ford of Vicksburg","dealerSlug":"kirk+brothers+ford+of+vicksburg","city_state_slug":"Vicksburg.MS","brand":"Ford","website":"www.kirkbrothersfordvicksburg.com/","address":"2431 N Frontage Rd","city":"Vicksburg","state":"MS","zip":39180,"latitude":32.3275593,"longitude":-90.8640133,"phone_number_service":"8664996019","phone_number_main":"6016365323","service_hours":"Mo-Fr 07:30 - 17:30 | Sa 08:00-11:00","utc_offset":"-300","gplace_id":null,"gplace_url":"https://maps.google.com/?cid=2802013982153540346","dealerID":71178,"trusted":false,"image_id":"v1597283967/ford_RM.png","phone":"8664996019","cityStateSlug":"vicksburg.ms","slug":"Vicksburg.MS/kirk+brothers+ford+of+vicksburg","location":"32.3275593,-90.8640133","brandsList":["ford"]},{"id":2463,"crm_id":67062907,"name":"Cannon Honda in Vicksburg","dealerSlug":"cannon+honda+in+vicksburg","city_state_slug":"Vicksburg.MS","brand":"Honda","website":"cannonhondavicksburg.com","address":"2057 N Frontage Rd","city":"Vicksburg","state":"MS","zip":39180,"latitude":32.323784,"longitude":-90.867813,"phone_number_service":"8773826715","phone_number_main":"6016361800","service_hours":"Mo-Sa 07:00 - 18:00","utc_offset":"-300","gplace_id":null,"gplace_url":"https://maps.google.com/?cid=5703127790723670843","dealerID":71179,"trusted":false,"image_id":"v1597284047/honda_ms.png","phone":"8773826715","cityStateSlug":"vicksburg.ms","slug":"Vicksburg.MS/cannon+honda+in+vicksburg","location":"32.323784,-90.867813","brandsList":["honda"]},{"id":5486,"crm_id":67062910,"name":"George Carr Buick GMC","dealerSlug":"george+carr+buick+gmc","city_state_slug":"Vicksburg.MS","brand":"Buick,GMC","website":"www.georgecarr.com","address":"2950 S Frontage Rd","city":"Vicksburg","state":"MS","zip":39180,"latitude":32.3320461,"longitude":-90.8571633,"phone_number_service":"6015014316","phone_number_main":"6016367777","service_hours":"Mo-Fr 07:30 - 17:30","utc_offset":"-300","gplace_id":null,"gplace_url":"https://maps.google.com/?cid=15121941302192640616","dealerID":71180,"trusted":false,"image_id":"v1597283981/buick_RM.png","phone":"6015014316","cityStateSlug":"vicksburg.ms","slug":"Vicksburg.MS/george+carr+buick+gmc","location":"32.3320461,-90.8571633","brandsList":["buick","gmc"]},{"id":2467,"crm_id":67062913,"name":"Cannon Toyota of Vicksburg","dealerSlug":"cannon+toyota+of+vicksburg","city_state_slug":"Vicksburg.MS","brand":"Toyota","website":"www.cannontoyotavicksburg.com","address":"2047 N Frontage Rd","city":"Vicksburg","state":"MS","zip":39180,"latitude":32.3236179,"longitude":-90.8688321,"phone_number_service":"8777759292","phone_number_main":"6016804285","service_hours":"Mo-Sa 07:00 - 18:00","utc_offset":"-300","gplace_id":null,"gplace_url":"https://maps.google.com/?cid=11143843487872245438","dealerID":71181,"trusted":false,"image_id":"v1597284039/toyota_ms.png","phone":"8777759292","cityStateSlug":"vicksburg.ms","slug":"Vicksburg.MS/cannon+toyota+of+vicksburg","location":"32.3236179,-90.8688321","brandsList":["toyota"]},{"id":6387,"crm_id":67062916,"name":"Herrin-Gear INFINITI","dealerSlug":"herrin+gear+infiniti","city_state_slug":"Jackson.MS","brand":"INFINITI","website":"www.herringearinfiniti.com","address":"1685 High St","city":"Jackson","state":"MS","zip":39202,"latitude":32.3018632,"longitude":-90.1641504,"phone_number_service":"8556085598","phone_number_main":"6013544900","service_hours":"Mo-Fr 07:30 - 17:30 | Sa 08:00 - 13:30","utc_offset":"-300","gplace_id":null,"gplace_url":"https://maps.google.com/?cid=4933033817684970861","dealerID":71182,"trusted":false,"image_id":"v1597283957/infiniti_RM.png","phone":"8556085598","cityStateSlug":"jackson.ms","slug":"Jackson.MS/herrin+gear+infiniti","location":"32.3018632,-90.1641504","brandsList":["infiniti"]},{"id":6388,"crm_id":67062919,"name":"Herrin-Gear Lexus","dealerSlug":"herrin+gear+lexus","city_state_slug":"Jackson.MS","brand":"Lexus","website":"www.herringearlexus.com","address":"1685 High Street","city":"Jackson","state":"MS","zip":39205,"latitude":32.299209,"longitude":-90.1676996,"phone_number_service":"6013544099","phone_number_main":"6013544099","service_hours":"Mo-Fr 07:30 - 17:30","utc_offset":"-300","gplace_id":null,"gplace_url":"https://maps.google.com/?cid=12784556389996623411","dealerID":71183,"trusted":false,"image_id":"v1597284042/lexus_ms.png","phone":"6013544099","cityStateSlug":"jackson.ms","slug":"Jackson.MS/herrin+gear+lexus","location":"32.299209,-90.1676996","brandsList":["lexus"]},{"id":6386,"crm_id":67062925,"name":"Herrin-Gear Chevrolet","dealerSlug":"herrin+gear+chevrolet","city_state_slug":"Jackson.MS","brand":"Chevrolet","website":"www.herrin-gearchevrolet.com","address":"1685 High St","city":"Jackson","state":"MS","zip":39202,"latitude":32.3013458,"longitude":-90.1655292,"phone_number_service":"6015007560","phone_number_main":"6013543882","service_hours":"Mo-Fr 07:30 - 17:30 | Sa 08:00 - 13:30","utc_offset":"-300","gplace_id":null,"gplace_url":"https://maps.google.com/?cid=7973237865113277738","dealerID":71184,"trusted":false,"image_id":"v1597284079/chevy_ms.png","phone":"6015007560","cityStateSlug":"jackson.ms","slug":"Jackson.MS/herrin+gear+chevrolet","location":"32.3013458,-90.1655292","brandsList":["chevrolet"]},{"id":8297,"crm_id":67062934,"name":"Land Rover Jackson","dealerSlug":"land+rover+jackson","city_state_slug":"Jackson.MS","brand":"Land Rover","website":"www.jacksonlandrover.com","address":"5320 I 55 North (Exit 100)","city":"Jackson","state":"MS","zip":39211,"latitude":32.3714715,"longitude":-90.1473721,"phone_number_service":"8886871289","phone_number_main":"8888872996","service_hours":"Mo-Fr 07:30 - 18:00 | Sa 07:30 - 14:00","utc_offset":"-300","gplace_id":null,"gplace_url":"https://maps.google.com/?cid=9485031667326700028","dealerID":71185,"trusted":false,"image_id":"v1597283945/landrover_RM.png","phone":"8886871289","cityStateSlug":"jackson.ms","slug":"Jackson.MS/land+rover+jackson","location":"32.3714715,-90.1473721","brandsList":["land rover"]},{"id":15002,"crm_id":67062937,"name":"Volkswagen Jackson","dealerSlug":"volkswagen+jackson","city_state_slug":"Jackson.MS","brand":"Volkswagen","website":"www.volkswagenjackson.com","address":"5320 I 55 N","city":"Jackson","state":"MS","zip":39211,"latitude":32.3714715,"longitude":-90.1473721,"phone_number_service":"8887069074","phone_number_main":"8886608174","service_hours":"Mo-Fr 07:30 - 18:00 | Sa 07:30-14:00","utc_offset":"-300","gplace_id":null,"gplace_url":"https://maps.google.com/?cid=14996726572371286460","dealerID":71186,"trusted":false,"image_id":"v1597283902/volkswagen.png","phone":"8887069074","cityStateSlug":"jackson.ms","slug":"Jackson.MS/volkswagen+jackson","location":"32.3714715,-90.1473721","brandsList":["volkswagen"]},{"id":11489,"crm_id":67062940,"name":"Phil Moore Buick GMC","dealerSlug":"phil+moore+buick+gmc","city_state_slug":"Jackson.MS","brand":"Buick,GMC","website":"www.philmoorebuickgmc.com","address":"5728 Interstate 55 North Frontage Rd","city":"Jackson","state":"MS","zip":39211,"latitude":32.383058,"longitude":-90.1454398,"phone_number_service":"8772660858","phone_number_main":"8774774270","service_hours":"Mo-Fr 07:30 - 17:00","utc_offset":"-300","gplace_id":null,"gplace_url":"https://maps.google.com/?cid=3789471537912518873","dealerID":71187,"trusted":false,"image_id":"v1597283981/buick_RM.png","phone":"8772660858","cityStateSlug":"jackson.ms","slug":"Jackson.MS/phil+moore+buick+gmc","location":"32.383058,-90.1454398","brandsList":["buick","gmc"]},{"id":5764,"crm_id":67062946,"name":"Gray-Daniels Nissan North","dealerSlug":"gray+daniels+nissan+north","city_state_slug":"Jackson.MS","brand":"Nissan","website":"www.graydanielsnissanofjackson.com","address":"6080 I-55","city":"Jackson","state":"MS","zip":39211,"latitude":32.392763,"longitude":-90.144249,"phone_number_service":"8772855305","phone_number_main":"6013916782","service_hours":"Mo-Fr 07:00 - 18:00 | Sa 07:30 - 13:00","utc_offset":"-300","gplace_id":null,"gplace_url":"https://maps.google.com/?cid=4147901049631369610","dealerID":51221,"trusted":true,"image_id":"v1597283926/nissan_RM.png","phone":"8772855305","cityStateSlug":"jackson.ms","slug":"Jackson.MS/gray+daniels+nissan+north","location":"32.392763,-90.144249","brandsList":["nissan"]},{"id":10727,"crm_id":67062949,"name":"Nissan of Meridian","dealerSlug":"nissan+of+meridian","city_state_slug":"Meridian.MS","brand":"Nissan","website":"www.nissanofmeridian.com","address":"1106 North Frontage Rd","city":"Meridian","state":"MS","zip":39302,"latitude":32.3588461,"longitude":-88.6840764,"phone_number_service":"8883370308","phone_number_main":"8883513704","service_hours":"Mo-Fr 07:30 - 17:00","utc_offset":"-300","gplace_id":null,"gplace_url":"https://maps.google.com/?cid=10976777566616249171","dealerID":51456,"trusted":true,"image_id":"v1597283926/nissan_RM.png","phone":"8883370308","cityStateSlug":"meridian.ms","slug":"Meridian.MS/nissan+of+meridian","location":"32.3588461,-88.6840764","brandsList":["nissan"]},{"id":7936,"crm_id":67062952,"name":"Kia of Meridian","dealerSlug":"kia+of+meridian","city_state_slug":"Meridian.MS","brand":"Kia","website":"www.kiaofmeridian.com","address":"1219 B Hwy 39 North","city":"Meridian","state":"MS","zip":39301,"latitude":32.3693692,"longitude":-88.6789663,"phone_number_service":"8443025782","phone_number_main":"6014836444","service_hours":"Mo-Fr 07:30 - 17:00","utc_offset":"-300","gplace_id":null,"gplace_url":"https://maps.google.com/?cid=16609836010430423318","dealerID":71190,"trusted":false,"image_id":"v1597283948/kia_RM.png","phone":"8443025782","cityStateSlug":"meridian.ms","slug":"Meridian.MS/kia+of+meridian","location":"32.3693692,-88.6789663","brandsList":["kia"]},{"id":9887,"crm_id":67062955,"name":"Meridian Honda","dealerSlug":"meridian+honda","city_state_slug":"Meridian.MS","brand":"Honda","website":"meridianhonda.com","address":"503 Front Street Ext.","city":"Meridian","state":"MS","zip":39301,"latitude":32.3720168,"longitude":-88.6833979,"phone_number_service":"6016934651","phone_number_main":"6016934651","service_hours":"Mo-Fr 07:30 - 17:30","utc_offset":"-300","gplace_id":null,"gplace_url":"https://maps.google.com/?cid=16117856489672796626","dealerID":71191,"trusted":false,"image_id":"v1597284047/honda_ms.png","phone":"6016934651","cityStateSlug":"meridian.ms","slug":"Meridian.MS/meridian+honda","location":"32.3720168,-88.6833979","brandsList":["honda"]},{"id":10644,"crm_id":67062958,"name":"New South Ford","dealerSlug":"new+south+ford","city_state_slug":"Meridian.MS","brand":"Ford","website":"www.newsouthford.net","address":"1200 N Frontage Rd","city":"Meridian","state":"MS","zip":39301,"latitude":32.3588889,"longitude":-88.6838889,"phone_number_service":"8883798157","phone_number_main":"6016936821","service_hours":"Mo-Fr 07:30 - 17:00","utc_offset":"-300","gplace_id":null,"gplace_url":"https://maps.google.com/?cid=2008732673482665240","dealerID":71192,"trusted":false,"image_id":"v1597283967/ford_RM.png","phone":"8883798157","cityStateSlug":"meridian.ms","slug":"Meridian.MS/new+south+ford","location":"32.3588889,-88.6838889","brandsList":["ford"]},{"id":3573,"crm_id":67062961,"name":"Crowson Auto World","dealerSlug":"crowson+auto+world","city_state_slug":"Louisville.MS","brand":"Ford","website":"www.crowsonautoworld.net","address":"15125 Highway 15 North","city":"Louisville","state":"MS","zip":39339,"latitude":33.1322225,"longitude":-89.0898997,"phone_number_service":"8774612304","phone_number_main":"6627738070","service_hours":"Mo-Fr 07:30 - 17:00","utc_offset":"-300","gplace_id":null,"gplace_url":"https://maps.google.com/?cid=18331691214778398153","dealerID":71193,"trusted":false,"image_id":"v1597283967/ford_RM.png","phone":"8774612304","cityStateSlug":"louisville.ms","slug":"Louisville.MS/crowson+auto+world","location":"33.1322225,-89.0898997","brandsList":["ford"]},{"id":2300,"crm_id":67062964,"name":"Bullock Toyota","dealerSlug":"bullock+toyota","city_state_slug":"Louisville.MS","brand":"Toyota","website":"www.bullocktoyota.com","address":"269 N Court Ave","city":"Louisville","state":"MS","zip":39339,"latitude":33.125082,"longitude":-89.0548102,"phone_number_service":"6627736281","phone_number_main":"6627736281","service_hours":"Mo 07:30 - 17:00 | Tu 07:30 - 18:00 | We 07:30 - 17:00 | Th 07:30 - 18:00 | Fr 07:30 - 17:00 | Sa 08:00 - 12:00","utc_offset":"-300","gplace_id":null,"gplace_url":"https://maps.google.com/?cid=3426918010154166515","dealerID":71194,"trusted":false,"image_id":"v1597284039/toyota_ms.png","phone":"6627736281","cityStateSlug":"louisville.ms","slug":"Louisville.MS/bullock+toyota","location":"33.125082,-89.0548102","brandsList":["toyota"]},{"id":14303,"crm_id":67062967,"name":"Tolbert Chevrolet Buick","dealerSlug":"tolbert+chevrolet+buick","city_state_slug":"Philadelphia.MS","brand":"Buick,Chevrolet","website":"www.tolbertchevy.com","address":"1040 W Beacon St","city":"Philadelphia","state":"MS","zip":39350,"latitude":32.7676875,"longitude":-89.1339925,"phone_number_service":"6012158499","phone_number_main":"6016564802","service_hours":"Mo-Fr 08:00 - 17:00","utc_offset":"-300","gplace_id":null,"gplace_url":"https://maps.google.com/?cid=13146125473917593594","dealerID":71195,"trusted":false,"image_id":"v1597283981/buick_RM.png","phone":"6012158499","cityStateSlug":"philadelphia.ms","slug":"Philadelphia.MS/tolbert+chevrolet+buick","location":"32.7676875,-89.1339925","brandsList":["buick","chevrolet"]},{"id":9301,"crm_id":67062970,"name":"Marshall Ford","dealerSlug":"marshall+ford","city_state_slug":"Philadelphia.MS","brand":"Ford","website":"www.marshallfordco.com","address":"14843 MS-16","city":"Philadelphia","state":"MS","zip":39350,"latitude":32.7644416,"longitude":-89.1613234,"phone_number_service":"8882487689","phone_number_main":"6017749222","service_hours":"Mo-Fr 08:00 - 17:00","utc_offset":"-300","gplace_id":null,"gplace_url":"https://maps.google.com/?cid=14678711447013042946","dealerID":71196,"trusted":false,"image_id":"v1597283967/ford_RM.png","phone":"8882487689","cityStateSlug":"philadelphia.ms","slug":"Philadelphia.MS/marshall+ford","location":"32.7644416,-89.1613234","brandsList":["ford"]},{"id":4188,"crm_id":67062973,"name":"Dossett Cadillac","dealerSlug":"dossett+cadillac","city_state_slug":"Hattiesburg.MS","brand":"Cadillac","website":"www.dossettcadillac.com","address":"1058 W Pine St","city":"Hattiesburg","state":"MS","zip":39401,"latitude":31.3178693,"longitude":-89.301564,"phone_number_service":"6018371203","phone_number_main":"6015447700","service_hours":"Mo-Fr 07:30 - 17:00","utc_offset":"-300","gplace_id":null,"gplace_url":"https://maps.google.com/?cid=16815068653351361641","dealerID":71197,"trusted":false,"image_id":"v1597283980/cadillac.png","phone":"6018371203","cityStateSlug":"hattiesburg.ms","slug":"Hattiesburg.MS/dossett+cadillac","location":"31.3178693,-89.301564","brandsList":["cadillac"]},{"id":11537,"crm_id":67062976,"name":"Pine Belt Chrysler Dodge Jeep RAM","dealerSlug":"pine+belt+chrysler+dodge+jeep+ram","city_state_slug":"Hattiesburg.MS","brand":"Chrysler,Dodge,Jeep,RAM","website":"www.pinebeltmotors.com","address":"401 Broadway Dr","city":"Hattiesburg","state":"MS","zip":39401,"latitude":31.3154703,"longitude":-89.3077901,"phone_number_service":"6012559893","phone_number_main":"6015442430","service_hours":"Mo-Fr 07:00 - 18:00 | Sa 08:00 - 12:00","utc_offset":"-300","gplace_id":null,"gplace_url":"https://maps.google.com/?cid=11801375235974639196","dealerID":71198,"trusted":false,"image_id":"v1597283975/chrysler_RM.png","phone":"6012559893","cityStateSlug":"hattiesburg.ms","slug":"Hattiesburg.MS/pine+belt+chrysler+dodge+jeep+ram","location":"31.3154703,-89.3077901","brandsList":["chrysler","dodge","jeep","ram"]},{"id":11467,"crm_id":67062979,"name":"Petro Nissan","dealerSlug":"petro+nissan","city_state_slug":"Hattiesburg.MS","brand":"Nissan","website":"www.petronissan.com","address":"6248 US-98","city":"Hattiesburg","state":"MS","zip":39402,"latitude":31.3178137,"longitude":-89.3946827,"phone_number_service":"6012557583","phone_number_main":"6014501470","service_hours":"Mo-Fr 07:00 - 17:30","utc_offset":"-300","gplace_id":null,"gplace_url":"https://maps.google.com/?cid=14030257968175279686","dealerID":71199,"trusted":false,"image_id":"v1597283926/nissan_RM.png","phone":"6012557583","cityStateSlug":"hattiesburg.ms","slug":"Hattiesburg.MS/petro+nissan","location":"31.3178137,-89.3946827","brandsList":["nissan"]},{"id":6126,"crm_id":67062982,"name":"Harris Hankins Motors","dealerSlug":"harris+hankins+motors","city_state_slug":"Bay-Springs.MS","brand":"Buick,Chevrolet,GMC","website":"www.harrishankinsmotors.com","address":"2746 Highway 15 S","city":"Bay Springs","state":"MS","zip":39422,"latitude":31.972323,"longitude":-89.28797,"phone_number_service":"8772226914","phone_number_main":"6017644552","service_hours":"Mo-Fr 07:30 - 17:00","utc_offset":"-300","gplace_id":null,"gplace_url":"https://maps.google.com/?cid=14204890720119147377","dealerID":71200,"trusted":false,"image_id":"v1597283981/buick_RM.png","phone":"8772226914","cityStateSlug":"bay-springs.ms","slug":"Bay-Springs.MS/harris+hankins+motors","location":"31.972323,-89.28797","brandsList":["buick","chevrolet","gmc"]},{"id":15642,"crm_id":67062985,"name":"Woolwine Ford Lincoln","dealerSlug":"woolwine+ford+lincoln","city_state_slug":"Collins.MS","brand":"Ford,Lincoln","website":"www.woolwineford.com","address":"3080 Highway 49","city":"Collins","state":"MS","zip":39428,"latitude":31.6271867,"longitude":-89.5488079,"phone_number_service":"8886061181","phone_number_main":"6017654461","service_hours":"Mo-Fr 07:30 - 17:30","utc_offset":"-300","gplace_id":null,"gplace_url":"https://maps.google.com/?cid=10463164384283916050","dealerID":71201,"trusted":false,"image_id":"v1597283967/ford_RM.png","phone":"8886061181","cityStateSlug":"collins.ms","slug":"Collins.MS/woolwine+ford+lincoln","location":"31.6271867,-89.5488079","brandsList":["ford","lincoln"]},{"id":13845,"crm_id":67062988,"name":"Sullivan Chevrolet Buick GMC","dealerSlug":"sullivan+chevrolet+buick+gmc","city_state_slug":"Collins.MS","brand":"Buick,Chevrolet,GMC","website":"www.sullivanmotorsusa.com","address":"3114 Highway 49","city":"Collins","state":"MS","zip":39428,"latitude":31.629134,"longitude":-89.549232,"phone_number_service":"6019214625","phone_number_main":"6019214565","service_hours":"Mo-Fr 07:30 - 17:30","utc_offset":"-300","gplace_id":null,"gplace_url":"https://maps.google.com/?cid=7571098255625145673","dealerID":71202,"trusted":false,"image_id":"v1597283981/buick_RM.png","phone":"6019214625","cityStateSlug":"collins.ms","slug":"Collins.MS/sullivan+chevrolet+buick+gmc","location":"31.629134,-89.549232","brandsList":["buick","chevrolet","gmc"]},{"id":9124,"crm_id":67062991,"name":"Mack Grubbs Motors","dealerSlug":"mack+grubbs+motors","city_state_slug":"Hattiesburg.MS","brand":"Hyundai","website":"www.mackgrubbshyundai.com/","address":"6507 Highway 98 West","city":"Hattiesburg","state":"MS","zip":39402,"latitude":31.3175721,"longitude":-89.4164737,"phone_number_service":"6016200654","phone_number_main":"6017363432","service_hours":"Mo-Fr 07:30 - 17:00","utc_offset":"-300","gplace_id":null,"gplace_url":"https://maps.google.com/?cid=11743629674277500806","dealerID":71203,"trusted":false,"image_id":"v1597283959/hyundai_RM.png","phone":"6016200654","cityStateSlug":"hattiesburg.ms","slug":"Hattiesburg.MS/mack+grubbs+motors","location":"31.3175721,-89.4164737","brandsList":["hyundai"]},{"id":9123,"crm_id":67062994,"name":"Mack Grubbs Ford","dealerSlug":"mack+grubbs+ford","city_state_slug":"Columbia.MS","brand":"Ford","website":"www.mackgrubbsford.com","address":"1494 Hwy 98 E","city":"Columbia","state":"MS","zip":39429,"latitude":31.2529145,"longitude":-89.7830314,"phone_number_service":"6017311953","phone_number_main":"6017311953","service_hours":"Mo-Fr 07:30 - 17:00","utc_offset":"-300","gplace_id":null,"gplace_url":"https://maps.google.com/?cid=11376408852137755453","dealerID":71204,"trusted":false,"image_id":"v1597283967/ford_RM.png","phone":"6017311953","cityStateSlug":"columbia.ms","slug":"Columbia.MS/mack+grubbs+ford","location":"31.2529145,-89.7830314","brandsList":["ford"]},{"id":7963,"crm_id":67062997,"name":"Kim's Toyota","dealerSlug":"kims+toyota","city_state_slug":"Laurel.MS","brand":"Toyota","website":"www.kimstoyota.com","address":"1030 HWY 15 North","city":"Laurel","state":"MS","zip":39440,"latitude":31.701485,"longitude":-89.148065,"phone_number_service":"6016514240","phone_number_main":"6014254701","service_hours":"Mo-Fr 07:00 - 18:00 | Sa 07:30 - 13:00","utc_offset":"-300","gplace_id":null,"gplace_url":"https://maps.google.com/?cid=14263373949920709379","dealerID":71205,"trusted":false,"image_id":"v1597284039/toyota_ms.png","phone":"6016514240","cityStateSlug":"laurel.ms","slug":"Laurel.MS/kims+toyota","location":"31.701485,-89.148065","brandsList":["toyota"]},{"id":7962,"crm_id":67063003,"name":"Kim's Chevrolet","dealerSlug":"kims+chevrolet","city_state_slug":"Laurel.MS","brand":"Chevrolet","website":"www.kimschevrolet.com","address":"2516 Hwy 15 N","city":"Laurel","state":"MS","zip":39440,"latitude":31.7225026,"longitude":-89.1489985,"phone_number_service":"6016514364","phone_number_main":"6016514369","service_hours":"Mo-Fr 07:00 - 18:00 | Sa 08:00 - 16:00","utc_offset":"-300","gplace_id":null,"gplace_url":"https://maps.google.com/?cid=11915492524059544448","dealerID":71207,"trusted":false,"image_id":"v1597284079/chevy_ms.png","phone":"6016514364","cityStateSlug":"laurel.ms","slug":"Laurel.MS/kims+chevrolet","location":"31.7225026,-89.1489985","brandsList":["chevrolet"]},{"id":10739,"crm_id":67063006,"name":"Nissan of Picayune","dealerSlug":"nissan+of+picayune","city_state_slug":"Picayune.MS","brand":"Nissan","website":"www.nissanofpicayune.com","address":"239 Frontage Rd","city":"Picayune","state":"MS","zip":39466,"latitude":30.5131155,"longitude":-89.663578,"phone_number_service":"6012733547","phone_number_main":"6012733552","service_hours":"Mo-Fr 07:30 - 18:00 | Sa 08:00 - 13:00","utc_offset":"-300","gplace_id":null,"gplace_url":"https://maps.google.com/?cid=15828414696132593292","dealerID":71208,"trusted":false,"image_id":"v1597283926/nissan_RM.png","phone":"6012733547","cityStateSlug":"picayune.ms","slug":"Picayune.MS/nissan+of+picayune","location":"30.5131155,-89.663578","brandsList":["nissan"]},{"id":6390,"crm_id":67063009,"name":"Herring Ford","dealerSlug":"herring+ford","city_state_slug":"Picayune.MS","brand":"Ford","website":"www.herringfordlincoln.com","address":"820 Memorial Blvd","city":"Picayune","state":"MS","zip":39466,"latitude":30.5167167,"longitude":-89.6695099,"phone_number_service":"8667441381","phone_number_main":"6017988682","service_hours":"Mo-Fr 08:00 - 17:00","utc_offset":"-300","gplace_id":null,"gplace_url":"https://maps.google.com/?cid=5078646081891539679","dealerID":71209,"trusted":false,"image_id":"v1597283967/ford_RM.png","phone":"8667441381","cityStateSlug":"picayune.ms","slug":"Picayune.MS/herring+ford","location":"30.5167167,-89.6695099","brandsList":["ford"]},{"id":11250,"crm_id":67063015,"name":"Pat Peck Kia","dealerSlug":"pat+peck+kia","city_state_slug":"D'Iberville.MS","brand":"Kia","website":"www.peckkia.com","address":"10611 Boney Ave","city":"D'Iberville","state":"MS","zip":39540,"latitude":30.4435473,"longitude":-88.8957895,"phone_number_service":"2286795252","phone_number_main":"2286795200","service_hours":"Mo-Fr 07:30 - 18:00 | Sa 08:00 - 16:00","utc_offset":"-300","gplace_id":null,"gplace_url":"https://maps.google.com/?cid=482926937989741333","dealerID":71210,"trusted":false,"image_id":"v1597283948/kia_RM.png","phone":"2286795252","cityStateSlug":"d'iberville.ms","slug":"D'Iberville.MS/pat+peck+kia","location":"30.4435473,-88.8957895","brandsList":["kia"]},{"id":14656,"crm_id":67063018,"name":"Turan Foley Chevrolet Buick","dealerSlug":"turan+foley+chevrolet+buick","city_state_slug":"Gulfport.MS","brand":"Buick,Chevrolet","website":"www.turanfoley.com","address":"11123 Highway 49 North","city":"Gulfport","state":"MS","zip":39503,"latitude":30.445008,"longitude":-89.100077,"phone_number_service":"2282060327","phone_number_main":"2282060416","service_hours":"Mo-Fr 07:00 - 17:00 | Sa 07:00 - 12:00","utc_offset":"-300","gplace_id":null,"gplace_url":"https://maps.google.com/?cid=4955897680216971423","dealerID":71211,"trusted":false,"image_id":"v1597283981/buick_RM.png","phone":"2282060327","cityStateSlug":"gulfport.ms","slug":"Gulfport.MS/turan+foley+chevrolet+buick","location":"30.445008,-89.100077","brandsList":["buick","chevrolet"]},{"id":11249,"crm_id":67063021,"name":"Pat Peck Honda","dealerSlug":"pat+peck+honda","city_state_slug":"Gulfport.MS","brand":"Honda","website":"www.patpeckhonda.com","address":"11151 US 49","city":"Gulfport","state":"MS","zip":39503,"latitude":30.4457879,"longitude":-89.100017,"phone_number_service":"2286791919","phone_number_main":"2288328030","service_hours":"Mo-Fr 07:30 - 18:00 | Sa 07:30 - 18:00","utc_offset":"-300","gplace_id":null,"gplace_url":"https://maps.google.com/?cid=10635764558648544818","dealerID":71212,"trusted":false,"image_id":"v1597284047/honda_ms.png","phone":"2286791919","cityStateSlug":"gulfport.ms","slug":"Gulfport.MS/pat+peck+honda","location":"30.4457879,-89.100017","brandsList":["honda"]},{"id":2360,"crm_id":67063024,"name":"Butch Oustalet Mazda","dealerSlug":"butch+oustalet+mazda","city_state_slug":"Gulfport.MS","brand":"Mazda","website":"www.butchoustaletmazda.com","address":"15150 Airport Rd","city":"Gulfport","state":"MS","zip":39503,"latitude":30.4204368,"longitude":-89.0895753,"phone_number_service":"8885868156","phone_number_main":"2288635520","service_hours":"Mo-Fr 07:30 - 17:30","utc_offset":"-300","gplace_id":null,"gplace_url":"https://maps.google.com/?cid=1213383196637751331","dealerID":71213,"trusted":false,"image_id":"v1597283937/mazda.png","phone":"8885868156","cityStateSlug":"gulfport.ms","slug":"Gulfport.MS/butch+oustalet+mazda","location":"30.4204368,-89.0895753","brandsList":["mazda"]},{"id":2359,"crm_id":67063027,"name":"Butch Oustalet","dealerSlug":"butch+oustalet","city_state_slug":"Gulfport.MS","brand":"Ford,Lincoln","website":"www.butchoustaletford.com","address":"9274 Highway 49 N.","city":"Gulfport","state":"MS","zip":39503,"latitude":30.4205486,"longitude":-89.0906103,"phone_number_service":"2282482256","phone_number_main":"2288635525","service_hours":"Mo-Fr 07:30 - 17:30 | Sa 08:00 - 12:00","utc_offset":"-300","gplace_id":null,"gplace_url":"https://maps.google.com/?cid=2711291313075575561","dealerID":71214,"trusted":false,"image_id":"v1597283967/ford_RM.png","phone":"2282482256","cityStateSlug":"gulfport.ms","slug":"Gulfport.MS/butch+oustalet","location":"30.4205486,-89.0906103","brandsList":["ford","lincoln"]},{"id":11251,"crm_id":67063030,"name":"Pat Peck Nissan","dealerSlug":"pat+peck+nissan","city_state_slug":"Gulfport.MS","brand":"Nissan","website":"www.patpecknissan.com","address":"9480 US 49","city":"Gulfport","state":"MS","zip":39503,"latitude":30.4258289,"longitude":-89.0921206,"phone_number_service":"2286791888","phone_number_main":"2288646411","service_hours":"Mo-Fr 07:30 - 18:00 | Sa 07:30 - 18:00","utc_offset":"-300","gplace_id":null,"gplace_url":"https://maps.google.com/?cid=8702256877932383417","dealerID":71215,"trusted":false,"image_id":"v1597283926/nissan_RM.png","phone":"2286791888","cityStateSlug":"gulfport.ms","slug":"Gulfport.MS/pat+peck+nissan","location":"30.4258289,-89.0921206","brandsList":["nissan"]},{"id":263,"crm_id":67063036,"name":"Allen Hyundai","dealerSlug":"allen+hyundai","city_state_slug":"Gulfport.MS","brand":"Hyundai","website":"www.allenhyundai.com","address":"624 E Pass Rd","city":"Gulfport","state":"MS","zip":39507,"latitude":30.3965885,"longitude":-89.03847,"phone_number_service":"8774361285","phone_number_main":"2285395555","service_hours":"Mo-Fr 07:30 - 17:30 | Sa 07:30 - 14:00","utc_offset":"-300","gplace_id":null,"gplace_url":"https://maps.google.com/?cid=787105448807234379","dealerID":71216,"trusted":false,"image_id":"v1597283959/hyundai_RM.png","phone":"8774361285","cityStateSlug":"gulfport.ms","slug":"Gulfport.MS/allen+hyundai","location":"30.3965885,-89.03847","brandsList":["hyundai"]},{"id":9196,"crm_id":67063039,"name":"Mandal Buick GMC","dealerSlug":"mandal+buick+gmc","city_state_slug":"D'Iberville.MS","brand":"Buick,GMC","website":"www.mandalbuickgmc.com","address":"11290 Mandal Pkwy","city":"D'Iberville","state":"MS","zip":39540,"latitude":30.4504291,"longitude":-88.8999995,"phone_number_service":"2282074564","phone_number_main":"2282071856","service_hours":"Mo-Fr 07:00 - 18:00 | Sa 08:00 - 14:00","utc_offset":"-300","gplace_id":null,"gplace_url":"https://maps.google.com/?cid=15540241521006395450","dealerID":71217,"trusted":false,"image_id":"v1597283981/buick_RM.png","phone":"2282074564","cityStateSlug":"d'iberville.ms","slug":"D'Iberville.MS/mandal+buick+gmc","location":"30.4504291,-88.8999995","brandsList":["buick","gmc"]},{"id":1118,"crm_id":67063042,"name":"Bayside Chrysler Dodge Jeep RAM","dealerSlug":"bayside+chrysler+dodge+jeep+ram","city_state_slug":"D'Iberville.MS","brand":"Chrysler,Dodge,Jeep,RAM","website":"www.baysidechryslerdodgejeep.com","address":"10535 Auto Mall Pkwy","city":"D'Iberville","state":"MS","zip":39540,"latitude":30.4384801,"longitude":-88.9006402,"phone_number_service":"2282074440","phone_number_main":"2283920555","service_hours":"Mo-Fr 07:30 - 17:30","utc_offset":"-300","gplace_id":null,"gplace_url":"https://maps.google.com/?cid=17016787670027849819","dealerID":71218,"trusted":false,"image_id":"v1597283975/chrysler_RM.png","phone":"2282074440","cityStateSlug":"d'iberville.ms","slug":"D'Iberville.MS/bayside+chrysler+dodge+jeep+ram","location":"30.4384801,-88.9006402","brandsList":["chrysler","dodge","jeep","ram"]},{"id":9842,"crm_id":67063045,"name":"Mercedes-Benz of South Mississippi","dealerSlug":"mercedes+benz+of+south+mississippi","city_state_slug":"D'Iberville.MS","brand":"Mercedes-Benz","website":"www.mbofsm.com","address":"11619 Bobby Eleuterius Blvd","city":"D'Iberville","state":"MS","zip":39540,"latitude":30.452014,"longitude":-88.9035325,"phone_number_service":"6019801938","phone_number_main":"2282659185","service_hours":"Mo-Fr 07:30 - 17:00 | Sa 07:30 - 15:00","utc_offset":"-300","gplace_id":null,"gplace_url":"https://maps.google.com/?cid=9305278106663680739","dealerID":71219,"trusted":false,"image_id":"v1597283934/mercedes_RM.png","phone":"6019801938","cityStateSlug":"d'iberville.ms","slug":"D'Iberville.MS/mercedes+benz+of+south+mississippi","location":"30.452014,-88.9035325","brandsList":["mercedes-benz"]},{"id":15052,"crm_id":67063048,"name":"Volkswagen of South Mississippi","dealerSlug":"volkswagen+of+south+mississippi","city_state_slug":"D'Iberville.MS","brand":"Volkswagen","website":"www.vwofsm.com","address":"11689 Bobby Eleutrius Blvd","city":"D'Iberville","state":"MS","zip":39540,"latitude":30.452313,"longitude":-88.9027629,"phone_number_service":"6019801961","phone_number_main":"2288646622","service_hours":"Mo-Fr 07:30 - 17:00 | Sa 07:30 - 15:00","utc_offset":"-300","gplace_id":null,"gplace_url":"https://maps.google.com/?cid=1977892048096354659","dealerID":71220,"trusted":false,"image_id":"v1597283902/volkswagen.png","phone":"6019801961","cityStateSlug":"d'iberville.ms","slug":"D'Iberville.MS/volkswagen+of+south+mississippi","location":"30.452313,-88.9027629","brandsList":["volkswagen"]},{"id":7226,"crm_id":67063051,"name":"Jason Pilger Hyundai","dealerSlug":"jason+pilger+hyundai","city_state_slug":"Gautier.MS","brand":"Hyundai,Genesis","website":"jasonpilgerhyundai.com","address":"613 De La Pointe Dr","city":"Gautier","state":"MS","zip":39553,"latitude":30.385768,"longitude":-88.619176,"phone_number_service":"8777785924","phone_number_main":"2285223413","service_hours":"Mo-Fr 07:30 - 17:30| Sa 08:00 - 13:00","utc_offset":"-300","gplace_id":null,"gplace_url":"https://maps.google.com/?cid=9402401209024373304","dealerID":71221,"trusted":false,"image_id":"v1597283959/hyundai_RM.png","phone":"8777785924","cityStateSlug":"gautier.ms","slug":"Gautier.MS/jason+pilger+hyundai","location":"30.385768,-88.619176","brandsList":["hyundai","genesis"]},{"id":4574,"crm_id":67063054,"name":"Estabrook Ford","dealerSlug":"estabrook+ford","city_state_slug":"Pascagoula.MS","brand":"Ford","website":"www.estabrookford.net","address":"3689 14th St","city":"Pascagoula","state":"MS","zip":39567,"latitude":30.3736033,"longitude":-88.5402076,"phone_number_service":"8778870584","phone_number_main":"2287622641","service_hours":"Mo-Fr 07:00 - 17:30","utc_offset":"-300","gplace_id":null,"gplace_url":"https://maps.google.com/?cid=14564407989239106659","dealerID":71222,"trusted":false,"image_id":"v1597283967/ford_RM.png","phone":"8778870584","cityStateSlug":"pascagoula.ms","slug":"Pascagoula.MS/estabrook+ford","location":"30.3736033,-88.5402076","brandsList":["ford"]},{"id":4575,"crm_id":67063057,"name":"Estabrook Nissan","dealerSlug":"estabrook+nissan","city_state_slug":"Pascagoula.MS","brand":"Nissan","website":"www.estabrooknissan.com","address":"3693 14th St","city":"Pascagoula","state":"MS","zip":39567,"latitude":30.3740936,"longitude":-88.5399663,"phone_number_service":"2287622644","phone_number_main":"2287622644","service_hours":"Mo-Fr 07:30 - 17:30","utc_offset":"-300","gplace_id":null,"gplace_url":"https://maps.google.com/?cid=1973776546972179777","dealerID":71223,"trusted":false,"image_id":"v1597283926/nissan_RM.png","phone":"2287622644","cityStateSlug":"pascagoula.ms","slug":"Pascagoula.MS/estabrook+nissan","location":"30.3740936,-88.5399663","brandsList":["nissan"]},{"id":2825,"crm_id":67063063,"name":"Charlie Henderson Ford","dealerSlug":"charlie+henderson+ford","city_state_slug":"Waveland.MS","brand":"Ford","website":"www.charliehendersonford.net","address":"105 Highway 90","city":"Waveland","state":"MS","zip":39576,"latitude":30.3085528,"longitude":-89.3680028,"phone_number_service":"8554116010","phone_number_main":"2284679005","service_hours":"Mo-Fr 07:30 - 17:30 | Sa 08:00 - 12:00","utc_offset":"-300","gplace_id":null,"gplace_url":"https://maps.google.com/?cid=16672003292566753414","dealerID":71224,"trusted":false,"image_id":"v1597283967/ford_RM.png","phone":"8554116010","cityStateSlug":"waveland.ms","slug":"Waveland.MS/charlie+henderson+ford","location":"30.3085528,-89.3680028","brandsList":["ford"]},{"id":13533,"crm_id":67063066,"name":"Stan King GM SuperStore","dealerSlug":"stan+king+gm+superstore","city_state_slug":"Brookhaven.MS","brand":"Buick,Chevrolet,GMC","website":"www.stankinggmsuperstore.com","address":"333 Brookhaven St","city":"Brookhaven","state":"MS","zip":39601,"latitude":31.5781164,"longitude":-90.4602697,"phone_number_service":"6018334961","phone_number_main":"6018334961","service_hours":"Mo-Fr 07:00 - 17:00","utc_offset":"-300","gplace_id":null,"gplace_url":"https://maps.google.com/?cid=13454643026140924234","dealerID":71225,"trusted":false,"image_id":"v1597283981/buick_RM.png","phone":"6018334961","cityStateSlug":"brookhaven.ms","slug":"Brookhaven.MS/stan+king+gm+superstore","location":"31.5781164,-90.4602697","brandsList":["buick","chevrolet","gmc"]},{"id":11288,"crm_id":67063069,"name":"Paul Barnett Nissan","dealerSlug":"paul+barnett+nissan","city_state_slug":"Brookhaven.MS","brand":"Nissan","website":"www.pbnissan.com","address":"845 Brookway Blvd","city":"Brookhaven","state":"MS","zip":39601,"latitude":31.5778638,"longitude":-90.4637055,"phone_number_service":"6018339124","phone_number_main":"6018339124","service_hours":"Mo-Fr 07:30 - 17:30 | Sa 08:00 - 12:00","utc_offset":"-300","gplace_id":null,"gplace_url":"https://maps.google.com/?cid=9536129016341642441","dealerID":71226,"trusted":false,"image_id":"v1597283926/nissan_RM.png","phone":"6018339124","cityStateSlug":"brookhaven.ms","slug":"Brookhaven.MS/paul+barnett+nissan","location":"31.5778638,-90.4637055","brandsList":["nissan"]},{"id":12033,"crm_id":67063072,"name":"Rainbow Chrysler Dodge Jeep of McComb","dealerSlug":"rainbow+chrysler+dodge+jeep+of+mccomb","city_state_slug":"McComb.MS","brand":"Chrysler,Dodge,Jeep,RAM","website":"www.driverainbow.com","address":"1900 Delaware Ave.","city":"McComb","state":"MS","zip":39648,"latitude":31.2484147,"longitude":-90.4806766,"phone_number_service":"6016847020","phone_number_main":"6016847020","service_hours":"Mo-Fr 07:30 - 18:00 | Sa 08:00 - 15:00","utc_offset":"-300","gplace_id":null,"gplace_url":"https://maps.google.com/?cid=11089342023545504756","dealerID":71227,"trusted":false,"image_id":"v1597283975/chrysler_RM.png","phone":"6016847020","cityStateSlug":"mccomb.ms","slug":"McComb.MS/rainbow+chrysler+dodge+jeep+of+mccomb","location":"31.2484147,-90.4806766","brandsList":["chrysler","dodge","jeep","ram"]},{"id":13846,"crm_id":67070548,"name":"Sullivan Ford","dealerSlug":"sullivan+ford","city_state_slug":"Brookhaven.MS","brand":"Ford","website":"www.sullivanford.net","address":"759 Magee Dr","city":"Brookhaven","state":"MS","zip":39601,"latitude":31.581948,"longitude":-90.471518,"phone_number_service":"6012021451","phone_number_main":"6018337521","service_hours":"Mo-Fr 07:00 - 17:00","utc_offset":"-300","gplace_id":null,"gplace_url":"https://maps.google.com/?cid=11088339221044332254","dealerID":73032,"trusted":false,"image_id":"v1597283967/ford_RM.png","phone":"6012021451","cityStateSlug":"brookhaven.ms","slug":"Brookhaven.MS/sullivan+ford","location":"31.581948,-90.471518","brandsList":["ford"]},{"id":5761,"crm_id":70882675,"name":"Gray-Daniels Ford","dealerSlug":"gray+daniels+ford","city_state_slug":"Brandon.MS","brand":"Ford","website":"www.graydanielsford.com","address":"201 Octavia Drive","city":"Brandon","state":"MS","zip":39042,"latitude":32.2822577,"longitude":-90.0352801,"phone_number_service":"6018252801","phone_number_main":"6017247374","service_hours":"Mo-Fr 07:00 - 18:00 | Sa 07:00 - 14:00","utc_offset":"-300","gplace_id":null,"gplace_url":"https://maps.google.com/?cid=4202884718640811859","dealerID":74990,"trusted":false,"image_id":"v1597283967/ford_RM.png","phone":"6018252801","cityStateSlug":"brandon.ms","slug":"Brandon.MS/gray+daniels+ford","location":"32.2822577,-90.0352801","brandsList":["ford"]},{"id":5760,"crm_id":70882693,"name":"Gray-Daniels Chevrolet","dealerSlug":"gray+daniels+chevrolet","city_state_slug":"Jackson.MS","brand":"Chevrolet","website":"www.graydanielschevy.com","address":"6060 I-55","city":"Jackson","state":"MS","zip":39211,"latitude":32.3917258,"longitude":-90.1439685,"phone_number_service":"6018996060","phone_number_main":"6015007530","service_hours":"Mo-Fr 07:00 - 18:00 | Sa 08:00 - 13:00","utc_offset":"-300","gplace_id":null,"gplace_url":"https://maps.google.com/?cid=13041829036308941212","dealerID":74991,"trusted":false,"image_id":"v1597284079/chevy_ms.png","phone":"6018996060","cityStateSlug":"jackson.ms","slug":"Jackson.MS/gray+daniels+chevrolet","location":"32.3917258,-90.1439685","brandsList":["chevrolet"]},{"id":5338,"crm_id":79350532,"name":"Galleria BMW","dealerSlug":"galleria+bmw","city_state_slug":"D'Iberville.MS","brand":"BMW","website":"www.galleriabmw.com","address":"11282 Mandal Pkwy","city":"D'Iberville","state":"MS","zip":39540,"latitude":30.4503253,"longitude":-88.8984595,"phone_number_service":"2282320333","phone_number_main":"2282320333","service_hours":"Mo-Fr 07:00 - 18:00 | Sa 08:00 - 15:00","utc_offset":"-300","gplace_id":null,"gplace_url":"https://maps.google.com/?cid=14727175524010725493","dealerID":51471,"trusted":true,"image_id":"v1597283982/bmw_RM.png","phone":"2282320333","cityStateSlug":"d'iberville.ms","slug":"D'Iberville.MS/galleria+bmw","location":"30.4503253,-88.8984595","brandsList":["bmw"]},{"id":1698,"crm_id":97332547,"name":"BMW of Meridian","dealerSlug":"bmw+of+meridian","city_state_slug":"Meridian.MS","brand":"BMW","website":"www.bmwofmeridian.com","address":"2000 MS-39","city":"Meridian","state":"MS","zip":39301,"latitude":32.3803137,"longitude":-88.6804829,"phone_number_service":"6014838131","phone_number_main":"6014838131","service_hours":"Mo-Fr 07:30 - 17:30","utc_offset":"-300","gplace_id":null,"gplace_url":"https://maps.google.com/?cid=3440695219258541783","dealerID":76366,"trusted":false,"image_id":"v1597283982/bmw_RM.png","phone":"6014838131","cityStateSlug":"meridian.ms","slug":"Meridian.MS/bmw+of+meridian","location":"32.3803137,-88.6804829","brandsList":["bmw"]},{"id":5762,"crm_id":97603042,"name":"Gray-Daniels Lincoln","dealerSlug":"gray+daniels+lincoln","city_state_slug":"Brandon.MS","brand":"Lincoln","website":"www.graydanielslincoln.com","address":"201 Octavia Drive","city":"Brandon","state":"MS","zip":39042,"latitude":32.2822532,"longitude":-90.0352479,"phone_number_service":"8556380107","phone_number_main":"6017247374","service_hours":"Mo-Fr 07:00 - 18:00 | Sa 07:00 - 14:00","utc_offset":"-300","gplace_id":null,"gplace_url":"https://maps.google.com/?cid=557127322381644047","dealerID":76384,"trusted":false,"image_id":"v1597283942/lincoln_RM.png","phone":"8556380107","cityStateSlug":"brandon.ms","slug":"Brandon.MS/gray+daniels+lincoln","location":"32.2822532,-90.0352479","brandsList":["lincoln"]},{"id":6385,"crm_id":98682826,"name":"Herrin-Gear BMW","dealerSlug":"herrin+gear+bmw","city_state_slug":"Jackson.MS","brand":"BMW","website":"www.herringearbmw.com","address":"1685 High St","city":"Jackson","state":"MS","zip":39202,"latitude":32.3004566,"longitude":-90.1653734,"phone_number_service":"6013084483","phone_number_main":"6013542269","service_hours":"Mo-Fr 07:30 - 17:30","utc_offset":"-300","gplace_id":null,"gplace_url":"https://maps.google.com/?cid=18325201634831637330","dealerID":51273,"trusted":true,"image_id":"v1597283982/bmw_RM.png","phone":"6013084483","cityStateSlug":"jackson.ms","slug":"Jackson.MS/herrin+gear+bmw","location":"32.3004566,-90.1653734","brandsList":["bmw"]},{"id":9755,"crm_id":107823961,"name":"Mercedes-Benz of Jackson","dealerSlug":"mercedes+benz+of+jackson","city_state_slug":"Ridgeland.MS","brand":"Mercedes-Benz","website":"www.mercedesofjackson.com","address":"455 Steed Rd","city":"Ridgeland","state":"MS","zip":39157,"latitude":32.4386974,"longitude":-90.1424223,"phone_number_service":"6019564211","phone_number_main":"6019564211","service_hours":"Mo-Fr 07:30 - 18:00 | Sa 08:00 - 17:00","utc_offset":"-300","gplace_id":null,"gplace_url":"https://maps.google.com/?cid=8188516152480043498","dealerID":51509,"trusted":true,"image_id":"v1597283934/mercedes_RM.png","phone":"6019564211","cityStateSlug":"ridgeland.ms","slug":"Ridgeland.MS/mercedes+benz+of+jackson","location":"32.4386974,-90.1424223","brandsList":["mercedes-benz"]},{"id":10706,"crm_id":115220265,"name":"Nissan of Corinth","dealerSlug":"nissan+of+corinth","city_state_slug":"Corinth.MS","brand":"Nissan","website":"corinthnissan.com","address":"813 S Parkway St","city":"Corinth","state":"MS","zip":38834,"latitude":34.9176249,"longitude":-88.5052106,"phone_number_service":"8883362931","phone_number_main":"6622866006","service_hours":"Mo-Sa 07:30 - 17:00","utc_offset":"-300","gplace_id":null,"gplace_url":"https://maps.google.com/?cid=16057176437595411216","dealerID":76993,"trusted":false,"image_id":"v1597283926/nissan_RM.png","phone":"8883362931","cityStateSlug":"corinth.ms","slug":"Corinth.MS/nissan+of+corinth","location":"34.9176249,-88.5052106","brandsList":["nissan"]},{"id":2687,"crm_id":115220279,"name":"CDJR of Corinth","dealerSlug":"cdjr+of+corinth","city_state_slug":"Corinth.MS","brand":"Chrysler,Dodge,Jeep,RAM","website":"www.corinthcdjr.com","address":"813 S Parkway St","city":"Corinth","state":"MS","zip":38834,"latitude":34.9174766,"longitude":-88.5052871,"phone_number_service":"6622866006","phone_number_main":"6622866006","service_hours":"Mo-Fr 08:00 - 17:00","utc_offset":"-300","gplace_id":null,"gplace_url":"https://maps.google.com/?cid=18106918240896227573","dealerID":76994,"trusted":false,"image_id":"v1597283975/chrysler_RM.png","phone":"6622866006","cityStateSlug":"corinth.ms","slug":"Corinth.MS/cdjr+of+corinth","location":"34.9174766,-88.5052871","brandsList":["chrysler","dodge","jeep","ram"]}]