[{"id":17917,"crm_id":999,"name":"Ressler Chevrolet","dealerSlug":"ressler+chevrolet","city_state_slug":"Bozeman.MT","brand":"Chevrolet","website":"www.resslermotors.com","address":"8474 Huffine Ln","city":"Bozeman","state":"MT","zip":59718,"latitude":45.66971,"longitude":-111.127234,"phone_number_service":"4065875501","phone_number_main":"","service_hours":"Mo-Fr 07:30 - 18:00 | Sa 08:00 - 17:00","utc_offset":"","gplace_id":0,"gplace_url":"","dealerID":60040,"trusted":false,"image_id":"v1597284079/chevy_ms.png","phone":"4065875501","cityStateSlug":"bozeman.mt","slug":"Bozeman.MT/ressler+chevrolet","location":"45.66971,-111.127234","brandsList":["chevrolet"]},{"id":17918,"crm_id":999,"name":"Ressler Cadillac","dealerSlug":"ressler+cadillac","city_state_slug":"Bozeman.MT","brand":"Cadillac","website":"www.resslermotors.com","address":"8474 Huffine Ln","city":"Bozeman","state":"MT","zip":59718,"latitude":45.66971,"longitude":-111.127234,"phone_number_service":"4065514205","phone_number_main":"","service_hours":"Mo-Fr 07:30 - 18:00 | Sa 08:00 - 17:00","utc_offset":"","gplace_id":0,"gplace_url":"","dealerID":60041,"trusted":false,"image_id":"v1597283980/cadillac.png","phone":"4065514205","cityStateSlug":"bozeman.mt","slug":"Bozeman.MT/ressler+cadillac","location":"45.66971,-111.127234","brandsList":["cadillac"]},{"id":17916,"crm_id":999,"name":"Volkswagen of Bozeman","dealerSlug":"volkswagen+of+bozeman","city_state_slug":"Bozeman.MT","brand":"Volkswagen","website":"www.resslermotors.com","address":"31908 Frontage Road","city":"Bozeman","state":"MT","zip":59718,"latitude":45.6725,"longitude":-111.000894,"phone_number_service":"4065875501","phone_number_main":"","service_hours":"Mo-Fr 07:30 - 18:00 | Sa 08:00 - 17:00","utc_offset":"","gplace_id":0,"gplace_url":"","dealerID":60042,"trusted":false,"image_id":"v1597283902/volkswagen.png","phone":"4065875501","cityStateSlug":"bozeman.mt","slug":"Bozeman.MT/volkswagen+of+bozeman","location":"45.6725,-111.000894","brandsList":["volkswagen"]},{"id":16608,"crm_id":999,"name":"Hi-Line Ford","dealerSlug":"hi+line+ford","city_state_slug":"Glasgow.MT","brand":"Ford","website":"www.hilineford.net","address":"54319 Hwy 2 East","city":"Glasgow","state":"MT","zip":59230,"latitude":48.189353,"longitude":-106.607041,"phone_number_service":"8665282141","phone_number_main":"","service_hours":"Mo-Fr 08:00 - 17:00 | Sa 08:00 - 12:00 | Su Closed","utc_offset":"","gplace_id":0,"gplace_url":"","dealerID":60301,"trusted":false,"image_id":"v1597283967/ford_RM.png","phone":"8665282141","cityStateSlug":"glasgow.mt","slug":"Glasgow.MT/hi+line+ford","location":"48.189353,-106.607041","brandsList":["ford"]},{"id":16722,"crm_id":999,"name":"Jamieson Motors","dealerSlug":"jamieson+motors","city_state_slug":"Chinook.MT","brand":"Chrysler,Dodge,Jeep,RAM","website":"www.jamiesonmotors.net","address":"115 Hwy 2 West","city":"Chinook","state":"MT","zip":59523,"latitude":48.594572,"longitude":-109.231542,"phone_number_service":"4063572470","phone_number_main":"","service_hours":"Mo-Fr 08:00 - 17:30 | Sa-Su Closed","utc_offset":"","gplace_id":0,"gplace_url":"","dealerID":60522,"trusted":false,"image_id":"v1597283975/chrysler_RM.png","phone":"4063572470","cityStateSlug":"chinook.mt","slug":"Chinook.MT/jamieson+motors","location":"48.594572,-109.231542","brandsList":["chrysler","dodge","jeep","ram"]},{"id":16799,"crm_id":999,"name":"Kalispell Ford","dealerSlug":"kalispell+ford","city_state_slug":"Kalispell.MT","brand":"Ford","website":"www.kalispellford.com","address":"2000 Rose Crossing","city":"Kalispell","state":"MT","zip":59901,"latitude":48.254446,"longitude":-114.329721,"phone_number_service":"4067553673","phone_number_main":"","service_hours":"Mo-Fr 08:00 - 18:00 | Sa 09:00 - 18:00 | Su Closed","utc_offset":"","gplace_id":0,"gplace_url":"","dealerID":60821,"trusted":false,"image_id":"v1597283967/ford_RM.png","phone":"4067553673","cityStateSlug":"kalispell.mt","slug":"Kalispell.MT/kalispell+ford","location":"48.254446,-114.329721","brandsList":["ford"]},{"id":15940,"crm_id":999,"name":"Bell-McCall Company","dealerSlug":"bell+mccall+company","city_state_slug":"Hamilton.MT","brand":"Ford","website":"www.bellmccall.com","address":"300 West Main","city":"Hamilton","state":"MT","zip":59840,"latitude":46.247037,"longitude":-114.158842,"phone_number_service":"4063632011","phone_number_main":"","service_hours":"Mo-Fr 08:00 - 17:30 | Sa 09:00 - 15:00 | Su Closed","utc_offset":"","gplace_id":0,"gplace_url":"","dealerID":61072,"trusted":false,"image_id":"v1597283967/ford_RM.png","phone":"4063632011","cityStateSlug":"hamilton.mt","slug":"Hamilton.MT/bell+mccall+company","location":"46.247037,-114.158842","brandsList":["ford"]},{"id":17090,"crm_id":999,"name":"Mills Motor Co.","dealerSlug":"mills+motor+co","city_state_slug":"Fairfield.MT","brand":"Ford","website":"www.millsmotor.net","address":"302 Central Avenue","city":"Fairfield","state":"MT","zip":59436,"latitude":47.614716,"longitude":-111.982767,"phone_number_service":"4064672511","phone_number_main":"","service_hours":"Mo-Sa 08:00 - 17:00 | Su Closed","utc_offset":"","gplace_id":0,"gplace_url":"","dealerID":61084,"trusted":false,"image_id":"v1597283967/ford_RM.png","phone":"4064672511","cityStateSlug":"fairfield.mt","slug":"Fairfield.MT/mills+motor+co","location":"47.614716,-111.982767","brandsList":["ford"]},{"id":16817,"crm_id":999,"name":"Kenny Simpson Nissan","dealerSlug":"kenny+simpson+nissan","city_state_slug":"Helena.MT","brand":"Nissan","website":"www.kennysimpsonnissan.com","address":"3135 PROSPECT DR","city":"Helena","state":"MT","zip":59601,"latitude":46.590145,"longitude":-111.982586,"phone_number_service":"4064422886","phone_number_main":"","service_hours":"Mo-Fr 08:30 - 19:00\n | Sa 09:00 - 18:00\n | Su Closed","utc_offset":"","gplace_id":0,"gplace_url":"","dealerID":61121,"trusted":false,"image_id":"v1597283926/nissan_RM.png","phone":"4064422886","cityStateSlug":"helena.mt","slug":"Helena.MT/kenny+simpson+nissan","location":"46.590145,-111.982586","brandsList":["nissan"]},{"id":16205,"crm_id":999,"name":"Courtesy Ford","dealerSlug":"courtesy+ford","city_state_slug":"Conrad.MT","brand":"Ford","website":"www.courtesyfordconrad.com","address":"514 South Main","city":"Conrad","state":"MT","zip":16602,"latitude":48.167127,"longitude":-111.94817,"phone_number_service":"4062785533","phone_number_main":"","service_hours":"Mo-Fr 08:00 - 17:00 | Sa-Su Closed","utc_offset":"","gplace_id":0,"gplace_url":"","dealerID":61370,"trusted":false,"image_id":"v1597283967/ford_RM.png","phone":"4062785533","cityStateSlug":"conrad.mt","slug":"Conrad.MT/courtesy+ford","location":"48.167127,-111.94817","brandsList":["ford"]},{"id":17379,"crm_id":999,"name":"Rehbein Ford","dealerSlug":"rehbein+ford","city_state_slug":"Plains.MT","brand":"Ford","website":"www.REHBEINFORD.com","address":"7467 MT Highway 200","city":"Plains","state":"MT","zip":59859,"latitude":47.474959,"longitude":-114.898019,"phone_number_service":"4068263381","phone_number_main":"","service_hours":"Mo-Sa 09:00 - 17:00 | Su Closed","utc_offset":"","gplace_id":0,"gplace_url":"","dealerID":61551,"trusted":false,"image_id":"v1597283967/ford_RM.png","phone":"4068263381","cityStateSlug":"plains.mt","slug":"Plains.MT/rehbein+ford","location":"47.474959,-114.898019","brandsList":["ford"]},{"id":15860,"crm_id":999,"name":"Audi Bozeman","dealerSlug":"audi+bozeman","city_state_slug":"Bozeman.MT","brand":"Audi","website":"www.audibozeman.com","address":"Frontage Road 31908","city":"Bozeman","state":"MT","zip":59715,"latitude":45.6725,"longitude":-111.001,"phone_number_service":"9102024662","phone_number_main":"","service_hours":"Mo-Fr 08:00 - 18:00 | Sa 09:00 - 17:00","utc_offset":"","gplace_id":0,"gplace_url":"","dealerID":61718,"trusted":false,"image_id":"v1597283985/audi_RM.png","phone":"9102024662","cityStateSlug":"bozeman.mt","slug":"Bozeman.MT/audi+bozeman","location":"45.6725,-111.001","brandsList":["audi"]},{"id":16041,"crm_id":999,"name":"Bozeman Audi","dealerSlug":"bozeman+audi","city_state_slug":"Bozeman.MT","brand":"Audi","website":"www.bozemanaudi.com","address":"W Main St 1800","city":"Bozeman","state":"MT","zip":59715,"latitude":45.6788,"longitude":-111.061,"phone_number_service":"","phone_number_main":"","service_hours":"","utc_offset":"","gplace_id":0,"gplace_url":"","dealerID":61772,"trusted":false,"image_id":"v1597283985/audi_RM.png","phone":null,"cityStateSlug":"bozeman.mt","slug":"Bozeman.MT/bozeman+audi","location":"45.6788,-111.061","brandsList":["audi"]},{"id":12349,"crm_id":50863000,"name":"Rimrock GMC","dealerSlug":"rimrock+gmc","city_state_slug":"Billings.MT","brand":"GMC","website":"www.rimrockgm.com","address":"840 Shiloh Rd","city":"Billings","state":"MT","zip":59106,"latitude":45.7537329,"longitude":-108.6193099,"phone_number_service":"8772630862","phone_number_main":"4066515000","service_hours":"Mo-Fr 07:00 - 17:30 | Sa 08:00 - 14:00","utc_offset":"-360","gplace_id":null,"gplace_url":"https://maps.google.com/?cid=4230514612934912979","dealerID":61861,"trusted":false,"image_id":"v1597283963/gmc_RM.png","phone":"8772630862","cityStateSlug":"billings.mt","slug":"Billings.MT/rimrock+gmc","location":"45.7537329,-108.6193099","brandsList":["gmc"]},{"id":1532,"crm_id":60526819,"name":"Billion Dodge Chrysler Jeep","dealerSlug":"billion+dodge+chrysler+jeep","city_state_slug":"Bozeman.MT","brand":"Chrysler,Dodge,Jeep,RAM","website":"www.billiondodgechryslerjeep.com","address":"355 Automotive Ave","city":"Bozeman","state":"MT","zip":59718,"latitude":45.6756802,"longitude":-111.1067595,"phone_number_service":"4064048860","phone_number_main":"4062190427","service_hours":"Mo-Fr 07:00 - 18:00 | Sa 08:00 - 17:00","utc_offset":"-360","gplace_id":null,"gplace_url":"https://maps.google.com/?cid=2733163364937663373","dealerID":62460,"trusted":false,"image_id":"v1597283975/chrysler_RM.png","phone":"4064048860","cityStateSlug":"bozeman.mt","slug":"Bozeman.MT/billion+dodge+chrysler+jeep","location":"45.6756802,-111.1067595","brandsList":["chrysler","dodge","jeep","ram"]},{"id":3345,"crm_id":67034062,"name":"Corwin Honda Kalispell","dealerSlug":"corwin+honda+kalispell","city_state_slug":"Kalispell.MT","brand":"Honda","website":"www.corwinhondakalispell.com","address":"2545 Highway 93 North","city":"Kalispell","state":"MT","zip":59901,"latitude":48.2428207,"longitude":-114.3288037,"phone_number_service":"4067557414","phone_number_main":"4067557414","service_hours":"Mo-Fr 07:00 - 18:00 | Sa 08:00 - 17:00","utc_offset":"-360","gplace_id":null,"gplace_url":"https://maps.google.com/?cid=9407221123195979941","dealerID":63332,"trusted":false,"image_id":"v1597284047/honda_ms.png","phone":"4067557414","cityStateSlug":"kalispell.mt","slug":"Kalispell.MT/corwin+honda+kalispell","location":"48.2428207,-114.3288037","brandsList":["honda"]},{"id":10067,"crm_id":67034278,"name":"Mildenberger Motors","dealerSlug":"mildenberger+motors","city_state_slug":"Hamilton.MT","brand":"Buick,Cadillac,Chevrolet,GMC","website":"www.mildenbergermotors.com","address":"1717 N 1st St","city":"Hamilton","state":"MT","zip":59840,"latitude":46.2697507,"longitude":-114.1592527,"phone_number_service":"8773922697","phone_number_main":"4066263050","service_hours":"Mo-Fr 08:00 - 17:30","utc_offset":"-360","gplace_id":null,"gplace_url":"https://maps.google.com/?cid=394968891686630251","dealerID":63387,"trusted":false,"image_id":"v1597283981/buick_RM.png","phone":"8773922697","cityStateSlug":"hamilton.mt","slug":"Hamilton.MT/mildenberger+motors","location":"46.2697507,-114.1592527","brandsList":["buick","cadillac","chevrolet","gmc"]},{"id":14250,"crm_id":67034578,"name":"Tilleman Motor Company","dealerSlug":"tilleman+motor+company","city_state_slug":"Havre.MT","brand":"Buick,Chevrolet,GMC","website":"www.tillemanmotor.com","address":"4514 W. US Hwy 2 / PO Box 2070","city":"Havre","state":"MT","zip":59501,"latitude":48.554673,"longitude":-109.751166,"phone_number_service":"4063955555","phone_number_main":"4063955555","service_hours":"Mo-Fr 08:00 - 17:30 | Sa 08:00 - 15:00","utc_offset":"-360","gplace_id":null,"gplace_url":"https://maps.google.com/?cid=12314325655679081825","dealerID":63474,"trusted":false,"image_id":"v1597283981/buick_RM.png","phone":"4063955555","cityStateSlug":"havre.mt","slug":"Havre.MT/tilleman+motor+company","location":"48.554673,-109.751166","brandsList":["buick","chevrolet","gmc"]},{"id":5453,"crm_id":67035262,"name":"Gem City Motors","dealerSlug":"gem+city+motors","city_state_slug":"Sidney.MT","brand":"Buick,Chevrolet","website":"www.gemcitymotors.com","address":"701 S Central Ave","city":"Sidney","state":"MT","zip":59270,"latitude":47.7093219,"longitude":-104.1612959,"phone_number_service":"4064331705","phone_number_main":"4064333120","service_hours":"Mo-Fr 08:00 - 17:00","utc_offset":"-360","gplace_id":null,"gplace_url":"https://maps.google.com/?cid=9962078143538657130","dealerID":63659,"trusted":false,"image_id":"v1597283981/buick_RM.png","phone":"4064331705","cityStateSlug":"sidney.mt","slug":"Sidney.MT/gem+city+motors","location":"47.7093219,-104.1612959","brandsList":["buick","chevrolet"]},{"id":10889,"crm_id":67035367,"name":"Notbohm Motors","dealerSlug":"notbohm+motors","city_state_slug":"Miles-City.MT","brand":"Buick,Chevrolet","website":"www.notbohmmotors.com","address":"710 Meadows","city":"Miles City","state":"MT","zip":59301,"latitude":46.4013399,"longitude":-105.8195888,"phone_number_service":"8003104482","phone_number_main":"4069440011","service_hours":"Mo-Fr 08:00 - 17:30 | Sa 08:00 - 16:00","utc_offset":"-360","gplace_id":null,"gplace_url":"https://maps.google.com/?cid=11750636675581707616","dealerID":63687,"trusted":false,"image_id":"v1597283981/buick_RM.png","phone":"8003104482","cityStateSlug":"miles-city.mt","slug":"Miles-City.MT/notbohm+motors","location":"46.4013399,-105.8195888","brandsList":["buick","chevrolet"]},{"id":14724,"crm_id":67036654,"name":"Underriner Buick","dealerSlug":"underriner+buick","city_state_slug":"Billings.MT","brand":"Buick","website":"www.underrinergm.com","address":"3671 Pierce Pkwy","city":"Billings","state":"MT","zip":59106,"latitude":45.7338365,"longitude":-108.6093299,"phone_number_service":"4062552380","phone_number_main":"4062552360","service_hours":"Mo-Fr 07:00 - 18:00 | Sa 08:00 - 17:00","utc_offset":"-360","gplace_id":null,"gplace_url":"https://maps.google.com/?cid=3452670977004327868","dealerID":64039,"trusted":false,"image_id":"v1597283981/buick_RM.png","phone":"4062552380","cityStateSlug":"billings.mt","slug":"Billings.MT/underriner+buick","location":"45.7338365,-108.6093299","brandsList":["buick"]},{"id":7690,"crm_id":67038961,"name":"Karl Tyler Chevrolet","dealerSlug":"karl+tyler+chevrolet","city_state_slug":"Missoula.MT","brand":"Chevrolet","website":"www.gmofmontana.com","address":"3663 N Reserve St","city":"Missoula","state":"MT","zip":59808,"latitude":46.9048768,"longitude":-114.0410323,"phone_number_service":"4067211581","phone_number_main":"4067212438","service_hours":"Mo-Fr 07:30 - 18:00","utc_offset":"-360","gplace_id":null,"gplace_url":"https://maps.google.com/?cid=3556046720420955591","dealerID":64683,"trusted":false,"image_id":"v1597284079/chevy_ms.png","phone":"4067211581","cityStateSlug":"missoula.mt","slug":"Missoula.MT/karl+tyler+chevrolet","location":"46.9048768,-114.0410323","brandsList":["chevrolet"]},{"id":11572,"crm_id":67039069,"name":"Placer Subaru","dealerSlug":"placer+subaru","city_state_slug":"Helena.MT","brand":"Subaru","website":"www.placermotors.com","address":"1515 Euclid Ave","city":"Helena","state":"MT","zip":59601,"latitude":46.603324,"longitude":-112.058165,"phone_number_service":"8886917610","phone_number_main":"8886917610","service_hours":"Mo-Fr 07:30 - 17:30","utc_offset":"-360","gplace_id":null,"gplace_url":"https://maps.google.com/?cid=5869065642971786648","dealerID":64713,"trusted":false,"image_id":"v1597283982/subaru_ms.png","phone":"8886917610","cityStateSlug":"helena.mt","slug":"Helena.MT/placer+subaru","location":"46.603324,-112.058165","brandsList":["subaru"]},{"id":397,"crm_id":67039450,"name":"Archie Cochrane Ford","dealerSlug":"archie+cochrane+ford","city_state_slug":"Billings.MT","brand":"Ford","website":"www.billingsford.com/","address":"2133 King Ave W","city":"Billings","state":"MT","zip":59102,"latitude":45.7559682,"longitude":-108.5704467,"phone_number_service":"4066561104","phone_number_main":"4066561100","service_hours":"Mo-Fr 07:30 - 18:00 | Sa 07:30 - 16:00","utc_offset":"-360","gplace_id":null,"gplace_url":"https://maps.google.com/?cid=8886030836702360992","dealerID":64812,"trusted":false,"image_id":"v1597283967/ford_RM.png","phone":"4066561104","cityStateSlug":"billings.mt","slug":"Billings.MT/archie+cochrane+ford","location":"45.7559682,-108.5704467","brandsList":["ford"]},{"id":4071,"crm_id":67039987,"name":"Don Aadsen Ford","dealerSlug":"don+aadsen+ford","city_state_slug":"Ronan.MT","brand":"Ford","website":"www.donaadsenford.com","address":"64194 US Highway 93","city":"Ronan","state":"MT","zip":59864,"latitude":47.514274,"longitude":-114.095871,"phone_number_service":"4064126232","phone_number_main":"4066764420","service_hours":"Mo-Fr 08:00 - 18:00","utc_offset":"-360","gplace_id":null,"gplace_url":"https://maps.google.com/?cid=3125375514680425840","dealerID":64966,"trusted":false,"image_id":"v1597283967/ford_RM.png","phone":"4064126232","cityStateSlug":"ronan.mt","slug":"Ronan.MT/don+aadsen+ford","location":"47.514274,-114.095871","brandsList":["ford"]},{"id":4119,"crm_id":67040044,"name":"Don K Subaru","dealerSlug":"don+k+subaru","city_state_slug":"Whitefish.MT","brand":"Subaru","website":"www.donksubaru.com","address":"6219 Highway 93 South","city":"Whitefish","state":"MT","zip":59937,"latitude":48.3864751,"longitude":-114.3368339,"phone_number_service":"8885417714","phone_number_main":"8773446472","service_hours":"Mo-Fr 07:30 - 17:30 | Sa 08:00 -16:00","utc_offset":"-360","gplace_id":null,"gplace_url":"https://maps.google.com/?cid=9841841966365529276","dealerID":64981,"trusted":false,"image_id":"v1597283982/subaru_ms.png","phone":"8885417714","cityStateSlug":"whitefish.mt","slug":"Whitefish.MT/don+k+subaru","location":"48.3864751,-114.3368339","brandsList":["subaru"]},{"id":1200,"crm_id":67040848,"name":"Bell Motor Company","dealerSlug":"bell+motor+company","city_state_slug":"Cut-Bank.MT","brand":"Buick,Chevrolet","website":"www.bellmotorco.com","address":"121 E Main St","city":"Cut Bank","state":"MT","zip":59427,"latitude":48.6353671,"longitude":-112.329693,"phone_number_service":"8668780950","phone_number_main":"8668780950","service_hours":"Mo-Fr 08:00 - 17:00","utc_offset":"-360","gplace_id":null,"gplace_url":"https://maps.google.com/?cid=5116803764932106180","dealerID":65188,"trusted":false,"image_id":"v1597283981/buick_RM.png","phone":"8668780950","cityStateSlug":"cut-bank.mt","slug":"Cut-Bank.MT/bell+motor+company","location":"48.6353671,-112.329693","brandsList":["buick","chevrolet"]},{"id":5794,"crm_id":67041247,"name":"Green Nissan","dealerSlug":"green+nissan","city_state_slug":"Kalispell.MT","brand":"Nissan","website":"www.greennissankalispell.com","address":"2915 U.S. 93 S","city":"Kalispell","state":"MT","zip":59901,"latitude":48.1633338,"longitude":-114.2866533,"phone_number_service":"4062030189","phone_number_main":"4067552277","service_hours":"Mo-Fr 08:00 - 18:00 | Sa 08:00 - 17:00","utc_offset":"-360","gplace_id":null,"gplace_url":"https://maps.google.com/?cid=11982812174845767408","dealerID":65288,"trusted":false,"image_id":"v1597283926/nissan_RM.png","phone":"4062030189","cityStateSlug":"kalispell.mt","slug":"Kalispell.MT/green+nissan","location":"48.1633338,-114.2866533","brandsList":["nissan"]},{"id":2980,"crm_id":67042285,"name":"City Motor Company","dealerSlug":"city+motor+company","city_state_slug":"Great-Falls.MT","brand":"Cadillac,Chevrolet","website":"www.citymotorgm.com","address":"3900 10th Ave S","city":"Great Falls","state":"MT","zip":59405,"latitude":47.4930252,"longitude":-111.2388021,"phone_number_service":"8774072291","phone_number_main":"4067614900","service_hours":"Mo-Fr 07:30 - 17:00","utc_offset":"-360","gplace_id":null,"gplace_url":"https://maps.google.com/?cid=16323320522532104147","dealerID":65562,"trusted":false,"image_id":"v1597283980/cadillac.png","phone":"8774072291","cityStateSlug":"great-falls.mt","slug":"Great-Falls.MT/city+motor+company","location":"47.4930252,-111.2388021","brandsList":["cadillac","chevrolet"]},{"id":2373,"crm_id":67042444,"name":"Butte Subaru","dealerSlug":"butte+subaru","city_state_slug":"Butte.MT","brand":"Subaru","website":"www.subaruofbutte.com/","address":"3801 Harrison Ave","city":"Butte","state":"MT","zip":59701,"latitude":45.9673515,"longitude":-112.5087879,"phone_number_service":"8884680565","phone_number_main":"4064947076","service_hours":"Mo-Fr 07:30 - 17:30","utc_offset":"-360","gplace_id":null,"gplace_url":"https://maps.google.com/?cid=9257374536963456963","dealerID":65601,"trusted":false,"image_id":"v1597283982/subaru_ms.png","phone":"8884680565","cityStateSlug":"butte.mt","slug":"Butte.MT/butte+subaru","location":"45.9673515,-112.5087879","brandsList":["subaru"]},{"id":3340,"crm_id":67042987,"name":"Corwin Cadillac Kalispell","dealerSlug":"corwin+cadillac+kalispell","city_state_slug":"Kalispell.MT","brand":"Cadillac","website":"www.corwincadillackalispell.com","address":"2565 Hwy 93 North","city":"Kalispell","state":"MT","zip":59901,"latitude":48.2426757,"longitude":-114.3293151,"phone_number_service":"4063003111","phone_number_main":"4062786512","service_hours":"Mo-Fr 07:00 - 18:00 | Sa 08:00 - 17:00","utc_offset":"-360","gplace_id":null,"gplace_url":"https://maps.google.com/?cid=997531411207856766","dealerID":65759,"trusted":false,"image_id":"v1597283980/cadillac.png","phone":"4063003111","cityStateSlug":"kalispell.mt","slug":"Kalispell.MT/corwin+cadillac+kalispell","location":"48.2426757,-114.3293151","brandsList":["cadillac"]},{"id":6232,"crm_id":67043725,"name":"Helena Toyota","dealerSlug":"helena+toyota","city_state_slug":"Helena.MT","brand":"Toyota","website":"helenatoyota.com","address":"3365 U.S EAST HIGHWAY 12","city":"Helena","state":"MT","zip":59601,"latitude":46.59003,"longitude":-111.967854,"phone_number_service":"8883139899","phone_number_main":"4064426310","service_hours":"Mo-Fr 07:30 - 18:00| Sa 08:00 - 15:00","utc_offset":"-360","gplace_id":null,"gplace_url":"https://maps.google.com/?cid=5245800434202588608","dealerID":65969,"trusted":false,"image_id":"v1597284039/toyota_ms.png","phone":"8883139899","cityStateSlug":"helena.mt","slug":"Helena.MT/helena+toyota","location":"46.59003,-111.967854","brandsList":["toyota"]},{"id":8871,"crm_id":67043758,"name":"Lithia Chrysler Jeep Dodge of Great Falls","dealerSlug":"lithia+chrysler+jeep+dodge+of+great+falls","city_state_slug":"Great-Falls.MT","brand":"Chrysler,Dodge,Jeep,RAM","website":"www.lithiachryslergreatfalls.com","address":"4025 10th Ave S","city":"Great Falls","state":"MT","zip":59405,"latitude":47.494538,"longitude":-111.2364068,"phone_number_service":"8442687908","phone_number_main":"8442886677","service_hours":"Mo-Fr 07:00 - 18:00 | Sa 07:00 - 18:00","utc_offset":"-360","gplace_id":null,"gplace_url":"https://maps.google.com/?cid=12267187383942054060","dealerID":65979,"trusted":false,"image_id":"v1597283975/chrysler_RM.png","phone":"8442687908","cityStateSlug":"great-falls.mt","slug":"Great-Falls.MT/lithia+chrysler+jeep+dodge+of+great+falls","location":"47.494538,-111.2364068","brandsList":["chrysler","dodge","jeep","ram"]},{"id":3945,"crm_id":67045924,"name":"Denny Menholt Ford","dealerSlug":"denny+menholt+ford","city_state_slug":"Butte.MT","brand":"Ford","website":"www.dennymenholtford.net","address":"50 Ford Lane","city":"Butte","state":"MT","zip":59701,"latitude":45.9689996,"longitude":-112.5049701,"phone_number_service":"4062999099","phone_number_main":"4064946333","service_hours":"Mo-Fr 07:30 - 18:00","utc_offset":"-360","gplace_id":null,"gplace_url":"https://maps.google.com/?cid=14730612628991765528","dealerID":66552,"trusted":false,"image_id":"v1597283967/ford_RM.png","phone":"4062999099","cityStateSlug":"butte.mt","slug":"Butte.MT/denny+menholt+ford","location":"45.9689996,-112.5049701","brandsList":["ford"]},{"id":5791,"crm_id":67046413,"name":"Green Hyundai","dealerSlug":"green+hyundai","city_state_slug":"Kalispell.MT","brand":"Hyundai","website":"www.greenhyundaikalispell.com","address":"2955 US-93 S","city":"Kalispell","state":"MT","zip":59901,"latitude":48.1628541,"longitude":-114.2865968,"phone_number_service":"8889024463","phone_number_main":"4067555274","service_hours":"Mo-Sa 08:00 - 17:00","utc_offset":"-360","gplace_id":null,"gplace_url":"https://maps.google.com/?cid=12098966644802572005","dealerID":66672,"trusted":false,"image_id":"v1597283959/hyundai_RM.png","phone":"8889024463","cityStateSlug":"kalispell.mt","slug":"Kalispell.MT/green+hyundai","location":"48.1628541,-114.2865968","brandsList":["hyundai"]},{"id":3947,"crm_id":67046671,"name":"Denny Menholt Nissan","dealerSlug":"denny+menholt+nissan","city_state_slug":"Billings.MT","brand":"Nissan","website":"www.billingsnissan.com","address":"3710 Zoo Dr","city":"Billings","state":"MT","zip":59106,"latitude":45.735073,"longitude":-108.610824,"phone_number_service":"8552277058","phone_number_main":"4066551111","service_hours":"Mo-Fr 07:00 - 18:00 | Sa 08:00 - 17:00","utc_offset":"-360","gplace_id":null,"gplace_url":"https://maps.google.com/?cid=17834893304815719395","dealerID":66745,"trusted":false,"image_id":"v1597283926/nissan_RM.png","phone":"8552277058","cityStateSlug":"billings.mt","slug":"Billings.MT/denny+menholt+nissan","location":"45.735073,-108.610824","brandsList":["nissan"]},{"id":8904,"crm_id":67046959,"name":"Lithia Toyota of Billings","dealerSlug":"lithia+toyota+of+billings","city_state_slug":"Billings.MT","brand":"Toyota","website":"www.lithiatoyotabillings.com","address":"1532 Grand Ave","city":"Billings","state":"MT","zip":59102,"latitude":45.7833636,"longitude":-108.5549048,"phone_number_service":"4065450129","phone_number_main":"4065450381","service_hours":"Mo-Fr 07:00 - 18:00 | Sa 08:00 - 15:00","utc_offset":"-360","gplace_id":null,"gplace_url":"https://maps.google.com/?cid=7777303653152521836","dealerID":66820,"trusted":false,"image_id":"v1597284039/toyota_ms.png","phone":"4065450129","cityStateSlug":"billings.mt","slug":"Billings.MT/lithia+toyota+of+billings","location":"45.7833636,-108.5549048","brandsList":["toyota"]},{"id":14725,"crm_id":67048321,"name":"Underriner Honda","dealerSlug":"underriner+honda","city_state_slug":"Billings.MT","brand":"Honda","website":"www.underrinerhonda.com","address":"3643 Pierce Pkwy","city":"Billings","state":"MT","zip":59106,"latitude":45.7347333,"longitude":-108.6089528,"phone_number_service":"4062552315","phone_number_main":"4062552350","service_hours":"Mo-Fr  08:00 - 17:00 | Sa 08:00 - 16:00","utc_offset":"-360","gplace_id":null,"gplace_url":"https://maps.google.com/?cid=11635956126730507533","dealerID":67191,"trusted":false,"image_id":"v1597284047/honda_ms.png","phone":"4062552315","cityStateSlug":"billings.mt","slug":"Billings.MT/underriner+honda","location":"45.7347333,-108.6089528","brandsList":["honda"]},{"id":4120,"crm_id":67048423,"name":"Don K Chrysler Dodge Jeep RAM","dealerSlug":"don+k+chrysler+dodge+jeep+ram","city_state_slug":"Whitefish.MT","brand":"Chrysler,Dodge,Jeep,RAM","website":"www.donkchryslerdodgejeepram.com","address":"6219 Hwy 93 S","city":"Whitefish","state":"MT","zip":59937,"latitude":48.386137,"longitude":-114.3346711,"phone_number_service":"4069626433","phone_number_main":"4068622571","service_hours":"Mo-Fr 07:30 - 17:30 | Sa 08:00 - 16:00","utc_offset":"-360","gplace_id":null,"gplace_url":"https://maps.google.com/?cid=1200834051264758310","dealerID":67217,"trusted":false,"image_id":"v1597283975/chrysler_RM.png","phone":"4069626433","cityStateSlug":"whitefish.mt","slug":"Whitefish.MT/don+k+chrysler+dodge+jeep+ram","location":"48.386137,-114.3346711","brandsList":["chrysler","dodge","jeep","ram"]},{"id":2051,"crm_id":67049152,"name":"Bozeman Ford Lincoln","dealerSlug":"bozeman+ford+lincoln","city_state_slug":"Bozeman.MT","brand":"Ford,Lincoln","website":"www.bozemanford.com","address":"2900 N 19th Ave","city":"Bozeman","state":"MT","zip":59718,"latitude":45.7089131,"longitude":-111.0637681,"phone_number_service":"8553146073","phone_number_main":"4065871221","service_hours":"Mo-Fr  08:00 - 17:00","utc_offset":"-360","gplace_id":null,"gplace_url":"https://maps.google.com/?cid=1541205384690416054","dealerID":67411,"trusted":false,"image_id":"v1597283967/ford_RM.png","phone":"8553146073","cityStateSlug":"bozeman.mt","slug":"Bozeman.MT/bozeman+ford+lincoln","location":"45.7089131,-111.0637681","brandsList":["ford","lincoln"]},{"id":8857,"crm_id":67049617,"name":"Lithia Chevrolet Buick GMC Of Helena","dealerSlug":"lithia+chevrolet+buick+gmc+of+helena","city_state_slug":"Helena.MT","brand":"Buick,Chevrolet,GMC","website":"www.chevrolethelena.com","address":"1501 Cedar St","city":"Helena","state":"MT","zip":59601,"latitude":46.6060464,"longitude":-112.0143587,"phone_number_service":"8669632780","phone_number_main":"4065582346","service_hours":"Mo-Fr 07:00 - 18:00 | Sa 07:30 - 17:00","utc_offset":"-360","gplace_id":null,"gplace_url":"https://maps.google.com/?cid=18114280897136830925","dealerID":67544,"trusted":false,"image_id":"v1597283981/buick_RM.png","phone":"8669632780","cityStateSlug":"helena.mt","slug":"Helena.MT/lithia+chevrolet+buick+gmc+of+helena","location":"46.6060464,-112.0143587","brandsList":["buick","chevrolet","gmc"]},{"id":3883,"crm_id":67051507,"name":"Dee Motor Company","dealerSlug":"dee+motor+company","city_state_slug":"Anaconda.MT","brand":"Chevrolet,Chrysler,Dodge,Jeep,RAM","website":"www.deemotors.com","address":"1200 E Commercial Ave","city":"Anaconda","state":"MT","zip":59711,"latitude":46.1277999,"longitude":-112.9362694,"phone_number_service":"4065635225","phone_number_main":"4065635225","service_hours":"Mo-Fr 08:00 - 17:00","utc_offset":"-360","gplace_id":null,"gplace_url":"https://maps.google.com/?cid=14803302278058035507","dealerID":68061,"trusted":false,"image_id":"v1597284079/chevy_ms.png","phone":"4065635225","cityStateSlug":"anaconda.mt","slug":"Anaconda.MT/dee+motor+company","location":"46.1277999,-112.9362694","brandsList":["chevrolet","chrysler","dodge","jeep","ram"]},{"id":3927,"crm_id":67051753,"name":"Demarois Buick GMC","dealerSlug":"demarois+buick+gmc","city_state_slug":"Missoula.MT","brand":"Buick,GMC","website":"www.demaroismotors.com","address":"3115 W Broadway St","city":"Missoula","state":"MT","zip":59808,"latitude":46.8935433,"longitude":-114.0329756,"phone_number_service":"4065520259","phone_number_main":"4067214000","service_hours":"Mo-Fr 08:00 - 17:00","utc_offset":"-360","gplace_id":null,"gplace_url":"https://maps.google.com/?cid=7098987273851136245","dealerID":68126,"trusted":false,"image_id":"v1597283981/buick_RM.png","phone":"4065520259","cityStateSlug":"missoula.mt","slug":"Missoula.MT/demarois+buick+gmc","location":"46.8935433,-114.0329756","brandsList":["buick","gmc"]},{"id":3926,"crm_id":67051759,"name":"DeMarois Mercedes-Benz","dealerSlug":"demarois+mercedes+benz","city_state_slug":"Missoula.MT","brand":"Mercedes-Benz","website":"www.demarois.mercedesdealer.com","address":"3115 W Broadway St","city":"Missoula","state":"MT","zip":59808,"latitude":46.8935433,"longitude":-114.0329756,"phone_number_service":"8773242860","phone_number_main":"4067214000","service_hours":"Mo-Fr 08:00 - 17:30","utc_offset":"-360","gplace_id":null,"gplace_url":"https://maps.google.com/?cid=7098987273851136245","dealerID":68128,"trusted":false,"image_id":"v1597283934/mercedes_RM.png","phone":"8773242860","cityStateSlug":"missoula.mt","slug":"Missoula.MT/demarois+mercedes+benz","location":"46.8935433,-114.0329756","brandsList":["mercedes-benz"]},{"id":10204,"crm_id":67053661,"name":"Missoula Hyundai","dealerSlug":"missoula+hyundai","city_state_slug":"Missoula.MT","brand":"Hyundai","website":"www.missoulahyundai.com","address":"2715 Brooks St","city":"Missoula","state":"MT","zip":59801,"latitude":46.8457114,"longitude":-114.0233212,"phone_number_service":"4065495178","phone_number_main":"4065495178","service_hours":"Mo-Fr 07:30 - 17:30 | Sa 09:00 - 16:00","utc_offset":"-360","gplace_id":null,"gplace_url":"https://maps.google.com/?cid=927406375048437670","dealerID":68652,"trusted":false,"image_id":"v1597283959/hyundai_RM.png","phone":"4065495178","cityStateSlug":"missoula.mt","slug":"Missoula.MT/missoula+hyundai","location":"46.8457114,-114.0233212","brandsList":["hyundai"]},{"id":6222,"crm_id":67054588,"name":"Heberle Ford","dealerSlug":"heberle+ford","city_state_slug":"Forsyth.MT","brand":"Ford","website":"www.heberleford.com","address":"1825 Front St","city":"Forsyth","state":"MT","zip":59327,"latitude":46.2687859,"longitude":-106.6659728,"phone_number_service":"8669987369","phone_number_main":"4063462221","service_hours":"Mo-Fr 07:00 - 17:00 | Sa 08:00 - 12:00","utc_offset":"-360","gplace_id":null,"gplace_url":"https://maps.google.com/?cid=7729415117522992507","dealerID":68910,"trusted":false,"image_id":"v1597283967/ford_RM.png","phone":"8669987369","cityStateSlug":"forsyth.mt","slug":"Forsyth.MT/heberle+ford","location":"46.2687859,-106.6659728","brandsList":["ford"]},{"id":46,"crm_id":67056064,"name":"Action Auto","dealerSlug":"action+auto","city_state_slug":"Sidney.MT","brand":"Chrysler,Dodge,Jeep,RAM","website":"www.actionautochryslerdodgejeep.com","address":"220 E Main St","city":"Sidney","state":"MT","zip":59270,"latitude":47.7147862,"longitude":-104.1545957,"phone_number_service":"4069051221","phone_number_main":"4064332312","service_hours":"Mo-Fr 07:30 - 17:30","utc_offset":"-360","gplace_id":null,"gplace_url":"https://maps.google.com/?cid=10043688271991307852","dealerID":69311,"trusted":false,"image_id":"v1597283975/chrysler_RM.png","phone":"4069051221","cityStateSlug":"sidney.mt","slug":"Sidney.MT/action+auto","location":"47.7147862,-104.1545957","brandsList":["chrysler","dodge","jeep","ram"]},{"id":10844,"crm_id":67057993,"name":"Northern Ford","dealerSlug":"northern+ford","city_state_slug":"Cut-Bank.MT","brand":"Ford","website":"www.northernford.com","address":"120 W Main St","city":"Cut Bank","state":"MT","zip":59427,"latitude":48.6372112,"longitude":-112.3341771,"phone_number_service":"8338866728","phone_number_main":"4068735541","service_hours":"Mo-Fr 08:00 - 17:00","utc_offset":"-360","gplace_id":null,"gplace_url":"https://maps.google.com/?cid=17314824898312191619","dealerID":69831,"trusted":false,"image_id":"v1597283967/ford_RM.png","phone":"8338866728","cityStateSlug":"cut-bank.mt","slug":"Cut-Bank.MT/northern+ford","location":"48.6372112,-112.3341771","brandsList":["ford"]},{"id":3946,"crm_id":67059862,"name":"Denny Menholt Honda","dealerSlug":"denny+menholt+honda","city_state_slug":"Bozeman.MT","brand":"Honda","website":"www.dennymenholthonda.com","address":"8450 Huffine Ln","city":"Bozeman","state":"MT","zip":59718,"latitude":45.6703007,"longitude":-111.1314048,"phone_number_service":"4062470604","phone_number_main":"4065870761","service_hours":"Mo-Fr 07:30 - 17:30","utc_offset":"-360","gplace_id":null,"gplace_url":"https://maps.google.com/?cid=6538210143333410933","dealerID":70356,"trusted":false,"image_id":"v1597284047/honda_ms.png","phone":"4062470604","cityStateSlug":"bozeman.mt","slug":"Bozeman.MT/denny+menholt+honda","location":"45.6703007,-111.1314048","brandsList":["honda"]},{"id":1149,"crm_id":67060510,"name":"Beartooth Ford","dealerSlug":"beartooth+ford","city_state_slug":"Columbus.MT","brand":"Ford","website":"www.beartoothford.net","address":"44 N. 5TH ST.","city":"Columbus","state":"MT","zip":59019,"latitude":45.6377832,"longitude":-109.2531646,"phone_number_service":"8888537665","phone_number_main":"4063225346","service_hours":"Mo-Fr 07:00 - 18:00","utc_offset":"-360","gplace_id":null,"gplace_url":"https://maps.google.com/?cid=8201879387119048455","dealerID":70535,"trusted":false,"image_id":"v1597283967/ford_RM.png","phone":"8888537665","cityStateSlug":"columbus.mt","slug":"Columbus.MT/beartooth+ford","location":"45.6377832,-109.2531646","brandsList":["ford"]},{"id":8869,"crm_id":67060975,"name":"Lithia Chrysler Jeep Dodge of Billings","dealerSlug":"lithia+chrysler+jeep+dodge+of+billings","city_state_slug":"Billings.MT","brand":"Chrysler,Dodge,Jeep,RAM","website":"www.lithiadodgebillings.com","address":"2229 King Ave W","city":"Billings","state":"MT","zip":59102,"latitude":45.755853,"longitude":-108.572489,"phone_number_service":"8445231135","phone_number_main":"4062063601","service_hours":"Mo-Fr 07:00 - 18:00 | Sa 08:00 - 16:00","utc_offset":"-360","gplace_id":null,"gplace_url":"https://maps.google.com/?cid=14387021431886582649","dealerID":70667,"trusted":false,"image_id":"v1597283975/chrysler_RM.png","phone":"8445231135","cityStateSlug":"billings.mt","slug":"Billings.MT/lithia+chrysler+jeep+dodge+of+billings","location":"45.755853,-108.572489","brandsList":["chrysler","dodge","jeep","ram"]},{"id":8506,"crm_id":67063000,"name":"Laurel Ford","dealerSlug":"laurel+ford","city_state_slug":"Laurel.MT","brand":"Ford","website":"www.laurelford.com","address":"500 SE 4th St","city":"Laurel","state":"MT","zip":59044,"latitude":45.664924,"longitude":-108.766027,"phone_number_service":"8884191602","phone_number_main":"4062384000","service_hours":"Mo-Fr 07:30 - 18:00 | Sa 08:00 - 17:00","utc_offset":"-360","gplace_id":null,"gplace_url":"https://maps.google.com/?cid=11175965896324220325","dealerID":71206,"trusted":false,"image_id":"v1597283967/ford_RM.png","phone":"8884191602","cityStateSlug":"laurel.mt","slug":"Laurel.MT/laurel+ford","location":"45.664924,-108.766027","brandsList":["ford"]},{"id":6095,"crm_id":67068478,"name":"Hardin Chevrolet","dealerSlug":"hardin+chevrolet","city_state_slug":"Hardin.MT","brand":"Chevrolet","website":"www.hardinauto.com","address":"307 Park Rd","city":"Hardin","state":"MT","zip":59034,"latitude":45.7450422,"longitude":-107.6169068,"phone_number_service":"8778111096","phone_number_main":"8778135413","service_hours":"Mo-Fr 08:00 - 17:00","utc_offset":"-360","gplace_id":null,"gplace_url":"https://maps.google.com/?cid=7215621867125655244","dealerID":72629,"trusted":false,"image_id":"v1597284079/chevy_ms.png","phone":"8778111096","cityStateSlug":"hardin.mt","slug":"Hardin.MT/hardin+chevrolet","location":"45.7450422,-107.6169068","brandsList":["chevrolet"]},{"id":15703,"crm_id":67068481,"name":"Yellowstone Country Motors","dealerSlug":"yellowstone+country+motors","city_state_slug":"Livingston.MT","brand":"Chrysler,Dodge,Jeep,RAM","website":"www.yellowstonecountrymotors.net","address":"1415 W Park St","city":"Livingston","state":"MT","zip":59047,"latitude":45.6493123,"longitude":-110.5714565,"phone_number_service":"4062244090","phone_number_main":"8778357597","service_hours":"Mo-Fr 07:00 - 18:00 | Sa 08:00 - 17:00","utc_offset":"-360","gplace_id":null,"gplace_url":"https://maps.google.com/?cid=4805755740948707134","dealerID":72630,"trusted":false,"image_id":"v1597283975/chrysler_RM.png","phone":"4062244090","cityStateSlug":"livingston.mt","slug":"Livingston.MT/yellowstone+country+motors","location":"45.6493123,-110.5714565","brandsList":["chrysler","dodge","jeep","ram"]},{"id":14726,"crm_id":67068484,"name":"Underriner Hyundai","dealerSlug":"underriner+hyundai","city_state_slug":"Billings.MT","brand":"Hyundai","website":"www.underrinerhyundai.com","address":"3671 Pierce Pkwy","city":"Billings","state":"MT","zip":59106,"latitude":45.7336907,"longitude":-108.6089104,"phone_number_service":"4063186074","phone_number_main":"4062552350","service_hours":"Mo-Fr  08:00 - 17:00 | Sa 08:00 - 14:00","utc_offset":"-360","gplace_id":null,"gplace_url":"https://maps.google.com/?cid=17059631962159562524","dealerID":72631,"trusted":false,"image_id":"v1597283959/hyundai_RM.png","phone":"4063186074","cityStateSlug":"billings.mt","slug":"Billings.MT/underriner+hyundai","location":"45.7336907,-108.6089104","brandsList":["hyundai"]},{"id":14727,"crm_id":67068487,"name":"Underriner Volvo","dealerSlug":"underriner+volvo","city_state_slug":"Billings.MT","brand":"Volvo","website":"www.underrinervolvomt.com","address":"3643 Pierce Parkway","city":"Billings","state":"MT","zip":59102,"latitude":45.7344814,"longitude":-108.6109714,"phone_number_service":"8889048503","phone_number_main":"4062552363","service_hours":"Mo-Fr 07:00 - 18:00 | Sa 08:00 - 17:00","utc_offset":"-360","gplace_id":null,"gplace_url":"https://maps.google.com/?cid=7034411591216028225","dealerID":72632,"trusted":false,"image_id":"v1597283901/volvo.jpg","phone":"8889048503","cityStateSlug":"billings.mt","slug":"Billings.MT/underriner+volvo","location":"45.7344814,-108.6109714","brandsList":["volvo"]},{"id":12350,"crm_id":67068490,"name":"Rimrock Kia","dealerSlug":"rimrock+kia","city_state_slug":"Billings.MT","brand":"Kia","website":"www.rimrockkia.com","address":"4040 King Ave W","city":"Billings","state":"MT","zip":59106,"latitude":45.7544638,"longitude":-108.6192266,"phone_number_service":"8886986457","phone_number_main":"8669791682","service_hours":"Mo-Fr 07:00 - 17:30","utc_offset":"-360","gplace_id":null,"gplace_url":"https://maps.google.com/?cid=1678188642061534200","dealerID":72633,"trusted":false,"image_id":"v1597283948/kia_RM.png","phone":"8886986457","cityStateSlug":"billings.mt","slug":"Billings.MT/rimrock+kia","location":"45.7544638,-108.6192266","brandsList":["kia"]},{"id":1917,"crm_id":67068493,"name":"Bob Smith Mazda","dealerSlug":"bob+smith+mazda","city_state_slug":"Billings.MT","brand":"Mazda","website":"www.bobsmithmotors.com","address":"2244 Central Ave","city":"Billings","state":"MT","zip":59102,"latitude":45.7691453,"longitude":-108.5731631,"phone_number_service":"4066560000","phone_number_main":"4066560000","service_hours":"Mo-Fr 07:30 - 17:30 | Sa 09:00 - 16:00","utc_offset":"-360","gplace_id":null,"gplace_url":"https://maps.google.com/?cid=2455467073950252340","dealerID":72634,"trusted":false,"image_id":"v1597283937/mazda.png","phone":"4066560000","cityStateSlug":"billings.mt","slug":"Billings.MT/bob+smith+mazda","location":"45.7691453,-108.5731631","brandsList":["mazda"]},{"id":1916,"crm_id":67068499,"name":"Bob Smith Lincoln","dealerSlug":"bob+smith+lincoln","city_state_slug":"Billings.MT","brand":"Lincoln","website":"www.bobsmithlincoln.com","address":"2244 Central Ave","city":"Billings","state":"MT","zip":59102,"latitude":45.7691453,"longitude":-108.5731631,"phone_number_service":"8885777685","phone_number_main":"8887850433","service_hours":"Mo-Fr 07:30 - 17:30 | Sa 09:00 - 16:00","utc_offset":"-360","gplace_id":null,"gplace_url":"https://maps.google.com/?cid=14653844758239826851","dealerID":72635,"trusted":false,"image_id":"v1597283942/lincoln_RM.png","phone":"8885777685","cityStateSlug":"billings.mt","slug":"Billings.MT/bob+smith+lincoln","location":"45.7691453,-108.5731631","brandsList":["lincoln"]},{"id":3944,"crm_id":67068502,"name":"Denny Menholt Chevrolet","dealerSlug":"denny+menholt+chevrolet","city_state_slug":"Billings.MT","brand":"Buick,Cadillac,Chevrolet,GMC","website":"www.dennymenholt.com","address":"3000 King Ave W","city":"Billings","state":"MT","zip":59102,"latitude":45.7537119,"longitude":-108.591313,"phone_number_service":"4068963100","phone_number_main":"4065454546","service_hours":"Mo-Fr 07:00 - 18:00 | Sa 08:00 - 17:00","utc_offset":"-360","gplace_id":null,"gplace_url":"https://maps.google.com/?cid=1179002532664744035","dealerID":72636,"trusted":false,"image_id":"v1597283981/buick_RM.png","phone":"4068963100","cityStateSlug":"billings.mt","slug":"Billings.MT/denny+menholt+chevrolet","location":"45.7537119,-108.591313","brandsList":["buick","cadillac","chevrolet","gmc"]},{"id":10846,"crm_id":67068511,"name":"Northern Prairie Auto Sales","dealerSlug":"northern+prairie+auto+sales","city_state_slug":"Wolf-Point.MT","brand":"Chrysler,Dodge,Jeep,RAM","website":"www.northernprairieauto.com","address":"100 S 2nd Ave","city":"Wolf Point","state":"MT","zip":59201,"latitude":48.0959607,"longitude":-105.6377996,"phone_number_service":"4066863304","phone_number_main":"4066531160","service_hours":"Mo-Fr 08:00 - 17:00","utc_offset":"-360","gplace_id":null,"gplace_url":"https://maps.google.com/?cid=8314470881283005633","dealerID":72637,"trusted":false,"image_id":"v1597283975/chrysler_RM.png","phone":"4066863304","cityStateSlug":"wolf-point.mt","slug":"Wolf-Point.MT/northern+prairie+auto+sales","location":"48.0959607,-105.6377996","brandsList":["chrysler","dodge","jeep","ram"]},{"id":5061,"crm_id":67068514,"name":"Fox Ford","dealerSlug":"fox+ford","city_state_slug":"Wolf-Point.MT","brand":"Ford","website":"www.foxfordwolfpoint.com","address":"101 Anaconda St","city":"Wolf Point","state":"MT","zip":59201,"latitude":48.0900329,"longitude":-105.6372561,"phone_number_service":"4066531350","phone_number_main":"4066531350","service_hours":"Mo-Fr 08:00 - 17:00","utc_offset":"-360","gplace_id":null,"gplace_url":"https://maps.google.com/?cid=14850620216922533987","dealerID":72638,"trusted":false,"image_id":"v1597283967/ford_RM.png","phone":"4066531350","cityStateSlug":"wolf-point.mt","slug":"Wolf-Point.MT/fox+ford","location":"48.0900329,-105.6372561","brandsList":["ford"]},{"id":6439,"crm_id":67068517,"name":"High Plains Motors","dealerSlug":"high+plains+motors","city_state_slug":"Wolf-Point.MT","brand":"Buick,Chevrolet,GMC","website":"www.highplainsmotors.com","address":"331 Front St","city":"Wolf Point","state":"MT","zip":59201,"latitude":48.0908123,"longitude":-105.642581,"phone_number_service":"4066531310","phone_number_main":"4066531310","service_hours":"Mo-Fr 08:00 - 17:00","utc_offset":"-360","gplace_id":null,"gplace_url":"https://maps.google.com/?cid=14605223023094578465","dealerID":72639,"trusted":false,"image_id":"v1597283981/buick_RM.png","phone":"4066531310","cityStateSlug":"wolf-point.mt","slug":"Wolf-Point.MT/high+plains+motors","location":"48.0908123,-105.642581","brandsList":["buick","chevrolet","gmc"]},{"id":4469,"crm_id":67068520,"name":"Eissinger Equipment","dealerSlug":"eissinger+equipment","city_state_slug":"Circle.MT","brand":"Ford","website":"www.eissingerford.com","address":"22 Hwy 200 East","city":"Circle","state":"MT","zip":59215,"latitude":47.4280824,"longitude":-105.5504707,"phone_number_service":"8555707203","phone_number_main":"4064852751","service_hours":"Mo-Fr 08:00 - 17:30","utc_offset":"-360","gplace_id":null,"gplace_url":"https://maps.google.com/?cid=8690300000639857997","dealerID":72640,"trusted":false,"image_id":"v1597283967/ford_RM.png","phone":"8555707203","cityStateSlug":"circle.mt","slug":"Circle.MT/eissinger+equipment","location":"47.4280824,-105.5504707","brandsList":["ford"]},{"id":10663,"crm_id":67068523,"name":"Newton Motors","dealerSlug":"newton+motors","city_state_slug":"Glasgow.MT","brand":"Buick,Chevrolet,GMC","website":"www.newtonmotors.net","address":"54137 US Highway 2","city":"Glasgow","state":"MT","zip":59230,"latitude":48.2011737,"longitude":-106.6429324,"phone_number_service":"8662694339","phone_number_main":"8662694339","service_hours":"Mo-Fr 08:00 - 17:00","utc_offset":"-360","gplace_id":null,"gplace_url":"https://maps.google.com/?cid=4082133060425697512","dealerID":72641,"trusted":false,"image_id":"v1597283981/buick_RM.png","phone":"8662694339","cityStateSlug":"glasgow.mt","slug":"Glasgow.MT/newton+motors","location":"48.2011737,-106.6429324","brandsList":["buick","chevrolet","gmc"]},{"id":4312,"crm_id":67068526,"name":"Eagle Country Ford","dealerSlug":"eagle+country+ford","city_state_slug":"Sidney.MT","brand":"Ford","website":"www.eaglecountryfordsales.com","address":"215 E Main St","city":"Sidney","state":"MT","zip":59270,"latitude":47.7142314,"longitude":-104.1550584,"phone_number_service":"8885702259","phone_number_main":"4064331810","service_hours":"Mo-Fr 07:30 - 17:30","utc_offset":"-360","gplace_id":null,"gplace_url":"https://maps.google.com/?cid=8001843528782267428","dealerID":72642,"trusted":false,"image_id":"v1597283967/ford_RM.png","phone":"8885702259","cityStateSlug":"sidney.mt","slug":"Sidney.MT/eagle+country+ford","location":"47.7142314,-104.1550584","brandsList":["ford"]},{"id":9120,"crm_id":67068529,"name":"Mac's Frontierland","dealerSlug":"macs+frontierland","city_state_slug":"Miles-City.MT","brand":"Ford","website":"www.macsford.com","address":"3016 Valley Dr E","city":"Miles City","state":"MT","zip":59301,"latitude":46.42289,"longitude":-105.821686,"phone_number_service":"8007581010","phone_number_main":"4062342456","service_hours":"Mo-Fr 07:30 - 17:00","utc_offset":"-360","gplace_id":null,"gplace_url":"https://maps.google.com/?cid=2560389135380137290","dealerID":72643,"trusted":false,"image_id":"v1597283967/ford_RM.png","phone":"8007581010","cityStateSlug":"miles-city.mt","slug":"Miles-City.MT/macs+frontierland","location":"46.42289,-105.821686","brandsList":["ford"]},{"id":3922,"crm_id":67068532,"name":"Deluxe Motors","dealerSlug":"deluxe+motors","city_state_slug":"Miles-City.MT","brand":"Chrysler,Dodge,Jeep,RAM","website":"www.deluxemotorsinc.com","address":"711 Fort Street","city":"Miles City","state":"MT","zip":59301,"latitude":46.4052808,"longitude":-105.8477569,"phone_number_service":"4062336264","phone_number_main":"4062342980","service_hours":"Mo-Fr 07:15 - 17:30 | Sa 08:00 - 15:00","utc_offset":"-360","gplace_id":null,"gplace_url":"https://maps.google.com/?cid=11958587066025261116","dealerID":72644,"trusted":false,"image_id":"v1597283975/chrysler_RM.png","phone":"4062336264","cityStateSlug":"miles-city.mt","slug":"Miles-City.MT/deluxe+motors","location":"46.4052808,-105.8477569","brandsList":["chrysler","dodge","jeep","ram"]},{"id":1915,"crm_id":67068535,"name":"Bob Smith Hardin Ford","dealerSlug":"bob+smith+hardin+ford","city_state_slug":"Hardin.MT","brand":"Ford","website":"www.bobsmithmotors.com/","address":"416 N Center Ave","city":"Hardin","state":"MT","zip":59034,"latitude":45.733195,"longitude":-107.606442,"phone_number_service":"4066651211","phone_number_main":"4066560000","service_hours":"Mo-Fr 07:30 - 17:30 | Sa 09:00 - 16:00","utc_offset":"-360","gplace_id":null,"gplace_url":"https://maps.google.com/?cid=14326772217194192654","dealerID":72645,"trusted":false,"image_id":"v1597283967/ford_RM.png","phone":"4066651211","cityStateSlug":"hardin.mt","slug":"Hardin.MT/bob+smith+hardin+ford","location":"45.733195,-107.606442","brandsList":["ford"]},{"id":293,"crm_id":67068538,"name":"American Ford","dealerSlug":"american+ford","city_state_slug":"Glendive.MT","brand":"Ford","website":"www.americanford.us","address":"100 Ford Ave","city":"Glendive","state":"MT","zip":59330,"latitude":47.1062345,"longitude":-104.7320673,"phone_number_service":"4063453673","phone_number_main":"4063453673","service_hours":"Mo-Fr 07:30 - 18:00","utc_offset":"-360","gplace_id":null,"gplace_url":"https://maps.google.com/?cid=1037646426527664356","dealerID":72646,"trusted":false,"image_id":"v1597283967/ford_RM.png","phone":"4063453673","cityStateSlug":"glendive.mt","slug":"Glendive.MT/american+ford","location":"47.1062345,-104.7320673","brandsList":["ford"]},{"id":6491,"crm_id":67068541,"name":"Hkt Big Sky Motors","dealerSlug":"hkt+big+sky+motors","city_state_slug":"Glendive.MT","brand":"Chevrolet","website":"www.hktbigskymotors.com","address":"2515 West Towne","city":"Glendive","state":"MT","zip":59330,"latitude":47.0961989,"longitude":-104.7604117,"phone_number_service":"4063773350","phone_number_main":"4063651224","service_hours":"Mo-Fr 08:00 - 17:00","utc_offset":"-360","gplace_id":null,"gplace_url":"https://maps.google.com/?cid=9572018670212431266","dealerID":72647,"trusted":false,"image_id":"v1597284079/chevy_ms.png","phone":"4063773350","cityStateSlug":"glendive.mt","slug":"Glendive.MT/hkt+big+sky+motors","location":"47.0961989,-104.7604117","brandsList":["chevrolet"]},{"id":8901,"crm_id":67068547,"name":"Lithia Subaru of Great Falls","dealerSlug":"lithia+subaru+of+great+falls","city_state_slug":"Great-Falls.MT","brand":"Subaru","website":"www.lithiasubarugreatfalls.com","address":"800 Central Ave","city":"Great Falls","state":"MT","zip":59401,"latitude":47.504937,"longitude":-111.293475,"phone_number_service":"8883021047","phone_number_main":"4062052161","service_hours":"Mo-Fr 07:30 - 17:30 | Sa 09:00 - 14:00","utc_offset":"-360","gplace_id":null,"gplace_url":"https://maps.google.com/?cid=6443393149437560854","dealerID":72648,"trusted":false,"image_id":"v1597283982/subaru_ms.png","phone":"8883021047","cityStateSlug":"great-falls.mt","slug":"Great-Falls.MT/lithia+subaru+of+great+falls","location":"47.504937,-111.293475","brandsList":["subaru"]},{"id":6612,"crm_id":67068550,"name":"Honda of Great Falls","dealerSlug":"honda+of+great+falls","city_state_slug":"Great-Falls.MT","brand":"Honda","website":"www.greatfallshonda.com","address":"4900 10th Ave S","city":"Great Falls","state":"MT","zip":59405,"latitude":47.4932131,"longitude":-111.2249744,"phone_number_service":"4065641296","phone_number_main":"4065641133","service_hours":"Mo-Fr 08:00 - 17:00","utc_offset":"-360","gplace_id":null,"gplace_url":"https://maps.google.com/?cid=2194278157325467474","dealerID":72649,"trusted":false,"image_id":"v1597284047/honda_ms.png","phone":"4065641296","cityStateSlug":"great-falls.mt","slug":"Great-Falls.MT/honda+of+great+falls","location":"47.4932131,-111.2249744","brandsList":["honda"]},{"id":1560,"crm_id":67068553,"name":"Bison Ford","dealerSlug":"bison+ford","city_state_slug":"Great-Falls.MT","brand":"Ford","website":"www.bisonford.com","address":"500 10th Ave S","city":"Great Falls","state":"MT","zip":59405,"latitude":47.4938277,"longitude":-111.2985994,"phone_number_service":"8883063570","phone_number_main":"8003273673","service_hours":"Mo-Fr 07:30 - 18:00","utc_offset":"-360","gplace_id":null,"gplace_url":"https://maps.google.com/?cid=450116804412894737","dealerID":72650,"trusted":false,"image_id":"v1597283967/ford_RM.png","phone":"8883063570","cityStateSlug":"great-falls.mt","slug":"Great-Falls.MT/bison+ford","location":"47.4938277,-111.2985994","brandsList":["ford"]},{"id":14840,"crm_id":67068556,"name":"Van Motors","dealerSlug":"van+motors","city_state_slug":"Conrad.MT","brand":"Buick,Chevrolet,GMC","website":"www.vanmotors.com","address":"502 N Main St","city":"Conrad","state":"MT","zip":59425,"latitude":48.1823482,"longitude":-111.9406731,"phone_number_service":"8665751054","phone_number_main":"8774121668","service_hours":"Mo-Fr 08:00 - 17:00","utc_offset":"-360","gplace_id":null,"gplace_url":"https://maps.google.com/?cid=11151960125232531596","dealerID":72651,"trusted":false,"image_id":"v1597283981/buick_RM.png","phone":"8665751054","cityStateSlug":"conrad.mt","slug":"Conrad.MT/van+motors","location":"48.1823482,-111.9406731","brandsList":["buick","chevrolet","gmc"]},{"id":7447,"crm_id":67068562,"name":"Jim Taylor Motors","dealerSlug":"jim+taylor+motors","city_state_slug":"Fort-Benton.MT","brand":"Ford","website":"www.jimtaylormotors.com","address":"2520 St Charles St","city":"Fort Benton","state":"MT","zip":59442,"latitude":47.8306078,"longitude":-110.6628154,"phone_number_service":"8007226452","phone_number_main":"4066225491","service_hours":"Mo-Fr 08:00 - 17:00","utc_offset":"-360","gplace_id":null,"gplace_url":"https://maps.google.com/?cid=13135489298346876674","dealerID":72652,"trusted":false,"image_id":"v1597283967/ford_RM.png","phone":"8007226452","cityStateSlug":"fort-benton.mt","slug":"Fort-Benton.MT/jim+taylor+motors","location":"47.8306078,-110.6628154","brandsList":["ford"]},{"id":13325,"crm_id":67068565,"name":"Snowy Mountain Motors","dealerSlug":"snowy+mountain+motors","city_state_slug":"Lewistown.MT","brand":"Chrysler,Dodge,Ford,Jeep,RAM","website":"www.snowymountainmotors.com","address":"80739 US-87","city":"Lewistown","state":"MT","zip":59457,"latitude":47.0560989,"longitude":-109.4509278,"phone_number_service":"4065384014","phone_number_main":"4065384014","service_hours":"Mo-Fr 08:00 - 17:00","utc_offset":"-360","gplace_id":null,"gplace_url":"https://maps.google.com/?cid=16393767262828362871","dealerID":72653,"trusted":false,"image_id":"v1597283975/chrysler_RM.png","phone":"4065384014","cityStateSlug":"lewistown.mt","slug":"Lewistown.MT/snowy+mountain+motors","location":"47.0560989,-109.4509278","brandsList":["chrysler","dodge","ford","jeep","ram"]},{"id":6175,"crm_id":67068571,"name":"Havre Ford","dealerSlug":"havre+ford","city_state_slug":"Havre.MT","brand":"Ford","website":"www.havreford.net","address":"1991 US-2","city":"Havre","state":"MT","zip":59501,"latitude":48.5565316,"longitude":-109.7169018,"phone_number_service":"8669417737","phone_number_main":"4062652246","service_hours":"Mo-Fr 08:00 - 17:30","utc_offset":"-360","gplace_id":null,"gplace_url":"https://maps.google.com/?cid=5620205334385456419","dealerID":72654,"trusted":false,"image_id":"v1597283967/ford_RM.png","phone":"8669417737","cityStateSlug":"havre.mt","slug":"Havre.MT/havre+ford","location":"48.5565316,-109.7169018","brandsList":["ford"]},{"id":14249,"crm_id":67068577,"name":"Tilleman Hi-Line Dodge","dealerSlug":"tilleman+hi+line+dodge","city_state_slug":"Havre.MT","brand":"Chrysler,Dodge,Jeep,RAM","website":"hi-linedodge.com","address":"1720 US Highway 2 East","city":"Havre","state":"MT","zip":59501,"latitude":48.5540162,"longitude":-109.6572638,"phone_number_service":"4064146103","phone_number_main":"4062655428","service_hours":"Mo-Fr 08:00 - 17:00","utc_offset":"-360","gplace_id":null,"gplace_url":"https://maps.google.com/?cid=4127350292470801354","dealerID":72655,"trusted":false,"image_id":"v1597283975/chrysler_RM.png","phone":"4064146103","cityStateSlug":"havre.mt","slug":"Havre.MT/tilleman+hi+line+dodge","location":"48.5540162,-109.6572638","brandsList":["chrysler","dodge","jeep","ram"]},{"id":8863,"crm_id":67068586,"name":"Lithia Chrysler Dodge Jeep RAM FIAT of Helena","dealerSlug":"lithia+chrysler+dodge+jeep+ram+fiat+of+helena","city_state_slug":"Helena.MT","brand":"Chrysler,Dodge,Jeep,RAM,Fiat","website":"www.lithiachryslerhelena.com","address":"3401 East US Highway 12","city":"Helena","state":"MT","zip":59601,"latitude":46.5902893,"longitude":-111.965192,"phone_number_service":"8448279369","phone_number_main":"4064429994","service_hours":"Mo-Fr 07:00 - 18:00 | Sa 07:30 - 17:00","utc_offset":"-360","gplace_id":null,"gplace_url":"https://maps.google.com/?cid=3991023351606179485","dealerID":72656,"trusted":false,"image_id":"v1597283975/chrysler_RM.png","phone":"8448279369","cityStateSlug":"helena.mt","slug":"Helena.MT/lithia+chrysler+dodge+jeep+ram+fiat+of+helena","location":"46.5902893,-111.965192","brandsList":["chrysler","dodge","jeep","ram","fiat"]},{"id":6231,"crm_id":67068589,"name":"Helena Lincoln","dealerSlug":"helena+lincoln","city_state_slug":"Helena.MT","brand":"Ford,Lincoln","website":"helenalincoln.com","address":"3365 Hwy 12 E","city":"Helena","state":"MT","zip":59604,"latitude":46.590005,"longitude":-111.9682063,"phone_number_service":"8778188819","phone_number_main":"8778110582","service_hours":"Mo-Fr 07:30 - 18:00| Sa 08:00 - 15:00","utc_offset":"-360","gplace_id":null,"gplace_url":"https://maps.google.com/?cid=1464647133539153544","dealerID":72657,"trusted":false,"image_id":"v1597283967/ford_RM.png","phone":"8778188819","cityStateSlug":"helena.mt","slug":"Helena.MT/helena+lincoln","location":"46.590005,-111.9682063","brandsList":["ford","lincoln"]},{"id":8639,"crm_id":67068595,"name":"Leskovar Honda","dealerSlug":"leskovar+honda","city_state_slug":"Butte.MT","brand":"Honda","website":"www.leskovarhonda.com","address":"3766 Harrison Ave","city":"Butte","state":"MT","zip":59701,"latitude":45.9684622,"longitude":-112.5069992,"phone_number_service":"4064946604","phone_number_main":"4064946604","service_hours":"Mo-Fr 08:00 - 17:45 | Sa 09:00 - 15:00","utc_offset":"-360","gplace_id":null,"gplace_url":"https://maps.google.com/?cid=2374073525024882191","dealerID":72658,"trusted":false,"image_id":"v1597284047/honda_ms.png","phone":"4064946604","cityStateSlug":"butte.mt","slug":"Butte.MT/leskovar+honda","location":"45.9684622,-112.5069992","brandsList":["honda"]},{"id":2372,"crm_id":67068598,"name":"Butte Chrysler Jeep Dodge RAM","dealerSlug":"butte+chrysler+jeep+dodge+ram","city_state_slug":"Butte.MT","brand":"Chrysler,Dodge,Jeep,RAM","website":"www.buttedodge.com","address":"3883 Harrison Ave","city":"Butte","state":"MT","zip":59701,"latitude":45.965313,"longitude":-112.509684,"phone_number_service":"4062999183","phone_number_main":"4065654410","service_hours":"Mo-Fr 07:30 - 17:30","utc_offset":"-360","gplace_id":null,"gplace_url":"https://maps.google.com/?cid=4765492791876147500","dealerID":72659,"trusted":false,"image_id":"v1597283975/chrysler_RM.png","phone":"4062999183","cityStateSlug":"butte.mt","slug":"Butte.MT/butte+chrysler+jeep+dodge+ram","location":"45.965313,-112.509684","brandsList":["chrysler","dodge","jeep","ram"]},{"id":2371,"crm_id":67068604,"name":"Butte Auto","dealerSlug":"butte+auto","city_state_slug":"Butte.MT","brand":"Buick,Chevrolet,GMC","website":"www.gmofbutte.com","address":"3900 Harrison Ave","city":"Butte","state":"MT","zip":59701,"latitude":45.9644237,"longitude":-112.5072656,"phone_number_service":"4065654140","phone_number_main":"4064943031","service_hours":"Mo-Fr 07:30 - 17:30 | Sa 09:00-15:00","utc_offset":"-360","gplace_id":null,"gplace_url":"https://maps.google.com/?cid=14778297171626681156","dealerID":72660,"trusted":false,"image_id":"v1597283981/buick_RM.png","phone":"4065654140","cityStateSlug":"butte.mt","slug":"Butte.MT/butte+auto","location":"45.9644237,-112.5072656","brandsList":["buick","chevrolet","gmc"]},{"id":2374,"crm_id":67068607,"name":"Butte Toyota","dealerSlug":"butte+toyota","city_state_slug":"Butte.MT","brand":"Toyota","website":"www.buttetoyota.com","address":"5103 Harrison Ave","city":"Butte","state":"MT","zip":59701,"latitude":45.9452778,"longitude":-112.5097222,"phone_number_service":"8887471591","phone_number_main":"4067829181","service_hours":"Mo-Fr 07:30 - 17:30","utc_offset":"-360","gplace_id":null,"gplace_url":"https://maps.google.com/?cid=9772536562450414273","dealerID":72661,"trusted":false,"image_id":"v1597284039/toyota_ms.png","phone":"8887471591","cityStateSlug":"butte.mt","slug":"Butte.MT/butte+toyota","location":"45.9452778,-112.5097222","brandsList":["toyota"]},{"id":5337,"crm_id":67068610,"name":"Gallatin Subaru","dealerSlug":"gallatin+subaru","city_state_slug":"Bozeman.MT","brand":"Subaru","website":"gallatinsubaru.com","address":"31910 Frontage Rd","city":"Bozeman","state":"MT","zip":59715,"latitude":45.6731265,"longitude":-111.0022237,"phone_number_service":"8885661227","phone_number_main":"4065861771","service_hours":"Mo-Fr 07:30 - 18:00 | Sa 09:00 - 17:00","utc_offset":"-360","gplace_id":null,"gplace_url":"https://maps.google.com/?cid=12120223206488202603","dealerID":72662,"trusted":false,"image_id":"v1597283982/subaru_ms.png","phone":"8885661227","cityStateSlug":"bozeman.mt","slug":"Bozeman.MT/gallatin+subaru","location":"45.6731265,-111.0022237","brandsList":["subaru"]},{"id":7029,"crm_id":67068613,"name":"J.C. BILLION GMC BUICK","dealerSlug":"jc+billion+gmc+buick","city_state_slug":"Bozeman.MT","brand":"Buick,GMC","website":"www.jcbillionbozeman.com","address":"270 Automotive Ave.","city":"Bozeman","state":"MT","zip":59718,"latitude":45.6765721,"longitude":-111.1074031,"phone_number_service":"4065584086","phone_number_main":"4065827777","service_hours":"Mo-Fr 07:30 - 17:30 | Sa 08:00 - 17:00","utc_offset":"-360","gplace_id":null,"gplace_url":"https://maps.google.com/?cid=8268881499348913381","dealerID":72663,"trusted":false,"image_id":"v1597283981/buick_RM.png","phone":"4065584086","cityStateSlug":"bozeman.mt","slug":"Bozeman.MT/jc+billion+gmc+buick","location":"45.6765721,-111.1074031","brandsList":["buick","gmc"]},{"id":7239,"crm_id":67068619,"name":"JC Billion Nissan","dealerSlug":"jc+billion+nissan","city_state_slug":"Bozeman.MT","brand":"Nissan","website":"www.jcbillionnissan.com","address":"380 Automotive Ave.","city":"Bozeman","state":"MT","zip":59718,"latitude":45.6741646,"longitude":-111.1042804,"phone_number_service":"4065827740","phone_number_main":"4065827777","service_hours":"Mo-Fr 07:30 - 17:30 | Sa 08:00 - 17:00","utc_offset":"-360","gplace_id":null,"gplace_url":"https://maps.google.com/?cid=15538974879202037678","dealerID":72664,"trusted":false,"image_id":"v1597283926/nissan_RM.png","phone":"4065827740","cityStateSlug":"bozeman.mt","slug":"Bozeman.MT/jc+billion+nissan","location":"45.6741646,-111.1042804","brandsList":["nissan"]},{"id":14439,"crm_id":67068625,"name":"Toyota of Bozeman","dealerSlug":"toyota+of+bozeman","city_state_slug":"Bozeman.MT","brand":"Toyota","website":"www.toyotaofbozeman.com","address":"8476 Huffine Ln","city":"Bozeman","state":"MT","zip":59718,"latitude":45.6696196,"longitude":-111.1262476,"phone_number_service":"8668052864","phone_number_main":"4065852002","service_hours":"Mo-Fr 07:30 - 18:00 | Sa 08:00-17:00","utc_offset":"-360","gplace_id":null,"gplace_url":"https://maps.google.com/?cid=9843582526130120454","dealerID":72665,"trusted":false,"image_id":"v1597284039/toyota_ms.png","phone":"8668052864","cityStateSlug":"bozeman.mt","slug":"Bozeman.MT/toyota+of+bozeman","location":"45.6696196,-111.1262476","brandsList":["toyota"]},{"id":1157,"crm_id":67068628,"name":"Beaverhead Motors","dealerSlug":"beaverhead+motors","city_state_slug":"Dillon.MT","brand":"Chevrolet","website":"www.beaverheadmotors.com","address":"675 N Montana St","city":"Dillon","state":"MT","zip":59725,"latitude":45.226857,"longitude":-112.6296571,"phone_number_service":"4066832371","phone_number_main":"4069604008","service_hours":"Mo-Fr 08:00 - 17:00","utc_offset":"-360","gplace_id":null,"gplace_url":"https://maps.google.com/?cid=1762382013228198598","dealerID":72666,"trusted":false,"image_id":"v1597284079/chevy_ms.png","phone":"4066832371","cityStateSlug":"dillon.mt","slug":"Dillon.MT/beaverhead+motors","location":"45.226857,-112.6296571","brandsList":["chevrolet"]},{"id":13779,"crm_id":67068634,"name":"Subaru of Missoula","dealerSlug":"subaru+of+missoula","city_state_slug":"Missoula.MT","brand":"Subaru","website":"www.subaruofmissoula.com","address":"1600 Stephens Ave","city":"Missoula","state":"MT","zip":59801,"latitude":46.8556037,"longitude":-114.0121388,"phone_number_service":"8883758873","phone_number_main":"4067282510","service_hours":"Mo-Fr 07:00 - 18:00","utc_offset":"-360","gplace_id":null,"gplace_url":"https://maps.google.com/?cid=10831588121763280128","dealerID":72667,"trusted":false,"image_id":"v1597283982/subaru_ms.png","phone":"8883758873","cityStateSlug":"missoula.mt","slug":"Missoula.MT/subaru+of+missoula","location":"46.8556037,-114.0121388","brandsList":["subaru"]},{"id":4887,"crm_id":67068637,"name":"Flanagan Motors Mazda","dealerSlug":"flanagan+motors+mazda","city_state_slug":"Missoula.MT","brand":"Mazda","website":"www.flanaganmotors.com","address":"1776 Stephens Ave.","city":"Missoula","state":"MT","zip":59801,"latitude":46.8539338,"longitude":-114.0117288,"phone_number_service":"4067219223","phone_number_main":"4067219223","service_hours":"Mo-Fr 08:00 - 17:00","utc_offset":"-360","gplace_id":null,"gplace_url":"https://maps.google.com/?cid=10719752301778683234","dealerID":72668,"trusted":false,"image_id":"v1597283937/mazda.png","phone":"4067219223","cityStateSlug":"missoula.mt","slug":"Missoula.MT/flanagan+motors+mazda","location":"46.8539338,-114.0117288","brandsList":["mazda"]},{"id":10205,"crm_id":67068640,"name":"Missoula Nissan","dealerSlug":"missoula+nissan","city_state_slug":"Missoula.MT","brand":"Nissan","website":"www.missoulanissan.com","address":"2715 Brooks St","city":"Missoula","state":"MT","zip":59801,"latitude":46.8456983,"longitude":-114.0234464,"phone_number_service":"4065495178","phone_number_main":"4065495178","service_hours":"Mo-Fr 07:30 - 17:30 | Sa 09:00 - 16:00","utc_offset":"-360","gplace_id":null,"gplace_url":"https://maps.google.com/?cid=17301662620388927561","dealerID":72669,"trusted":false,"image_id":"v1597283926/nissan_RM.png","phone":"4065495178","cityStateSlug":"missoula.mt","slug":"Missoula.MT/missoula+nissan","location":"46.8456983,-114.0234464","brandsList":["nissan"]},{"id":3950,"crm_id":67068643,"name":"Denny Menholt University Honda","dealerSlug":"denny+menholt+university+honda","city_state_slug":"Missoula.MT","brand":"Honda","website":"www.dennymenholtuniversityhonda.com","address":"3600 S Reserve St","city":"Missoula","state":"MT","zip":59801,"latitude":46.8380382,"longitude":-114.0385466,"phone_number_service":"4067214900","phone_number_main":"4067214900","service_hours":"Mo-Fr 07:30 - 18:00 | Sa 09:00 - 17:00","utc_offset":"-360","gplace_id":null,"gplace_url":"https://maps.google.com/?cid=6684043484717214551","dealerID":72670,"trusted":false,"image_id":"v1597284047/honda_ms.png","phone":"4067214900","cityStateSlug":"missoula.mt","slug":"Missoula.MT/denny+menholt+university+honda","location":"46.8380382,-114.0385466","brandsList":["honda"]},{"id":8884,"crm_id":67068649,"name":"Lithia Ford of Missoula","dealerSlug":"lithia+ford+of+missoula","city_state_slug":"Missoula.MT","brand":"Ford","website":"www.lithiafordmissoula.com","address":"3943 Brooks St","city":"Missoula","state":"MT","zip":59804,"latitude":46.8355235,"longitude":-114.0449707,"phone_number_service":"8553420617","phone_number_main":"4065520884","service_hours":"Mo-Fr 07:00 - 18:00 | Sa 09:00 - 17:00","utc_offset":"-360","gplace_id":null,"gplace_url":"https://maps.google.com/?cid=13638208009106505889","dealerID":72671,"trusted":false,"image_id":"v1597283967/ford_RM.png","phone":"8553420617","cityStateSlug":"missoula.mt","slug":"Missoula.MT/lithia+ford+of+missoula","location":"46.8355235,-114.0449707","brandsList":["ford"]},{"id":8907,"crm_id":67068652,"name":"Lithia Toyota of Missoula","dealerSlug":"lithia+toyota+of+missoula","city_state_slug":"Missoula.MT","brand":"Toyota","website":"www.lithiatoyotamissoula.com","address":"4001 Brooks St","city":"Missoula","state":"MT","zip":59804,"latitude":46.8348556,"longitude":-114.0470194,"phone_number_service":"4062060443","phone_number_main":"4065524959","service_hours":"Mo-Fr 07:00 - 18:00 | Sa 08:00 - 17:00","utc_offset":"-360","gplace_id":null,"gplace_url":"https://maps.google.com/?cid=3559489297408990982","dealerID":72672,"trusted":false,"image_id":"v1597284039/toyota_ms.png","phone":"4062060443","cityStateSlug":"missoula.mt","slug":"Missoula.MT/lithia+toyota+of+missoula","location":"46.8348556,-114.0470194","brandsList":["toyota"]},{"id":8876,"crm_id":67068655,"name":"Lithia Chrysler Jeep Dodge RAM of Missoula","dealerSlug":"lithia+chrysler+jeep+dodge+ram+of+missoula","city_state_slug":"Missoula.MT","brand":"Chrysler,Dodge,Jeep,RAM","website":"www.lithiachryslermissoula.com","address":"5001 Grizzly Ct","city":"Missoula","state":"MT","zip":59808,"latitude":46.9182744,"longitude":-114.0717541,"phone_number_service":"8447476955","phone_number_main":"4065520341","service_hours":"Mo-Fr 07:00 - 18:00 | Sa 07:30 - 17:00","utc_offset":"-360","gplace_id":null,"gplace_url":"https://maps.google.com/?cid=5476859242567895955","dealerID":72673,"trusted":false,"image_id":"v1597283975/chrysler_RM.png","phone":"8447476955","cityStateSlug":"missoula.mt","slug":"Missoula.MT/lithia+chrysler+jeep+dodge+ram+of+missoula","location":"46.9182744,-114.0717541","brandsList":["chrysler","dodge","jeep","ram"]},{"id":12577,"crm_id":67068658,"name":"Ronan Motors","dealerSlug":"ronan+motors","city_state_slug":"Ronan.MT","brand":"Chevrolet,Chrysler,Dodge,Jeep,RAM","website":"www.ronanautomall.com/","address":"62683 US Highway 93","city":"Ronan","state":"MT","zip":59864,"latitude":47.5358978,"longitude":-114.1009464,"phone_number_service":"8884379118","phone_number_main":"4066765811","service_hours":"Mo-Fr 08:00 - 17:30","utc_offset":"-360","gplace_id":null,"gplace_url":"https://maps.google.com/?cid=17467024165052009566","dealerID":72674,"trusted":false,"image_id":"v1597284079/chevy_ms.png","phone":"8884379118","cityStateSlug":"ronan.mt","slug":"Ronan.MT/ronan+motors","location":"47.5358978,-114.1009464","brandsList":["chevrolet","chrysler","dodge","jeep","ram"]},{"id":14275,"crm_id":67068664,"name":"Timberline Auto Center","dealerSlug":"timberline+auto+center","city_state_slug":"Libby.MT","brand":"Chrysler,Dodge,Ford,Jeep,RAM","website":"www.timberford.com","address":"617 Mineral Ave","city":"Libby","state":"MT","zip":59923,"latitude":48.389806,"longitude":-115.552727,"phone_number_service":"8338403125","phone_number_main":"4062934128","service_hours":"Mo-Fr 08:00 - 17:00 | Sa 09:00 - 13:00","utc_offset":"-360","gplace_id":null,"gplace_url":"https://maps.google.com/?cid=17021019101801741238","dealerID":72675,"trusted":false,"image_id":"v1597283975/chrysler_RM.png","phone":"8338403125","cityStateSlug":"libby.mt","slug":"Libby.MT/timberline+auto+center","location":"48.389806,-115.552727","brandsList":["chrysler","dodge","ford","jeep","ram"]},{"id":4118,"crm_id":67068670,"name":"Don K Chevrolet","dealerSlug":"don+k+chevrolet","city_state_slug":"Whitefish.MT","brand":"Chevrolet","website":"www.donkchevy.com","address":"6219 Hwy 93 S","city":"Whitefish","state":"MT","zip":59937,"latitude":48.3864751,"longitude":-114.3368339,"phone_number_service":"8772084998","phone_number_main":"8773446472","service_hours":"Mo-Fr 07:30 - 15:30 | Sa 08:00 - 16:00","utc_offset":"-360","gplace_id":null,"gplace_url":"https://maps.google.com/?cid=9841841966365529276","dealerID":72676,"trusted":false,"image_id":"v1597284079/chevy_ms.png","phone":"8772084998","cityStateSlug":"whitefish.mt","slug":"Whitefish.MT/don+k+chevrolet","location":"48.3864751,-114.3368339","brandsList":["chevrolet"]},{"id":7674,"crm_id":67068676,"name":"Kalispell Volkswagen","dealerSlug":"kalispell+volkswagen","city_state_slug":"Kalispell.MT","brand":"Volkswagen","website":"www.kalispellvolkswagen.com","address":"1177 East Idaho St","city":"Kalispell","state":"MT","zip":59901,"latitude":48.2103035,"longitude":-114.2931887,"phone_number_service":"4067528989","phone_number_main":"8773446472","service_hours":"Mo-Fr 08:00 - 17:00","utc_offset":"-360","gplace_id":null,"gplace_url":"https://maps.google.com/?cid=9841841966365529276","dealerID":72677,"trusted":false,"image_id":"v1597283902/volkswagen.png","phone":"4067528989","cityStateSlug":"kalispell.mt","slug":"Kalispell.MT/kalispell+volkswagen","location":"48.2103035,-114.2931887","brandsList":["volkswagen"]},{"id":12351,"crm_id":71071654,"name":"Rimrock Subaru","dealerSlug":"rimrock+subaru","city_state_slug":"Billings.MT","brand":"Subaru","website":"www.rimrockcertified.com","address":"324 South 24th Street West","city":"Billings","state":"MT","zip":59102,"latitude":45.7629329,"longitude":-108.5790696,"phone_number_service":"8887337942","phone_number_main":"4066515300","service_hours":"Mo-Fr 08:00 - 19:00 | Sa 08:00 - 19:00","utc_offset":"-360","gplace_id":null,"gplace_url":"https://maps.google.com/?cid=8111325470065738935","dealerID":74996,"trusted":false,"image_id":"v1597283982/subaru_ms.png","phone":"8887337942","cityStateSlug":"billings.mt","slug":"Billings.MT/rimrock+subaru","location":"45.7629329,-108.5790696","brandsList":["subaru"]},{"id":8504,"crm_id":71071678,"name":"Laurel Chevrolet","dealerSlug":"laurel+chevrolet","city_state_slug":"Laurel.MT","brand":"Chevrolet","website":"www.laurelchevy.com/","address":"202 E 4th St","city":"Laurel","state":"MT","zip":59044,"latitude":45.6724206,"longitude":-108.7700712,"phone_number_service":"4066284618","phone_number_main":"4066284618","service_hours":"Mo-Fr 07:30 - 17:30","utc_offset":"-360","gplace_id":null,"gplace_url":"https://maps.google.com/?cid=16413472215651027332","dealerID":74997,"trusted":false,"image_id":"v1597284079/chevy_ms.png","phone":"4066284618","cityStateSlug":"laurel.mt","slug":"Laurel.MT/laurel+chevrolet","location":"45.6724206,-108.7700712","brandsList":["chevrolet"]},{"id":9657,"crm_id":71092039,"name":"Mercedes Benz of Billings","dealerSlug":"mercedes+benz+of+billings","city_state_slug":"Billings.MT","brand":"Mercedes-Benz","website":"www.mbbillings.com","address":"3045 King Ave W","city":"Billings","state":"MT","zip":59102,"latitude":45.7557531,"longitude":-108.593401,"phone_number_service":"8886208947","phone_number_main":"4062947000","service_hours":"Mo-Fr 08:00 - 17:30 | Sa  9:00 - 16:00","utc_offset":"-360","gplace_id":null,"gplace_url":"https://maps.google.com/?cid=13096500070192041199","dealerID":74998,"trusted":false,"image_id":"v1597283934/mercedes_RM.png","phone":"8886208947","cityStateSlug":"billings.mt","slug":"Billings.MT/mercedes+benz+of+billings","location":"45.7557531,-108.593401","brandsList":["mercedes-benz"]},{"id":12352,"crm_id":109903363,"name":"Rimrock Subaru","dealerSlug":"rimrock+subaru","city_state_slug":"Billings.MT","brand":"Subaru","website":"www.rimrocksubaru.com","address":"324 S 24th St W","city":"Billings","state":"MT","zip":59102,"latitude":45.7629292,"longitude":-108.5768809,"phone_number_service":"8669794356","phone_number_main":"8669791644","service_hours":"Mo-Fr 07:00 - 17:30 | Sa 08:00 - 14:00","utc_offset":"-360","gplace_id":null,"gplace_url":"https://maps.google.com/?cid=13925127232834157519","dealerID":76760,"trusted":false,"image_id":"v1597283982/subaru_ms.png","phone":"8669794356","cityStateSlug":"billings.mt","slug":"Billings.MT/rimrock+subaru","location":"45.7629292,-108.5768809","brandsList":["subaru"]}]