[{"id":17297,"crm_id":999,"name":"Platte Valley Auto Mart","dealerSlug":"platte+valley+auto+mart","city_state_slug":"Lexington.NE","brand":"Ford","website":"www.plattevalleyautomart.com","address":"400 N Jefferson","city":"Lexington","state":"NE","zip":68850,"latitude":40.777137,"longitude":-99.737427,"phone_number_service":"3083245619","phone_number_main":"","service_hours":"Mo-Fr 07:30 - 18:00 | Sa 07:30 - 16:00 | Su Closed","utc_offset":"","gplace_id":0,"gplace_url":"","dealerID":60101,"trusted":false,"image_id":"v1597283967/ford_RM.png","phone":"3083245619","cityStateSlug":"lexington.ne","slug":"Lexington.NE/platte+valley+auto+mart","location":"40.777137,-99.737427","brandsList":["ford"]},{"id":17298,"crm_id":999,"name":"Platte Valley Auto Mart","dealerSlug":"platte+valley+auto+mart","city_state_slug":"Lexington.NE","brand":"Chrysler,Dodge,Jeep,RAM","website":"www.plattevalleyautomart.net","address":"4th And Jefferson","city":"Lexington","state":"NE","zip":68850,"latitude":40.776921,"longitude":-99.73744,"phone_number_service":"3083245619","phone_number_main":"","service_hours":"Mo-Fr 08:00 - 18:00 | Sa 08:00 - 16:00 | Su Closed","utc_offset":"","gplace_id":0,"gplace_url":"","dealerID":60102,"trusted":false,"image_id":"v1597283975/chrysler_RM.png","phone":"3083245619","cityStateSlug":"lexington.ne","slug":"Lexington.NE/platte+valley+auto+mart","location":"40.776921,-99.73744","brandsList":["chrysler","dodge","jeep","ram"]},{"id":17378,"crm_id":999,"name":"Reganis Auto Center","dealerSlug":"reganis+auto+center","city_state_slug":"Scottsbluff.NE","brand":"Chrysler,Dodge,Jeep,RAM","website":"www.reganisautocenter.net","address":"1901 E Overland","city":"Scottsbluff","state":"NE","zip":69361,"latitude":41.859454,"longitude":-103.636332,"phone_number_service":"3086328200","phone_number_main":"","service_hours":"Mo-Fr 08:30 - 19:00 | Sa 08:30 - 17:00 | Su Closed","utc_offset":"","gplace_id":0,"gplace_url":"","dealerID":60103,"trusted":false,"image_id":"v1597283975/chrysler_RM.png","phone":"3086328200","cityStateSlug":"scottsbluff.ne","slug":"Scottsbluff.NE/reganis+auto+center","location":"41.859454,-103.636332","brandsList":["chrysler","dodge","jeep","ram"]},{"id":16378,"crm_id":999,"name":"Erdkamp Motors","dealerSlug":"erdkamp+motors","city_state_slug":"Exeter.NE","brand":"Chrysler,Dodge,Jeep,RAM","website":"www.erdkampmotors.com","address":"Seneca Street","city":"Exeter","state":"NE","zip":68351,"latitude":40.644328,"longitude":-97.452084,"phone_number_service":"4022665181","phone_number_main":"","service_hours":"Mo-Fr 08:00 - 18:00 | Sa 08:00 - 24:00 | Su Closed","utc_offset":"","gplace_id":0,"gplace_url":"","dealerID":60123,"trusted":false,"image_id":"v1597283975/chrysler_RM.png","phone":"4022665181","cityStateSlug":"exeter.ne","slug":"Exeter.NE/erdkamp+motors","location":"40.644328,-97.452084","brandsList":["chrysler","dodge","jeep","ram"]},{"id":17661,"crm_id":999,"name":"Tehrani Motor Company","dealerSlug":"tehrani+motor+company","city_state_slug":"Valentine.NE","brand":"Chrysler,Dodge,Jeep,RAM","website":"www.tehranimotors.com/","address":"West Highway 20","city":"Valentine","state":"NE","zip":69201,"latitude":42.867957,"longitude":-100.547401,"phone_number_service":"4023761661","phone_number_main":"","service_hours":"Mo-Fr 08:00 - 17:30 | Sa 08:00 - 24:00 | Su Closed","utc_offset":"","gplace_id":0,"gplace_url":"","dealerID":60124,"trusted":false,"image_id":"v1597283975/chrysler_RM.png","phone":"4023761661","cityStateSlug":"valentine.ne","slug":"Valentine.NE/tehrani+motor+company","location":"42.867957,-100.547401","brandsList":["chrysler","dodge","jeep","ram"]},{"id":17662,"crm_id":999,"name":"Tehrani Motor Company","dealerSlug":"tehrani+motor+company","city_state_slug":"Valentine.NE","brand":"Ford","website":"www.tehranimotorco.com","address":"West Highway 20","city":"Valentine","state":"NE","zip":69201,"latitude":42.8681,"longitude":-100.560067,"phone_number_service":"4023761661","phone_number_main":"","service_hours":"Mo-Fr 08:00 - 17:30 | Sa 08:00 - 12:00 | Su Closed","utc_offset":"","gplace_id":0,"gplace_url":"","dealerID":60125,"trusted":false,"image_id":"v1597283967/ford_RM.png","phone":"4023761661","cityStateSlug":"valentine.ne","slug":"Valentine.NE/tehrani+motor+company","location":"42.8681,-100.560067","brandsList":["ford"]},{"id":15844,"crm_id":999,"name":"Arnie's Ford","dealerSlug":"arnies+ford","city_state_slug":"Wayne.NE","brand":"Ford","website":"www.arniesfordwayne.com","address":"119 East 3rd St","city":"Wayne","state":"NE","zip":68787,"latitude":42.231328,"longitude":-97.016832,"phone_number_service":"8004673780","phone_number_main":"","service_hours":"Mo-Fr 08:00 - 18:00 | Sa 08:00 - 16:00 | Su Closed","utc_offset":"","gplace_id":0,"gplace_url":"","dealerID":60539,"trusted":false,"image_id":"v1597283967/ford_RM.png","phone":"8004673780","cityStateSlug":"wayne.ne","slug":"Wayne.NE/arnies+ford","location":"42.231328,-97.016832","brandsList":["ford"]},{"id":15830,"crm_id":999,"name":"Anderson Ford of Grand Island","dealerSlug":"anderson+ford+of+grand+island","city_state_slug":"Grand-Island.NE","brand":"Ford","website":"www.andersonfordgrandisland.com","address":"120 Diers Avenue","city":"Grand Island","state":"NE","zip":68803,"latitude":40.917136,"longitude":-98.384888,"phone_number_service":"8887056566","phone_number_main":"","service_hours":"Mo-Th 08:30 - 19:00 | Fr 08:30 - 18:00 | Sa 08:30 - 17:00 | Su Closed","utc_offset":"","gplace_id":0,"gplace_url":"","dealerID":60544,"trusted":false,"image_id":"v1597283967/ford_RM.png","phone":"8887056566","cityStateSlug":"grand-island.ne","slug":"Grand-Island.NE/anderson+ford+of+grand+island","location":"40.917136,-98.384888","brandsList":["ford"]},{"id":16725,"crm_id":999,"name":"Janssen & Sons Ford","dealerSlug":"janssen+and+sons+ford","city_state_slug":"Holdrege.NE","brand":"Ford","website":"www.janssenandsonsford.com","address":"1222 West Highway 6","city":"Holdrege","state":"NE","zip":68949,"latitude":40.437988,"longitude":-99.38584,"phone_number_service":"3089954418","phone_number_main":"","service_hours":"Mo-Fr 08:00 - 19:00 | Sa 08:00 - 16:00 | Su Closed","utc_offset":"","gplace_id":0,"gplace_url":"","dealerID":60562,"trusted":false,"image_id":"v1597283967/ford_RM.png","phone":"3089954418","cityStateSlug":"holdrege.ne","slug":"Holdrege.NE/janssen+and+sons+ford","location":"40.437988,-99.38584","brandsList":["ford"]},{"id":15805,"crm_id":999,"name":"Ainsworth Motors","dealerSlug":"ainsworth+motors","city_state_slug":"Ainsworth.NE","brand":"Ford","website":"www.ainsworthmotors.com/","address":"136 E 2nd St","city":"Ainsworth","state":"NE","zip":69210,"latitude":42.546968,"longitude":-99.861211,"phone_number_service":"4023871681","phone_number_main":"","service_hours":"","utc_offset":"","gplace_id":0,"gplace_url":"","dealerID":60620,"trusted":false,"image_id":"v1597283967/ford_RM.png","phone":"4023871681","cityStateSlug":"ainsworth.ne","slug":"Ainsworth.NE/ainsworth+motors","location":"42.546968,-99.861211","brandsList":["ford"]},{"id":15922,"crm_id":999,"name":"Baxter Chrysler Dodge Jeep RAM FIAT of Papillion","dealerSlug":"baxter+chrysler+dodge+jeep+ram+fiat+of+papillion","city_state_slug":"Omaha.NE","brand":"Chrysler,Dodge,Jeep,RAM,Fiat","website":"www.baxtercdjrpapillion.com","address":"14920 Crest Rd","city":"Omaha","state":"NE","zip":68138,"latitude":41.149481,"longitude":-96.147545,"phone_number_service":"4023393131","phone_number_main":"","service_hours":"Mo-Th 09:00 - 20:00 | Fr-Sa 09:00 - 18:00 | Su Closed","utc_offset":"","gplace_id":0,"gplace_url":"","dealerID":60655,"trusted":false,"image_id":"v1597283975/chrysler_RM.png","phone":"4023393131","cityStateSlug":"omaha.ne","slug":"Omaha.NE/baxter+chrysler+dodge+jeep+ram+fiat+of+papillion","location":"41.149481,-96.147545","brandsList":["chrysler","dodge","jeep","ram","fiat"]},{"id":16119,"crm_id":999,"name":"Chadron Chrysler Dodge Jeep RAM","dealerSlug":"chadron+chrysler+dodge+jeep+ram","city_state_slug":"Chadron.NE","brand":"Chrysler,Dodge,Jeep,RAM","website":"www.chadrondodge.com","address":"1540 West Highway 20","city":"Chadron","state":"NE","zip":69337,"latitude":42.828593,"longitude":-103.023634,"phone_number_service":"3084329004","phone_number_main":"","service_hours":"Mo-Fr 08:00 - 17:00 | Sa 09:00 - 13:00 | Su Closed","utc_offset":"","gplace_id":0,"gplace_url":"","dealerID":60679,"trusted":false,"image_id":"v1597283975/chrysler_RM.png","phone":"3084329004","cityStateSlug":"chadron.ne","slug":"Chadron.NE/chadron+chrysler+dodge+jeep+ram","location":"42.828593,-103.023634","brandsList":["chrysler","dodge","jeep","ram"]},{"id":16887,"crm_id":999,"name":"Larson Motors","dealerSlug":"larson+motors","city_state_slug":"Nebraska-City.NE","brand":"Chrysler,Dodge,Jeep,RAM","website":"www.larsonmotorgroup.com/","address":"1801 Frontage Road","city":"Nebraska City","state":"NE","zip":68410,"latitude":40.68652,"longitude":-95.868139,"phone_number_service":"4028735507","phone_number_main":"","service_hours":"Mo-Fr 08:00 - 18:00 | Sa 08:00 - 15:00 | Su Closed","utc_offset":"","gplace_id":0,"gplace_url":"","dealerID":60763,"trusted":false,"image_id":"v1597283975/chrysler_RM.png","phone":"4028735507","cityStateSlug":"nebraska-city.ne","slug":"Nebraska-City.NE/larson+motors","location":"40.68652,-95.868139","brandsList":["chrysler","dodge","jeep","ram"]},{"id":17846,"crm_id":999,"name":"West Point Ford","dealerSlug":"west+point+ford","city_state_slug":"West-Point.NE","brand":"Ford","website":"www.westpointford.com","address":"1801 Sycamore","city":"West Point","state":"NE","zip":68788,"latitude":41.858684,"longitude":-96.707824,"phone_number_service":"4023741933","phone_number_main":"","service_hours":"Mo-Fr 08:00 - 17:00 | Sa-Su Closed","utc_offset":"","gplace_id":0,"gplace_url":"","dealerID":60764,"trusted":false,"image_id":"v1597283967/ford_RM.png","phone":"4023741933","cityStateSlug":"west-point.ne","slug":"West-Point.NE/west+point+ford","location":"41.858684,-96.707824","brandsList":["ford"]},{"id":15924,"crm_id":999,"name":"Baxter Ford of Omaha","dealerSlug":"baxter+ford+of+omaha","city_state_slug":"Omaha.NE","brand":"Ford","website":"www.baxterforddealerwest.com","address":"18505 California Street","city":"Omaha","state":"NE","zip":68022,"latitude":41.264621,"longitude":-96.20484,"phone_number_service":"4029345656","phone_number_main":"","service_hours":"Mo-Th 09:00 - 20:00 | Fr-Sa 09:00 - 18:00 | Su Closed","utc_offset":"","gplace_id":0,"gplace_url":"","dealerID":60776,"trusted":false,"image_id":"v1597283967/ford_RM.png","phone":"4029345656","cityStateSlug":"omaha.ne","slug":"Omaha.NE/baxter+ford+of+omaha","location":"41.264621,-96.20484","brandsList":["ford"]},{"id":17380,"crm_id":999,"name":"Reinecke Motor Company","dealerSlug":"reinecke+motor+company","city_state_slug":"Schuyler.NE","brand":"Ford","website":"www.reineckemotorcompany.com","address":"204 E. 11th St.","city":"Schuyler","state":"NE","zip":68661,"latitude":41.447667,"longitude":-97.05824,"phone_number_service":"4023522427","phone_number_main":"","service_hours":"Mo-Fr 07:30 - 17:30 | Sa 07:30 - 14:30 | Su Closed","utc_offset":"","gplace_id":0,"gplace_url":"","dealerID":60841,"trusted":false,"image_id":"v1597283967/ford_RM.png","phone":"4023522427","cityStateSlug":"schuyler.ne","slug":"Schuyler.NE/reinecke+motor+company","location":"41.447667,-97.05824","brandsList":["ford"]},{"id":17479,"crm_id":999,"name":"Sandhills Motors Chrysler Dodge RAM","dealerSlug":"sandhills+motors+chrysler+dodge+ram","city_state_slug":"Arnold.NE","brand":"Chrysler,Dodge,RAM","website":"www.sandhillsmotorscdr.com","address":"204 S Walnut St","city":"Arnold","state":"NE","zip":69120,"latitude":41.423974,"longitude":-100.195043,"phone_number_service":"3088482288","phone_number_main":"","service_hours":"Mo-Fr 08:00 - 17:30 | Sa 08:00 - 24:00 | Su Closed","utc_offset":"","gplace_id":0,"gplace_url":"","dealerID":60842,"trusted":false,"image_id":"v1597283975/chrysler_RM.png","phone":"3088482288","cityStateSlug":"arnold.ne","slug":"Arnold.NE/sandhills+motors+chrysler+dodge+ram","location":"41.423974,-100.195043","brandsList":["chrysler","dodge","ram"]},{"id":17882,"crm_id":999,"name":"Woodhouse Ford South","dealerSlug":"woodhouse+ford+south","city_state_slug":"Plattsmouth.NE","brand":"Ford","website":"www.woodhousefordsouth.net","address":"2288 Osage Ranch Blvd.","city":"Plattsmouth","state":"NE","zip":68048,"latitude":40.995249,"longitude":-95.908535,"phone_number_service":"4022969000","phone_number_main":"","service_hours":"Mo-Tu 08:00 - 19:00 | We 08:00 - 18:00 | Th 08:00 - 19:00 | Fr 08:00 - 18:00 | Sa 08:00 - 17:00 | Su Closed","utc_offset":"","gplace_id":0,"gplace_url":"","dealerID":60925,"trusted":false,"image_id":"v1597283967/ford_RM.png","phone":"4022969000","cityStateSlug":"plattsmouth.ne","slug":"Plattsmouth.NE/woodhouse+ford+south","location":"40.995249,-95.908535","brandsList":["ford"]},{"id":17526,"crm_id":999,"name":"Sid Dillon Ford","dealerSlug":"sid+dillon+ford","city_state_slug":"Crete.NE","brand":"Ford","website":"www.siddillonfordlincoln.com","address":"2375 East Highway 33","city":"Crete","state":"NE","zip":68333,"latitude":40.644238,"longitude":-96.935412,"phone_number_service":"4028262668","phone_number_main":"","service_hours":"Mo-Tu 08:00 - 20:00 | We 08:00 - 17:30 | Th 08:00 - 20:00 | Fr 08:00 - 17:30 | Sa 08:00 - 17:00 | Su Closed","utc_offset":"","gplace_id":0,"gplace_url":"","dealerID":60950,"trusted":false,"image_id":"v1597283967/ford_RM.png","phone":"4028262668","cityStateSlug":"crete.ne","slug":"Crete.NE/sid+dillon+ford","location":"40.644238,-96.935412","brandsList":["ford"]},{"id":17525,"crm_id":999,"name":"Sid Dillon Chrysler Dodge Jeep RAM","dealerSlug":"sid+dillon+chrysler+dodge+jeep+ram","city_state_slug":"Crete.NE","brand":"Chrysler,Dodge,Jeep,RAM","website":"www.siddillonchryslerdodgejeepram.com","address":"2385 E Highway 33","city":"Crete","state":"NE","zip":68333,"latitude":40.645946,"longitude":-96.928592,"phone_number_service":"4028265167","phone_number_main":"","service_hours":"Mo-Tu 08:00 - 19:00 | We 08:00 - 17:30 | Th 08:00 - 19:00 | Fr 08:00 - 17:30 | Sa 09:00 - 17:00 | Su Closed","utc_offset":"","gplace_id":0,"gplace_url":"","dealerID":60951,"trusted":false,"image_id":"v1597283975/chrysler_RM.png","phone":"4028265167","cityStateSlug":"crete.ne","slug":"Crete.NE/sid+dillon+chrysler+dodge+jeep+ram","location":"40.645946,-96.928592","brandsList":["chrysler","dodge","jeep","ram"]},{"id":15956,"crm_id":999,"name":"Big Country Auto of Madison County","dealerSlug":"big+country+auto+of+madison+county","city_state_slug":"Madison.NE","brand":"Ford","website":"www.bigcountryofmadisoncounty.com","address":"2500 North Main Street","city":"Madison","state":"NE","zip":68748,"latitude":41.855727,"longitude":-97.443437,"phone_number_service":"4024543339","phone_number_main":"","service_hours":"Mo-Th 09:00 - 20:00 | Fr-Sa 09:00 - 18:00 | Su Closed","utc_offset":"","gplace_id":0,"gplace_url":"","dealerID":60972,"trusted":false,"image_id":"v1597283967/ford_RM.png","phone":"4024543339","cityStateSlug":"madison.ne","slug":"Madison.NE/big+country+auto+of+madison+county","location":"41.855727,-97.443437","brandsList":["ford"]},{"id":17116,"crm_id":999,"name":"Moody Motor Co.","dealerSlug":"moody+motor+co","city_state_slug":"Niobrara.NE","brand":"Ford","website":"www.moodymotor.com","address":"251 Spruce Avenue","city":"Niobrara","state":"NE","zip":68760,"latitude":42.751038,"longitude":-98.034289,"phone_number_service":"4028573711","phone_number_main":"","service_hours":"Mo-We 08:00 - 17:30 | Th 08:00 - 21:00 | Fr 08:00 - 17:30 | Sa 08:00 - 16:30 | Su 12:30 - 16:30","utc_offset":"","gplace_id":0,"gplace_url":"","dealerID":60973,"trusted":false,"image_id":"v1597283967/ford_RM.png","phone":"4028573711","cityStateSlug":"niobrara.ne","slug":"Niobrara.NE/moody+motor+co","location":"42.751038,-98.034289","brandsList":["ford"]},{"id":16727,"crm_id":999,"name":"Janssen Ford of York","dealerSlug":"janssen+ford+of+york","city_state_slug":"York.NE","brand":"Ford","website":"www.janssenfordyork.com","address":"2605 South Lincoln Avenue","city":"York","state":"NE","zip":68467,"latitude":40.838071,"longitude":-97.597454,"phone_number_service":"4023623326","phone_number_main":"","service_hours":"Mo-Fr 09:00 - 18:00 | Sa 09:00 - 16:00 | Su Closed","utc_offset":"","gplace_id":0,"gplace_url":"","dealerID":60999,"trusted":false,"image_id":"v1597283967/ford_RM.png","phone":"4023623326","cityStateSlug":"york.ne","slug":"York.NE/janssen+ford+of+york","location":"40.838071,-97.597454","brandsList":["ford"]},{"id":16638,"crm_id":999,"name":"Honda of Lincoln","dealerSlug":"honda+of+lincoln","city_state_slug":"Lincoln.NE","brand":"Honda","website":"www.hondaoflincoln.com/","address":"2770 Yankee Hill Rd","city":"Lincoln","state":"NE","zip":68516,"latitude":40.727314,"longitude":-96.681198,"phone_number_service":"4024371200","phone_number_main":"4024371216","service_hours":"Mo-Th 08:00 - 20:00 | Fr 08:00 - 18:00 | Sa 08:00 - 17:00 | Su Closed","utc_offset":"","gplace_id":0,"gplace_url":"","dealerID":61025,"trusted":false,"image_id":"v1597284047/honda_ms.png","phone":"4024371200","cityStateSlug":"lincoln.ne","slug":"Lincoln.NE/honda+of+lincoln","location":"40.727314,-96.681198","brandsList":["honda"]},{"id":17875,"crm_id":999,"name":"Wm. Krotter Co.","dealerSlug":"wm+krotter+co","city_state_slug":"O'Neill.NE","brand":"Chrysler,Dodge,Jeep,RAM","website":"www.krotterauto.com","address":"305 W Douglas St","city":"O'Neill","state":"NE","zip":68763,"latitude":42.457345,"longitude":-98.656665,"phone_number_service":"4023369912","phone_number_main":"","service_hours":"Mo-Fr 08:00 - 18:00 | Sa 08:00 - 15:00 | Su Closed","utc_offset":"","gplace_id":0,"gplace_url":"","dealerID":61093,"trusted":false,"image_id":"v1597283975/chrysler_RM.png","phone":"4023369912","cityStateSlug":"o'neill.ne","slug":"O'Neill.NE/wm+krotter+co","location":"42.457345,-98.656665","brandsList":["chrysler","dodge","jeep","ram"]},{"id":15843,"crm_id":999,"name":"Armbruster Motor Company","dealerSlug":"armbruster+motor+company","city_state_slug":"Falls-City.NE","brand":"Chrysler,Dodge,Jeep,RAM","website":"www.armbrustermotor.com","address":"307 W 17th Street","city":"Falls City","state":"NE","zip":68355,"latitude":40.061031,"longitude":-95.605418,"phone_number_service":"4022452471","phone_number_main":"","service_hours":"Mo-Fr 10:00 - 17:00 | Sa 10:00 - 24:00 | Su Closed","utc_offset":"","gplace_id":0,"gplace_url":"","dealerID":61096,"trusted":false,"image_id":"v1597283975/chrysler_RM.png","phone":"4022452471","cityStateSlug":"falls-city.ne","slug":"Falls-City.NE/armbruster+motor+company","location":"40.061031,-95.605418","brandsList":["chrysler","dodge","jeep","ram"]},{"id":16461,"crm_id":999,"name":"Friesen Ford","dealerSlug":"friesen+ford","city_state_slug":"Aurora.NE","brand":"Ford","website":"www.friesenford.net","address":"3115 South 16th Street","city":"Aurora","state":"NE","zip":68818,"latitude":40.824222,"longitude":-97.997008,"phone_number_service":"4026943111","phone_number_main":"","service_hours":"Mo-Fr 08:00 - 18:00 | Sa 08:00 - 16:00 | Su Closed","utc_offset":"","gplace_id":0,"gplace_url":"","dealerID":61117,"trusted":false,"image_id":"v1597283967/ford_RM.png","phone":"4026943111","cityStateSlug":"aurora.ne","slug":"Aurora.NE/friesen+ford","location":"40.824222,-97.997008","brandsList":["ford"]},{"id":16803,"crm_id":999,"name":"Kass Ford Sales","dealerSlug":"kass+ford+sales","city_state_slug":"Hebron.NE","brand":"Ford","website":"","address":"322 Lincoln Avenue","city":"Hebron","state":"NE","zip":68370,"latitude":40.16672,"longitude":-97.591223,"phone_number_service":"4027686064","phone_number_main":"","service_hours":"","utc_offset":"","gplace_id":0,"gplace_url":"","dealerID":61139,"trusted":false,"image_id":"v1597283967/ford_RM.png","phone":"4027686064","cityStateSlug":"hebron.ne","slug":"Hebron.NE/kass+ford+sales","location":"40.16672,-97.591223","brandsList":["ford"]},{"id":17695,"crm_id":999,"name":"Tom Dinsdale Hyundai","dealerSlug":"tom+dinsdale+hyundai","city_state_slug":"Grand-Island.NE","brand":"Hyundai","website":"WWW.DINSDALEHYUNDAI.COM","address":"3333 West Stolley Park Road","city":"Grand Island","state":"NE","zip":68803,"latitude":40.902481,"longitude":-98.3800433,"phone_number_service":"3083824662","phone_number_main":"","service_hours":"Mo-Fr 08:00 - 13:00","utc_offset":"","gplace_id":0,"gplace_url":"","dealerID":61158,"trusted":false,"image_id":"v1597283959/hyundai_RM.png","phone":"3083824662","cityStateSlug":"grand-island.ne","slug":"Grand-Island.NE/tom+dinsdale+hyundai","location":"40.902481,-98.3800433","brandsList":["hyundai"]},{"id":16289,"crm_id":999,"name":"Deveny Chrysler Jeep Dodge RAM","dealerSlug":"deveny+chrysler+jeep+dodge+ram","city_state_slug":"McCook.NE","brand":"Chrysler,Dodge,Jeep,RAM","website":"www.devenychryslerjeepdodge.com","address":"401 E B St","city":"McCook","state":"NE","zip":69001,"latitude":40.199009,"longitude":-100.621349,"phone_number_service":"3083455200","phone_number_main":"","service_hours":"Mo-Fr 08:00 - 18:00 | Sa 08:00 - 15:00 | Su Closed","utc_offset":"","gplace_id":0,"gplace_url":"","dealerID":61243,"trusted":false,"image_id":"v1597283975/chrysler_RM.png","phone":"3083455200","cityStateSlug":"mccook.ne","slug":"McCook.NE/deveny+chrysler+jeep+dodge+ram","location":"40.199009,-100.621349","brandsList":["chrysler","dodge","jeep","ram"]},{"id":17299,"crm_id":999,"name":"Platte Valley Auto Mart-Kearney","dealerSlug":"platte+valley+auto+mart+kearney","city_state_slug":"Kearney.NE","brand":"Ford","website":"www.plattevalleykearneyford.com","address":"4210 North 2nd Avenue","city":"Kearney","state":"NE","zip":68847,"latitude":40.716298,"longitude":-99.084051,"phone_number_service":"3082372171","phone_number_main":"","service_hours":"Mo-Fr 08:00 - 19:00 | Sa 08:00 - 17:00 | Su 01:00 - 16:00","utc_offset":"","gplace_id":0,"gplace_url":"","dealerID":61277,"trusted":false,"image_id":"v1597283967/ford_RM.png","phone":"3082372171","cityStateSlug":"kearney.ne","slug":"Kearney.NE/platte+valley+auto+mart+kearney","location":"40.716298,-99.084051","brandsList":["ford"]},{"id":16085,"crm_id":999,"name":"C & O Ford","dealerSlug":"c+and+o+ford","city_state_slug":"Fairbury.NE","brand":"Ford","website":"www.cofordoffairbury.com","address":"601 5th Street","city":"Fairbury","state":"NE","zip":68352,"latitude":40.136247,"longitude":-97.1782,"phone_number_service":"4027292231","phone_number_main":"","service_hours":"Mo-We 08:00 - 17:30 | Th 08:00 - 20:00 | Fr 08:00 - 17:30 | Sa 08:00 - 16:00 | Su Closed","utc_offset":"","gplace_id":0,"gplace_url":"","dealerID":61436,"trusted":false,"image_id":"v1597283967/ford_RM.png","phone":"4027292231","cityStateSlug":"fairbury.ne","slug":"Fairbury.NE/c+and+o+ford","location":"40.136247,-97.1782","brandsList":["ford"]},{"id":16393,"crm_id":999,"name":"Faws Garage","dealerSlug":"faws+garage","city_state_slug":"Arapahoe.NE","brand":"Chrysler,Dodge,Jeep,RAM","website":"www.fawsgaragecdjr.com","address":"620 Nebraska Ave","city":"Arapahoe","state":"NE","zip":68922,"latitude":40.304661,"longitude":-99.897849,"phone_number_service":"3089627415","phone_number_main":"","service_hours":"Mo-Fr 07:30 - 18:00 | Sa 07:30 - 15:00 | Su Closed","utc_offset":"","gplace_id":0,"gplace_url":"","dealerID":61457,"trusted":false,"image_id":"v1597283975/chrysler_RM.png","phone":"3089627415","cityStateSlug":"arapahoe.ne","slug":"Arapahoe.NE/faws+garage","location":"40.304661,-99.897849","brandsList":["chrysler","dodge","jeep","ram"]},{"id":16662,"crm_id":999,"name":"Husker Auto Group","dealerSlug":"husker+auto+group","city_state_slug":"Lincoln.NE","brand":"Mercedes-Benz","website":"www.husker.mercedesdealer.com","address":"6701 Telluride Drive","city":"Lincoln","state":"NE","zip":68521,"latitude":40.878855,"longitude":-96.683769,"phone_number_service":"4024797600","phone_number_main":"8888713158","service_hours":"","utc_offset":"","gplace_id":0,"gplace_url":"","dealerID":61502,"trusted":false,"image_id":"v1597283934/mercedes_RM.png","phone":"4024797600","cityStateSlug":"lincoln.ne","slug":"Lincoln.NE/husker+auto+group","location":"40.878855,-96.683769","brandsList":["mercedes-benz"]},{"id":16188,"crm_id":999,"name":"Cornhusker Auto Center","dealerSlug":"cornhusker+auto+center","city_state_slug":"Norfolk.NE","brand":"Chrysler,Dodge,Jeep,RAM","website":"www.cornhuskerautocenter.com","address":"700 East Norfolk Ave","city":"Norfolk","state":"NE","zip":68701,"latitude":42.032201,"longitude":-97.396792,"phone_number_service":"4023713765","phone_number_main":"","service_hours":"Mo-Fr 08:00 - 19:00 | Sa 08:00 - 17:00 | Su Closed","utc_offset":"","gplace_id":0,"gplace_url":"","dealerID":61515,"trusted":false,"image_id":"v1597283975/chrysler_RM.png","phone":"4023713765","cityStateSlug":"norfolk.ne","slug":"Norfolk.NE/cornhusker+auto+center","location":"42.032201,-97.396792","brandsList":["chrysler","dodge","jeep","ram"]},{"id":16602,"crm_id":999,"name":"Herpolsheimer's","dealerSlug":"herpolsheimers","city_state_slug":"Seward.NE","brand":"Chrysler,Dodge,Jeep,RAM","website":"www.herpolsheimers.net","address":"702 Seward St","city":"Seward","state":"NE","zip":68434,"latitude":40.908079,"longitude":-97.100565,"phone_number_service":"4026433608","phone_number_main":"","service_hours":"Mo-Fr 07:30 - 18:00 | Sa 07:30 - 13:00 | Su Closed","utc_offset":"","gplace_id":0,"gplace_url":"","dealerID":61519,"trusted":false,"image_id":"v1597283975/chrysler_RM.png","phone":"4026433608","cityStateSlug":"seward.ne","slug":"Seward.NE/herpolsheimers","location":"40.908079,-97.100565","brandsList":["chrysler","dodge","jeep","ram"]},{"id":15923,"crm_id":999,"name":"Baxter Chrysler Dodge Jeep RAM of Bellevue","dealerSlug":"baxter+chrysler+dodge+jeep+ram+of+bellevue","city_state_slug":"Bellevue.NE","brand":"Chrysler,Dodge,Jeep,RAM","website":"www.baxtercdjrbellevue.com","address":"7713 South 19th Circle","city":"Bellevue","state":"NE","zip":68147,"latitude":41.182713,"longitude":-95.940944,"phone_number_service":"4029342886","phone_number_main":"","service_hours":"Mo-Th 09:00 - 20:00 | Fr-Sa 09:00 - 18:00 | Su Closed","utc_offset":"","gplace_id":0,"gplace_url":"","dealerID":61563,"trusted":false,"image_id":"v1597283975/chrysler_RM.png","phone":"4029342886","cityStateSlug":"bellevue.ne","slug":"Bellevue.NE/baxter+chrysler+dodge+jeep+ram+of+bellevue","location":"41.182713,-95.940944","brandsList":["chrysler","dodge","jeep","ram"]},{"id":16192,"crm_id":999,"name":"Corwin Toyota of Bellevue","dealerSlug":"corwin+toyota+of+bellevue","city_state_slug":"Bellevue.NE","brand":"Toyota","website":"www.corwintoyotaofbellevue.com","address":"7851 S. 19th Circle","city":"Bellevue","state":"NE","zip":68147,"latitude":41.1807,"longitude":-95.9422,"phone_number_service":"5703431221","phone_number_main":"","service_hours":"Mo-Th 08:30 - 20:00 | Fr-Sa 08:30 - 18:00","utc_offset":"","gplace_id":0,"gplace_url":"","dealerID":61572,"trusted":false,"image_id":"v1597284039/toyota_ms.png","phone":"5703431221","cityStateSlug":"bellevue.ne","slug":"Bellevue.NE/corwin+toyota+of+bellevue","location":"41.1807,-95.9422","brandsList":["toyota"]},{"id":17884,"crm_id":999,"name":"Woodhouse Hyundai Of Omaha","dealerSlug":"woodhouse+hyundai+of+omaha","city_state_slug":"Omaha.NE","brand":"Hyundai","website":"www.woodhousehyundaiofomaha.com","address":"8410 S 145Th Street","city":"Omaha","state":"NE","zip":68138,"latitude":41.2645832,"longitude":-96.0938651,"phone_number_service":"4025921007","phone_number_main":"","service_hours":"Mo-Fr 07:00 - 17:00 | Sa 08:00 - 12:00","utc_offset":"","gplace_id":0,"gplace_url":"","dealerID":61625,"trusted":false,"image_id":"v1597283959/hyundai_RM.png","phone":"4025921007","cityStateSlug":"omaha.ne","slug":"Omaha.NE/woodhouse+hyundai+of+omaha","location":"41.2645832,-96.0938651","brandsList":["hyundai"]},{"id":1090,"crm_id":60526810,"name":"Baxter Chrysler Dodge Jeep RAM FIAT of La Vista","dealerSlug":"baxter+chrysler+dodge+jeep+ram+fiat+of+la+vista","city_state_slug":"La-Vista.NE","brand":"Chrysler,Dodge,Jeep,RAM,Fiat","website":"www.baxtercdjrlavista.com","address":"7010 South 124th Circle","city":"La Vista","state":"NE","zip":68128,"latitude":41.1896358,"longitude":-96.1108549,"phone_number_service":"8442920027","phone_number_main":"4028001229","service_hours":"Mo-Fr 06:00 - 18:00 | Sa 07:00 - 16:30","utc_offset":"-300","gplace_id":null,"gplace_url":"https://maps.google.com/?cid=16600718406685175424","dealerID":62459,"trusted":false,"image_id":"v1597283975/chrysler_RM.png","phone":"8442920027","cityStateSlug":"la-vista.ne","slug":"La-Vista.NE/baxter+chrysler+dodge+jeep+ram+fiat+of+la+vista","location":"41.1896358,-96.1108549","brandsList":["chrysler","dodge","jeep","ram","fiat"]},{"id":13933,"crm_id":62609977,"name":"Superior Honda of Omaha","dealerSlug":"superior+honda+of+omaha","city_state_slug":"Omaha.NE","brand":"Honda","website":"www.hondaofomaha.com","address":"4111 S 144th St","city":"Omaha","state":"NE","zip":68137,"latitude":41.2186176,"longitude":-96.1377365,"phone_number_service":"4024081000","phone_number_main":"4024081000","service_hours":"Mo-Fr 07:00 17:30 | Sa 08:00 - 18:00","utc_offset":"-300","gplace_id":null,"gplace_url":"https://maps.google.com/?cid=5045146282972184684","dealerID":62502,"trusted":false,"image_id":"v1597284047/honda_ms.png","phone":"4024081000","cityStateSlug":"omaha.ne","slug":"Omaha.NE/superior+honda+of+omaha","location":"41.2186176,-96.1377365","brandsList":["honda"]},{"id":10774,"crm_id":67032589,"name":"Norfolk Auto Center","dealerSlug":"norfolk+auto+center","city_state_slug":"Norfolk.NE","brand":"Buick,Chevrolet,GMC","website":"www.norfolkchevy.com","address":"1123 S 20th St","city":"Norfolk","state":"NE","zip":68701,"latitude":42.0200057,"longitude":-97.4371091,"phone_number_service":"4023163311","phone_number_main":"4023713377","service_hours":"Mo-Fr 07:30 - 19:00 | Sa 08:00 - 17:00","utc_offset":"-300","gplace_id":null,"gplace_url":"https://maps.google.com/?cid=9709961842966517391","dealerID":62923,"trusted":false,"image_id":"v1597283981/buick_RM.png","phone":"4023163311","cityStateSlug":"norfolk.ne","slug":"Norfolk.NE/norfolk+auto+center","location":"42.0200057,-97.4371091","brandsList":["buick","chevrolet","gmc"]},{"id":5852,"crm_id":67034167,"name":"Gregg Young Chevrolet Omaha","dealerSlug":"gregg+young+chevrolet+omaha","city_state_slug":"Omaha.NE","brand":"Chevrolet","website":"www.gychevy.net","address":"17750 Burt St","city":"Omaha","state":"NE","zip":68118,"latitude":41.2655556,"longitude":-96.1925,"phone_number_service":"8667199374","phone_number_main":"4025093028","service_hours":"Mo-Fr 07:00 - 18:00 | Sa 07:00 - 15:00","utc_offset":"-300","gplace_id":null,"gplace_url":"https://maps.google.com/?cid=7449165919920826066","dealerID":63357,"trusted":false,"image_id":"v1597284079/chevy_ms.png","phone":"8667199374","cityStateSlug":"omaha.ne","slug":"Omaha.NE/gregg+young+chevrolet+omaha","location":"41.2655556,-96.1925","brandsList":["chevrolet"]},{"id":7087,"crm_id":67034179,"name":"Jacobs Ford","dealerSlug":"jacobs+ford","city_state_slug":"Saint-Paul.NE","brand":"Ford","website":"www.jacobsford.com","address":"303 2nd St","city":"Saint Paul","state":"NE","zip":68873,"latitude":41.2089077,"longitude":-98.451801,"phone_number_service":"3087544448","phone_number_main":"3087544448","service_hours":"Mo-Fr 08:00 - 18:00 | Sa 08:00 - 16:00","utc_offset":"-300","gplace_id":null,"gplace_url":"https://maps.google.com/?cid=15740313307963831953","dealerID":63360,"trusted":false,"image_id":"v1597283967/ford_RM.png","phone":"3087544448","cityStateSlug":"saint-paul.ne","slug":"Saint-Paul.NE/jacobs+ford","location":"41.2089077,-98.451801","brandsList":["ford"]},{"id":12075,"crm_id":67034302,"name":"Ranchland Ford","dealerSlug":"ranchland+ford","city_state_slug":"Broken-Bow.NE","brand":"Ford","website":"www.ranchland-ford.com","address":"1024 East S East St","city":"Broken Bow","state":"NE","zip":68822,"latitude":41.4010975,"longitude":-99.6196769,"phone_number_service":"8884395088","phone_number_main":"3088726488","service_hours":"Mo-Fr 08:00 - 17:30 | Sa 08:00 - 12:00","utc_offset":"-300","gplace_id":null,"gplace_url":"https://maps.google.com/?cid=16916322757245708260","dealerID":63395,"trusted":false,"image_id":"v1597283967/ford_RM.png","phone":"8884395088","cityStateSlug":"broken-bow.ne","slug":"Broken-Bow.NE/ranchland+ford","location":"41.4010975,-99.6196769","brandsList":["ford"]},{"id":4562,"crm_id":67034374,"name":"Ernst Toyota","dealerSlug":"ernst+toyota","city_state_slug":"Columbus.NE","brand":"Toyota","website":"www.ernsttoyota.com","address":"815 E 23rd St","city":"Columbus","state":"NE","zip":68601,"latitude":41.4375232,"longitude":-97.3181354,"phone_number_service":"8559233002","phone_number_main":"4025642736","service_hours":"Mo-Fr 07:30 - 17:30 | Sa 07:30 - 12:00","utc_offset":"-300","gplace_id":null,"gplace_url":"https://maps.google.com/?cid=9718923275023873784","dealerID":63414,"trusted":false,"image_id":"v1597284039/toyota_ms.png","phone":"8559233002","cityStateSlug":"columbus.ne","slug":"Columbus.NE/ernst+toyota","location":"41.4375232,-97.3181354","brandsList":["toyota"]},{"id":1147,"crm_id":67034731,"name":"Beardmore Chevrolet","dealerSlug":"beardmore+chevrolet","city_state_slug":"Bellevue.NE","brand":"Chevrolet","website":"www.beardmorechevy.com","address":"418 Fort Crook Road North PO Box 459","city":"Bellevue","state":"NE","zip":68005,"latitude":41.1668582,"longitude":-95.9267196,"phone_number_service":"4022530625","phone_number_main":"4027342525","service_hours":"Mo-Fr 07:00 - 20:00 | Sa 07:00 - 18:00 | Su 10:00 - 17:00","utc_offset":"-300","gplace_id":null,"gplace_url":"https://maps.google.com/?cid=12451917124330777047","dealerID":63518,"trusted":false,"image_id":"v1597284079/chevy_ms.png","phone":"4022530625","cityStateSlug":"bellevue.ne","slug":"Bellevue.NE/beardmore+chevrolet","location":"41.1668582,-95.9267196","brandsList":["chevrolet"]},{"id":1148,"crm_id":67035130,"name":"Beardmore Subaru","dealerSlug":"beardmore+subaru","city_state_slug":"Bellevue.NE","brand":"Subaru","website":"www.beardmoresubaru.com","address":"410 Fort Crook Rd N","city":"Bellevue","state":"NE","zip":68005,"latitude":41.1648856,"longitude":-95.9271952,"phone_number_service":"4027342525","phone_number_main":"4027342525","service_hours":"Mo-Th 07:00 - 20:00 | Fr-Sa 07:00 - 18:00 | Sa 10:00 - 17:00","utc_offset":"-300","gplace_id":null,"gplace_url":"https://maps.google.com/?cid=12929455028774677823","dealerID":63619,"trusted":false,"image_id":"v1597283982/subaru_ms.png","phone":"4027342525","cityStateSlug":"bellevue.ne","slug":"Bellevue.NE/beardmore+subaru","location":"41.1648856,-95.9271952","brandsList":["subaru"]},{"id":4040,"crm_id":67036105,"name":"Diers Ford Lincoln","dealerSlug":"diers+ford+lincoln","city_state_slug":"Fremont.NE","brand":"Ford,Lincoln","website":"www.diersford.com","address":"2445 N.Broad St.","city":"Fremont","state":"NE","zip":68025,"latitude":41.453134,"longitude":-96.498217,"phone_number_service":"4022150196","phone_number_main":"4027211471","service_hours":"Mo-Fr 07:00 - 17:30 | Sa 07:00 - 13:00","utc_offset":"-300","gplace_id":null,"gplace_url":"https://maps.google.com/?cid=408321391303450238","dealerID":63886,"trusted":false,"image_id":"v1597283967/ford_RM.png","phone":"4022150196","cityStateSlug":"fremont.ne","slug":"Fremont.NE/diers+ford+lincoln","location":"41.453134,-96.498217","brandsList":["ford","lincoln"]},{"id":7216,"crm_id":67036177,"name":"Janssen Chrysler Jeep Dodge RAM Of Holdrege","dealerSlug":"janssen+chrysler+jeep+dodge+ram+of+holdrege","city_state_slug":"Holdrege.NE","brand":"Chrysler,Dodge,Jeep,RAM","website":"www.janssenchryslerholdrege.com","address":"601 W 4th Ave","city":"Holdrege","state":"NE","zip":68949,"latitude":40.4371489,"longitude":-99.3883406,"phone_number_service":"8443086310","phone_number_main":"3089958423","service_hours":"Mo-Fr 07:30 - 17:00 | Sa 08:00 - 12:00","utc_offset":"-300","gplace_id":null,"gplace_url":"https://maps.google.com/?cid=7928787457445609420","dealerID":63904,"trusted":false,"image_id":"v1597283975/chrysler_RM.png","phone":"8443086310","cityStateSlug":"holdrege.ne","slug":"Holdrege.NE/janssen+chrysler+jeep+dodge+ram+of+holdrege","location":"40.4371489,-99.3883406","brandsList":["chrysler","dodge","jeep","ram"]},{"id":14693,"crm_id":67037170,"name":"Twin Rivers Chrysler Jeep Dodge","dealerSlug":"twin+rivers+chrysler+jeep+dodge","city_state_slug":"Beatrice.NE","brand":"Chrysler,Dodge,Jeep,RAM","website":"www.twinriverschryslerjeepdodge.com","address":"529 W Court St","city":"Beatrice","state":"NE","zip":68310,"latitude":40.2652666,"longitude":-96.7643248,"phone_number_service":"4029881998","phone_number_main":"4022283311","service_hours":"Mo-Fr 07:30 - 17:30 | Sa 07:30-12:00","utc_offset":"-300","gplace_id":null,"gplace_url":"https://maps.google.com/?cid=15098600157580188987","dealerID":64184,"trusted":false,"image_id":"v1597283975/chrysler_RM.png","phone":"4029881998","cityStateSlug":"beatrice.ne","slug":"Beatrice.NE/twin+rivers+chrysler+jeep+dodge","location":"40.2652666,-96.7643248","brandsList":["chrysler","dodge","jeep","ram"]},{"id":11725,"crm_id":67037290,"name":"Porsche Omaha","dealerSlug":"porsche+omaha","city_state_slug":"Omaha.NE","brand":"Porsche","website":"www.porscheomaha.com","address":"6625 L Street","city":"Omaha","state":"NE","zip":68117,"latitude":41.211741,"longitude":-96.0178737,"phone_number_service":"4025041560","phone_number_main":"4025041560","service_hours":"Mo-Fr 07:00 - 17:00 | Sa 08:00 - 16:00","utc_offset":"-300","gplace_id":null,"gplace_url":"https://maps.google.com/?cid=9683925014541846067","dealerID":64221,"trusted":false,"image_id":"v1597283919/porsche.jpg","phone":"4025041560","cityStateSlug":"omaha.ne","slug":"Omaha.NE/porsche+omaha","location":"41.211741,-96.0178737","brandsList":["porsche"]},{"id":6762,"crm_id":67037872,"name":"Hullman's Ford Lincoln","dealerSlug":"hullmans+ford+lincoln","city_state_slug":"Falls-City.NE","brand":"Ford,Lincoln","website":"www.hullmansford.com","address":"1416 Harlan St","city":"Falls City","state":"NE","zip":68355,"latitude":40.0594231,"longitude":-95.6014068,"phone_number_service":"8884575836","phone_number_main":"4022454413","service_hours":"Mo-Fr 07:30 - 17:00 | Sa 08:00 - 12:00","utc_offset":"-300","gplace_id":null,"gplace_url":"https://maps.google.com/?cid=6933969982092631943","dealerID":64385,"trusted":false,"image_id":"v1597283967/ford_RM.png","phone":"8884575836","cityStateSlug":"falls-city.ne","slug":"Falls-City.NE/hullmans+ford+lincoln","location":"40.0594231,-95.6014068","brandsList":["ford","lincoln"]},{"id":6562,"crm_id":67037911,"name":"Honda Cars of Bellevue","dealerSlug":"honda+cars+of+bellevue","city_state_slug":"Bellevue.NE","brand":"Honda","website":"www.hondacarsofbellevue.com","address":"510 Fort Crook Rd N","city":"Bellevue","state":"NE","zip":68005,"latitude":41.167836,"longitude":-95.9268546,"phone_number_service":"4026956500","phone_number_main":"4026956500","service_hours":"Mo-Fr 07:00 - 17:30 | Sa 08:00 - 17:00","utc_offset":"-300","gplace_id":null,"gplace_url":"https://maps.google.com/?cid=3932544803174540043","dealerID":64397,"trusted":false,"image_id":"v1597284047/honda_ms.png","phone":"4026956500","cityStateSlug":"bellevue.ne","slug":"Bellevue.NE/honda+cars+of+bellevue","location":"41.167836,-95.9268546","brandsList":["honda"]},{"id":12490,"crm_id":67038520,"name":"Roe Buick","dealerSlug":"roe+buick","city_state_slug":"Grand-Island.NE","brand":"Buick","website":"www.goroecars.com","address":"3444 W Stolley Park Rd","city":"Grand Island","state":"NE","zip":68803,"latitude":40.902875,"longitude":-98.382953,"phone_number_service":"3082102152","phone_number_main":"3083820280","service_hours":"Mo-Fr 07:30 - 17:30 | Sa 08:00-13:00","utc_offset":"-300","gplace_id":null,"gplace_url":"https://maps.google.com/?cid=10461538213664678412","dealerID":64561,"trusted":false,"image_id":"v1597283981/buick_RM.png","phone":"3082102152","cityStateSlug":"grand-island.ne","slug":"Grand-Island.NE/roe+buick","location":"40.902875,-98.382953","brandsList":["buick"]},{"id":6217,"crm_id":67038796,"name":"Heartland Chevrolet Buick","dealerSlug":"heartland+chevrolet+buick","city_state_slug":"Lexington.NE","brand":"Buick,Chevrolet","website":"www.heartlandchevybuick.com","address":"1111 Plum Creek Pkwy","city":"Lexington","state":"NE","zip":68850,"latitude":40.7660911,"longitude":-99.7407959,"phone_number_service":"3082174985","phone_number_main":"3082174097","service_hours":"Mo-Fr 08:00 - 17:30 | Sa 08:00 - 12:00","utc_offset":"-300","gplace_id":null,"gplace_url":"https://maps.google.com/?cid=3167657181961038517","dealerID":64639,"trusted":false,"image_id":"v1597283981/buick_RM.png","phone":"3082174985","cityStateSlug":"lexington.ne","slug":"Lexington.NE/heartland+chevrolet+buick","location":"40.7660911,-99.7407959","brandsList":["buick","chevrolet"]},{"id":7930,"crm_id":67039126,"name":"Kia of Lincoln","dealerSlug":"kia+of+lincoln","city_state_slug":"Lincoln.NE","brand":"Kia","website":"www.kiaoflincoln.com","address":"1145 N 48th St","city":"Lincoln","state":"NE","zip":68504,"latitude":40.8249113,"longitude":-96.6544268,"phone_number_service":"4024347000","phone_number_main":"4024347000","service_hours":"Mo-Fr 07:30-18:00 | Sa 08:00-12:00","utc_offset":"-300","gplace_id":null,"gplace_url":"https://maps.google.com/?cid=6724261280439367351","dealerID":64728,"trusted":false,"image_id":"v1597283948/kia_RM.png","phone":"4024347000","cityStateSlug":"lincoln.ne","slug":"Lincoln.NE/kia+of+lincoln","location":"40.8249113,-96.6544268","brandsList":["kia"]},{"id":4288,"crm_id":67039651,"name":"DuTeau Chevrolet","dealerSlug":"duteau+chevrolet","city_state_slug":"Lincoln.NE","brand":"Chevrolet","website":"www.duteauchevrolet.com","address":"7300 S 27th St","city":"Lincoln","state":"NE","zip":68512,"latitude":40.736906,"longitude":-96.681526,"phone_number_service":"8667359965","phone_number_main":"8667352310","service_hours":"Mo-Fr 07:00 - 17:30 | Sa 08:00 - 12:00","utc_offset":"-300","gplace_id":null,"gplace_url":"https://maps.google.com/?cid=13422153860368408973","dealerID":64873,"trusted":false,"image_id":"v1597284079/chevy_ms.png","phone":"8667359965","cityStateSlug":"lincoln.ne","slug":"Lincoln.NE/duteau+chevrolet","location":"40.736906,-96.681526","brandsList":["chevrolet"]},{"id":7335,"crm_id":67040026,"name":"Jerry Spady Chevrolet GMC Cadillac","dealerSlug":"jerry+spady+chevrolet+gmc+cadillac","city_state_slug":"Hastings.NE","brand":"Cadillac,Chevrolet,GMC","website":"www.spadygm.com","address":"2750 Osborne Dr E","city":"Hastings","state":"NE","zip":68901,"latitude":40.6130206,"longitude":-98.3805243,"phone_number_service":"4024634000","phone_number_main":"4024634000","service_hours":"Mo-Fr 07:30 - 17:00 | Sa 08:00-12:00","utc_offset":"-300","gplace_id":null,"gplace_url":"https://maps.google.com/?cid=17491678348342717666","dealerID":64976,"trusted":false,"image_id":"v1597283980/cadillac.png","phone":"4024634000","cityStateSlug":"hastings.ne","slug":"Hastings.NE/jerry+spady+chevrolet+gmc+cadillac","location":"40.6130206,-98.3805243","brandsList":["cadillac","chevrolet","gmc"]},{"id":1095,"crm_id":67043140,"name":"Baxter Toyota La Vista","dealerSlug":"baxter+toyota+la+vista","city_state_slug":"La-Vista.NE","brand":"Toyota","website":"www.toyotaoflavista.com","address":"7204 S 124th Cir","city":"La Vista","state":"NE","zip":68128,"latitude":41.1881407,"longitude":-96.1074277,"phone_number_service":"4026828702","phone_number_main":"4027312000","service_hours":"Mo-Fr 06:00 - 18:00 | Sa 07:30 - 17:00","utc_offset":"-300","gplace_id":null,"gplace_url":"https://maps.google.com/?cid=14582701738499098094","dealerID":65804,"trusted":false,"image_id":"v1597284039/toyota_ms.png","phone":"4026828702","cityStateSlug":"la-vista.ne","slug":"La-Vista.NE/baxter+toyota+la+vista","location":"41.1881407,-96.1074277","brandsList":["toyota"]},{"id":8712,"crm_id":67044157,"name":"Lexus of Lincoln","dealerSlug":"lexus+of+lincoln","city_state_slug":"Lincoln.NE","brand":"Lexus","website":"www.lexusoflincoln.com","address":"8585 South 37th Street","city":"Lincoln","state":"NE","zip":68516,"latitude":40.7254028,"longitude":-96.6686019,"phone_number_service":"4028177457","phone_number_main":"4028589245","service_hours":"Mo-Fr 07:00 - 18:00 | Sa 08:00 - 15:00","utc_offset":"-300","gplace_id":null,"gplace_url":"https://maps.google.com/?cid=3483883699117921150","dealerID":66082,"trusted":false,"image_id":"v1597284042/lexus_ms.png","phone":"4028177457","cityStateSlug":"lincoln.ne","slug":"Lincoln.NE/lexus+of+lincoln","location":"40.7254028,-96.6686019","brandsList":["lexus"]},{"id":15626,"crm_id":67044175,"name":"Woodhouse Nissan","dealerSlug":"woodhouse+nissan","city_state_slug":"Bellevue.NE","brand":"Nissan","website":"www.woodhousenissan.com","address":"7801 Nebraska Dr","city":"Bellevue","state":"NE","zip":68005,"latitude":41.1823143,"longitude":-95.9353021,"phone_number_service":"4027383857","phone_number_main":"4027312622","service_hours":"Mo-Fr 07:00 - 18:00 | Sa 08:00 - 12:00","utc_offset":"-300","gplace_id":null,"gplace_url":"https://maps.google.com/?cid=13533605028475006278","dealerID":66087,"trusted":false,"image_id":"v1597283926/nissan_RM.png","phone":"4027383857","cityStateSlug":"bellevue.ne","slug":"Bellevue.NE/woodhouse+nissan","location":"41.1823143,-95.9353021","brandsList":["nissan"]},{"id":5682,"crm_id":67044469,"name":"Gorges Volvo Cars","dealerSlug":"gorges+volvo+cars","city_state_slug":"Omaha.NE","brand":"Volvo","website":"www.gorgesvolvocars.com","address":"17665 Burt St","city":"Omaha","state":"NE","zip":68118,"latitude":41.2641787,"longitude":-96.1911607,"phone_number_service":"8778691667","phone_number_main":"4023591500","service_hours":"Mo-Fr 07:00 - 18:00 | Sa 08:00 - 15:00","utc_offset":"-300","gplace_id":null,"gplace_url":"https://maps.google.com/?cid=17427671501461565486","dealerID":66163,"trusted":false,"image_id":"v1597283901/volvo.jpg","phone":"8778691667","cityStateSlug":"omaha.ne","slug":"Omaha.NE/gorges+volvo+cars","location":"41.2641787,-96.1911607","brandsList":["volvo"]},{"id":15625,"crm_id":67044568,"name":"Woodhouse Mazda","dealerSlug":"woodhouse+mazda","city_state_slug":"Omaha.NE","brand":"Mazda","website":"www.woodhousemazda.com","address":"6603 L St","city":"Omaha","state":"NE","zip":68117,"latitude":41.2118984,"longitude":-96.0147676,"phone_number_service":"8558976095","phone_number_main":"4025921000","service_hours":"Mo-Fr 07:00 - 18:00 | Sa 08:00 - 13:00","utc_offset":"-300","gplace_id":null,"gplace_url":"https://maps.google.com/?cid=14330956014037582436","dealerID":66189,"trusted":false,"image_id":"v1597283937/mazda.png","phone":"8558976095","cityStateSlug":"omaha.ne","slug":"Omaha.NE/woodhouse+mazda","location":"41.2118984,-96.0147676","brandsList":["mazda"]},{"id":4561,"crm_id":67045936,"name":"Ernst Chevrolet Buick GMC","dealerSlug":"ernst+chevrolet+buick+gmc","city_state_slug":"Columbus.NE","brand":"Buick,Chevrolet,GMC","website":"www.ernstgm.com/","address":"615 East 23rd Street","city":"Columbus","state":"NE","zip":68601,"latitude":41.4377132,"longitude":-97.3188779,"phone_number_service":"4028354221","phone_number_main":"4025642736","service_hours":"Mo-Fr 07:30 - 17:30 | Sa 07:30 - 12:00","utc_offset":"-300","gplace_id":null,"gplace_url":"https://maps.google.com/?cid=15390584663301894941","dealerID":66556,"trusted":false,"image_id":"v1597283981/buick_RM.png","phone":"4028354221","cityStateSlug":"columbus.ne","slug":"Columbus.NE/ernst+chevrolet+buick+gmc","location":"41.4377132,-97.3188779","brandsList":["buick","chevrolet","gmc"]},{"id":3331,"crm_id":67046554,"name":"Cornhusker Nissan","dealerSlug":"cornhusker+nissan","city_state_slug":"Norfolk.NE","brand":"Nissan","website":"www.cornhuskernissan.com","address":"307 East Norfolk Avenue","city":"Norfolk","state":"NE","zip":68701,"latitude":42.0331871,"longitude":-97.4029477,"phone_number_service":"4022602380","phone_number_main":"4022602389","service_hours":"Mo-Fr 08:00 - 17:30 | Sa 08:00 - 12:00","utc_offset":"-300","gplace_id":null,"gplace_url":"https://maps.google.com/?cid=10594248922613307598","dealerID":66709,"trusted":false,"image_id":"v1597283926/nissan_RM.png","phone":"4022602380","cityStateSlug":"norfolk.ne","slug":"Norfolk.NE/cornhusker+nissan","location":"42.0331871,-97.4029477","brandsList":["nissan"]},{"id":14320,"crm_id":67048846,"name":"Tom Dinsdale Chrysler Dodge Jeep RAM","dealerSlug":"tom+dinsdale+chrysler+dodge+jeep+ram","city_state_slug":"Hastings.NE","brand":"Chrysler,Dodge,Jeep,RAM","website":"www.tomdinsdalecdjr.com","address":"2800 Osborne Dr E","city":"Hastings","state":"NE","zip":68901,"latitude":40.6140829,"longitude":-98.3812975,"phone_number_service":"â€‹4025194316","phone_number_main":"4024633104","service_hours":"Mo-Fr 08:00 - 17:00 | Sa 08:00 - 12:00","utc_offset":"-300","gplace_id":null,"gplace_url":"https://maps.google.com/?cid=10337050765947707572","dealerID":67328,"trusted":false,"image_id":"v1597283975/chrysler_RM.png","phone":"4025194316","cityStateSlug":"hastings.ne","slug":"Hastings.NE/tom+dinsdale+chrysler+dodge+jeep+ram","location":"40.6140829,-98.3812975","brandsList":["chrysler","dodge","jeep","ram"]},{"id":312,"crm_id":67052179,"name":"Anderson CDJR of Grand Island","dealerSlug":"anderson+cdjr+of+grand+island","city_state_slug":"Grand-Island.NE","brand":"Chrysler,Dodge,Jeep,RAM","website":"www.andersoncdjrofgrandisland.com","address":"1803 S Locust St","city":"Grand Island","state":"NE","zip":68801,"latitude":40.9037543,"longitude":-98.3388454,"phone_number_service":"3082109648","phone_number_main":"3083848300","service_hours":"Mo-Fr 07:00 - 18:00 | Sa 08:00 - 15:00","utc_offset":"-300","gplace_id":null,"gplace_url":"https://maps.google.com/?cid=14055538521305874346","dealerID":68250,"trusted":false,"image_id":"v1597283975/chrysler_RM.png","phone":"3082109648","cityStateSlug":"grand-island.ne","slug":"Grand-Island.NE/anderson+cdjr+of+grand+island","location":"40.9037543,-98.3388454","brandsList":["chrysler","dodge","jeep","ram"]},{"id":318,"crm_id":67052242,"name":"Anderson Ford, Lincoln","dealerSlug":"anderson+ford+lincoln","city_state_slug":"Lincoln.NE","brand":"Ford,Lincoln","website":"www.andersonoflincoln.com","address":"2500 Wildcat Dr","city":"Lincoln","state":"NE","zip":68521,"latitude":40.8819981,"longitude":-96.6834046,"phone_number_service":"4024589801","phone_number_main":"4024589800","service_hours":"Mo-Fr 07:00 - 18:00 | Sa 07:00 - 15:00","utc_offset":"-300","gplace_id":null,"gplace_url":"https://maps.google.com/?cid=9068666731444040337","dealerID":68263,"trusted":false,"image_id":"v1597283967/ford_RM.png","phone":"4024589801","cityStateSlug":"lincoln.ne","slug":"Lincoln.NE/anderson+ford+lincoln","location":"40.8819981,-96.6834046","brandsList":["ford","lincoln"]},{"id":11146,"crm_id":67052395,"name":"Panhandle Auto Group","dealerSlug":"panhandle+auto+group","city_state_slug":"Sidney.NE","brand":"Buick,Chevrolet,GMC","website":"www.panhandleautogroup.com","address":"435 Illinois St","city":"Sidney","state":"NE","zip":69162,"latitude":41.1447525,"longitude":-102.9683084,"phone_number_service":"8552379491","phone_number_main":"8553296413","service_hours":"Mo-Fr 07:30 - 17:30","utc_offset":"-360","gplace_id":null,"gplace_url":"https://maps.google.com/?cid=9599175605875571656","dealerID":68302,"trusted":false,"image_id":"v1597283981/buick_RM.png","phone":"8552379491","cityStateSlug":"sidney.ne","slug":"Sidney.NE/panhandle+auto+group","location":"41.1447525,-102.9683084","brandsList":["buick","chevrolet","gmc"]},{"id":12378,"crm_id":67054144,"name":"Riverside Chevrolet Buick Cadillac","dealerSlug":"riverside+chevrolet+buick+cadillac","city_state_slug":"Fairbury.NE","brand":"Buick,Cadillac,Chevrolet","website":"www.rcchevy.net","address":"601 4th St","city":"Fairbury","state":"NE","zip":68352,"latitude":40.1352788,"longitude":-97.1783948,"phone_number_service":"4022778068","phone_number_main":"4027292275","service_hours":"Mo-Fr 07:30 - 17:00 | Sa 08:00 - 17:00","utc_offset":"-300","gplace_id":null,"gplace_url":"https://maps.google.com/?cid=3649789459867646981","dealerID":68792,"trusted":false,"image_id":"v1597283981/buick_RM.png","phone":"4022778068","cityStateSlug":"fairbury.ne","slug":"Fairbury.NE/riverside+chevrolet+buick+cadillac","location":"40.1352788,-97.1783948","brandsList":["buick","cadillac","chevrolet"]},{"id":15788,"crm_id":67054447,"name":"Zoellner Ford of Beatrice","dealerSlug":"zoellner+ford+of+beatrice","city_state_slug":"Beatrice.NE","brand":"Ford","website":"www.zoellnerfordofbeatrice.com/","address":"4115 North S 6th St","city":"Beatrice","state":"NE","zip":68310,"latitude":40.3095139,"longitude":-96.7483574,"phone_number_service":"8772829896","phone_number_main":"4022233547","service_hours":"Mo-Fr 07:00 - 17:30 | Sa 07:00 - 12:00","utc_offset":"-300","gplace_id":null,"gplace_url":"https://maps.google.com/?cid=12839547728741832508","dealerID":68872,"trusted":false,"image_id":"v1597283967/ford_RM.png","phone":"8772829896","cityStateSlug":"beatrice.ne","slug":"Beatrice.NE/zoellner+ford+of+beatrice","location":"40.3095139,-96.7483574","brandsList":["ford"]},{"id":3330,"crm_id":67055215,"name":"Cornhusker Honda","dealerSlug":"cornhusker+honda","city_state_slug":"Grand-Island.NE","brand":"Honda","website":"www.cornhuskerhonda.com","address":"3510 Kaufman Ave","city":"Grand Island","state":"NE","zip":68803,"latitude":40.9203473,"longitude":-98.3845759,"phone_number_service":"3083824620","phone_number_main":"3083824620","service_hours":"Mo-Fr 08:00 - 18:00 | Sa 08:00 - 12:00","utc_offset":"-300","gplace_id":null,"gplace_url":"https://maps.google.com/?cid=10938081854894649352","dealerID":69083,"trusted":false,"image_id":"v1597284047/honda_ms.png","phone":"3083824620","cityStateSlug":"grand-island.ne","slug":"Grand-Island.NE/cornhusker+honda","location":"40.9203473,-98.3845759","brandsList":["honda"]},{"id":8730,"crm_id":67055533,"name":"Lexus of Omaha","dealerSlug":"lexus+of+omaha","city_state_slug":"Omaha.NE","brand":"Lexus","website":"www.lexusofomaha.com","address":"13025 W Dodge Rd","city":"Omaha","state":"NE","zip":68154,"latitude":41.262153,"longitude":-96.116843,"phone_number_service":"4025002961","phone_number_main":"4022381899","service_hours":"Mo-Fr 07:00 - 18:00 | Sa 08:00 - 17:00","utc_offset":"-300","gplace_id":null,"gplace_url":"https://maps.google.com/?cid=1109505626118740359","dealerID":69173,"trusted":false,"image_id":"v1597284042/lexus_ms.png","phone":"4025002961","cityStateSlug":"omaha.ne","slug":"Omaha.NE/lexus+of+omaha","location":"41.262153,-96.116843","brandsList":["lexus"]},{"id":3318,"crm_id":67055866,"name":"Copple Chevrolet GMC","dealerSlug":"copple+chevrolet+gmc","city_state_slug":"Louisville.NE","brand":"Chevrolet,GMC","website":"www.copplecars.com","address":"306 Main St","city":"Louisville","state":"NE","zip":68037,"latitude":40.999624,"longitude":-96.1616427,"phone_number_service":"8666621644","phone_number_main":"4022342000","service_hours":"Mo-Fr 07:30 - 17:30 | Sa 08:00 - 12:00","utc_offset":"-300","gplace_id":null,"gplace_url":"https://maps.google.com/?cid=7224335351627483567","dealerID":69265,"trusted":false,"image_id":"v1597284079/chevy_ms.png","phone":"8666621644","cityStateSlug":"louisville.ne","slug":"Louisville.NE/copple+chevrolet+gmc","location":"40.999624,-96.1616427","brandsList":["chevrolet","gmc"]},{"id":623,"crm_id":67058011,"name":"Audi Omaha","dealerSlug":"audi+omaha","city_state_slug":"Omaha.NE","brand":"Audi","website":"www.audiomaha.com","address":"17340 Burt St","city":"Omaha","state":"NE","zip":68118,"latitude":41.2653457,"longitude":-96.1858008,"phone_number_service":"8883794976","phone_number_main":"4023937000","service_hours":"Mo-Fr 07:00 - 18:00 | Sa 08:00 - 15:00","utc_offset":"-300","gplace_id":null,"gplace_url":"https://maps.google.com/?cid=18339823015541364138","dealerID":69837,"trusted":false,"image_id":"v1597283985/audi_RM.png","phone":"8883794976","cityStateSlug":"omaha.ne","slug":"Omaha.NE/audi+omaha","location":"41.2653457,-96.1858008","brandsList":["audi"]},{"id":1098,"crm_id":67058023,"name":"Baxter Volkswagen Omaha","dealerSlug":"baxter+volkswagen+omaha","city_state_slug":"Omaha.NE","brand":"Volkswagen","website":"www.baxtervolkswagen.com","address":"17220 Burt St","city":"Omaha","state":"NE","zip":68118,"latitude":41.2649047,"longitude":-96.1842455,"phone_number_service":"4023978200","phone_number_main":"4023076904","service_hours":"Mo-Fr 07:00 - 18:00 | Sa 08:00 - 15:00","utc_offset":"-300","gplace_id":null,"gplace_url":"https://maps.google.com/?cid=12077510613415540943","dealerID":69841,"trusted":false,"image_id":"v1597283902/volkswagen.png","phone":"4023978200","cityStateSlug":"omaha.ne","slug":"Omaha.NE/baxter+volkswagen+omaha","location":"41.2649047,-96.1842455","brandsList":["volkswagen"]},{"id":11314,"crm_id":67058335,"name":"Paul Spady Motors","dealerSlug":"paul+spady+motors","city_state_slug":"Hastings.NE","brand":"Buick","website":"www.paulspadymotors.com","address":"301 W 2nd St","city":"Hastings","state":"NE","zip":68901,"latitude":40.5847809,"longitude":-98.3851676,"phone_number_service":"4024624105","phone_number_main":"4024624105","service_hours":"Mo-Fr 08:00 - 17:00 | Sa 08:00 - 12:00","utc_offset":"-300","gplace_id":null,"gplace_url":"https://maps.google.com/?cid=14159487872757691133","dealerID":69937,"trusted":false,"image_id":"v1597283981/buick_RM.png","phone":"4024624105","cityStateSlug":"hastings.ne","slug":"Hastings.NE/paul+spady+motors","location":"40.5847809,-98.3851676","brandsList":["buick"]},{"id":13204,"crm_id":67059481,"name":"Sid Dillon Nissan - Lincoln","dealerSlug":"sid+dillon+nissan+lincoln","city_state_slug":"Lincoln.NE","brand":"Nissan","website":"www.siddillonnissan.com/","address":"2627 Kendra Lane","city":"Lincoln","state":"NE","zip":68512,"latitude":40.735855,"longitude":-96.684473,"phone_number_service":"4024646500","phone_number_main":"4024646500","service_hours":"Mo-Fr 07:30 - 17:30 | Sa 07:30-12:00","utc_offset":"-300","gplace_id":null,"gplace_url":"https://maps.google.com/?cid=14094507457423712462","dealerID":70254,"trusted":false,"image_id":"v1597283926/nissan_RM.png","phone":"4024646500","cityStateSlug":"lincoln.ne","slug":"Lincoln.NE/sid+dillon+nissan+lincoln","location":"40.735855,-96.684473","brandsList":["nissan"]},{"id":1521,"crm_id":67068325,"name":"Bill Summers Ford","dealerSlug":"bill+summers+ford","city_state_slug":"North-Platte.NE","brand":"Ford","website":"www.billsummersford.com","address":"3301 S Jeffers St","city":"North Platte","state":"NE","zip":69101,"latitude":41.1040786,"longitude":-100.7626109,"phone_number_service":"8886035854","phone_number_main":"3085322500","service_hours":"Mo-Fr 08:00 - 17:00 | Sa 08:00 - 12:00","utc_offset":"-300","gplace_id":null,"gplace_url":"https://maps.google.com/?cid=2990826308319276522","dealerID":72590,"trusted":false,"image_id":"v1597283967/ford_RM.png","phone":"8886035854","cityStateSlug":"north-platte.ne","slug":"North-Platte.NE/bill+summers+ford","location":"41.1040786,-100.7626109","brandsList":["ford"]},{"id":8560,"crm_id":67073359,"name":"Lee Sapp Ford","dealerSlug":"lee+sapp+ford","city_state_slug":"Ashland.NE","brand":"Ford","website":"www.lsford.com","address":"1602 Silver St.","city":"Ashland","state":"NE","zip":68003,"latitude":41.039411,"longitude":-96.3711502,"phone_number_service":"4029443367","phone_number_main":"4029443367","service_hours":"Mo-Fr 07:30 - 16:30 | Sa 07:30 - 14:00","utc_offset":"-300","gplace_id":null,"gplace_url":"https://maps.google.com/?cid=13080013954621707606","dealerID":73220,"trusted":false,"image_id":"v1597283967/ford_RM.png","phone":"4029443367","cityStateSlug":"ashland.ne","slug":"Ashland.NE/lee+sapp+ford","location":"41.039411,-96.3711502","brandsList":["ford"]},{"id":14297,"crm_id":67073365,"name":"Todd Archer Hyundai","dealerSlug":"todd+archer+hyundai","city_state_slug":"Bellevue.NE","brand":"Hyundai","website":"toddarcherhyundai.com","address":"1203 Fort Crook Rd N","city":"Bellevue","state":"NE","zip":68005,"latitude":41.1809234,"longitude":-95.9276657,"phone_number_service":"8887107615","phone_number_main":"4029052277","service_hours":"Mo-Fr 07:00 - 18:00 | Sa 07:00 - 13:00","utc_offset":"-300","gplace_id":null,"gplace_url":"https://maps.google.com/?cid=8127918008106470554","dealerID":73221,"trusted":false,"image_id":"v1597283959/hyundai_RM.png","phone":"8887107615","cityStateSlug":"bellevue.ne","slug":"Bellevue.NE/todd+archer+hyundai","location":"41.1809234,-95.9276657","brandsList":["hyundai"]},{"id":4457,"crm_id":67073386,"name":"Edwards Mitsubishi Bellevue","dealerSlug":"edwards+mitsubishi+bellevue","city_state_slug":"Bellevue.NE","brand":"Mitsubishi","website":"www.edwardsmitsubishibellevue.com","address":"808 Alberta Ave","city":"Bellevue","state":"NE","zip":68005,"latitude":41.1689065,"longitude":-95.927124,"phone_number_service":"4022261100","phone_number_main":"4022261093","service_hours":"Mo-Fr 07:00 - 18:00 | Sa 08:30 - 12:00","utc_offset":"-300","gplace_id":null,"gplace_url":"https://maps.google.com/?cid=11450885185176946103","dealerID":73222,"trusted":false,"image_id":"v1597283928/mitsubishi.png","phone":"4022261100","cityStateSlug":"bellevue.ne","slug":"Bellevue.NE/edwards+mitsubishi+bellevue","location":"41.1689065,-95.927124","brandsList":["mitsubishi"]},{"id":15622,"crm_id":67073392,"name":"Woodhouse Chrysler Dodge Jeep RAM","dealerSlug":"woodhouse+chrysler+dodge+jeep+ram","city_state_slug":"Blair.NE","brand":"Chrysler,Dodge,Jeep,RAM","website":"www.woodhousechryslerjeepdodge.com","address":"2171 South HWY 30","city":"Blair","state":"NE","zip":68008,"latitude":41.525575,"longitude":-96.144661,"phone_number_service":"â€‹8778266808","phone_number_main":"4024264127","service_hours":"Mo-Fr 07:30 - 18:00 |Sa 08:00 - 17:00","utc_offset":"-300","gplace_id":null,"gplace_url":"https://maps.google.com/?cid=1186104163940454724","dealerID":73223,"trusted":false,"image_id":"v1597283975/chrysler_RM.png","phone":"8778266808","cityStateSlug":"blair.ne","slug":"Blair.NE/woodhouse+chrysler+dodge+jeep+ram","location":"41.525575,-96.144661","brandsList":["chrysler","dodge","jeep","ram"]},{"id":13199,"crm_id":67073401,"name":"Sid Dillon Chevrolet - Blair","dealerSlug":"sid+dillon+chevrolet+blair","city_state_slug":"Blair.NE","brand":"Chevrolet","website":"www.siddillon.com/chevrolet-blair/","address":"2261 S Hwy 30","city":"Blair","state":"NE","zip":68008,"latitude":41.5216009,"longitude":-96.144533,"phone_number_service":"4024264121","phone_number_main":"4025905475","service_hours":"Mo-Fr 07:30 - 17:30 | Sa 07:30-12:00","utc_offset":"-300","gplace_id":null,"gplace_url":"https://maps.google.com/?cid=15345044653424231150","dealerID":73224,"trusted":false,"image_id":"v1597284079/chevy_ms.png","phone":"4024264121","cityStateSlug":"blair.ne","slug":"Blair.NE/sid+dillon+chevrolet+blair","location":"41.5216009,-96.144533","brandsList":["chevrolet"]},{"id":15623,"crm_id":67073410,"name":"Woodhouse Ford","dealerSlug":"woodhouse+ford","city_state_slug":"Blair.NE","brand":"Ford","website":"www.woodhouseford.net","address":"2546 S Hwy 30","city":"Blair","state":"NE","zip":68008,"latitude":41.5216936,"longitude":-96.1438432,"phone_number_service":"8884442308","phone_number_main":"4024264126","service_hours":"Mo-Fr 07:30 - 17:30 | Sa 08:00-17:00","utc_offset":"-300","gplace_id":null,"gplace_url":"https://maps.google.com/?cid=7203600475162686749","dealerID":73225,"trusted":false,"image_id":"v1597283967/ford_RM.png","phone":"8884442308","cityStateSlug":"blair.ne","slug":"Blair.NE/woodhouse+ford","location":"41.5216936,-96.1438432","brandsList":["ford"]},{"id":13202,"crm_id":67073419,"name":"Sid Dillon Ford - Wahoo","dealerSlug":"sid+dillon+ford+wahoo","city_state_slug":"Wahoo.NE","brand":"Ford","website":"www.siddillonford.com/","address":"257 W A St","city":"Wahoo","state":"NE","zip":68066,"latitude":41.2045264,"longitude":-96.6221462,"phone_number_service":"4024434240","phone_number_main":"4024434240","service_hours":"Mo-Fr 07:30 - 17:30 | Sa 07:30-12:00","utc_offset":"-300","gplace_id":null,"gplace_url":"https://maps.google.com/?cid=3049922948201296098","dealerID":73226,"trusted":false,"image_id":"v1597283967/ford_RM.png","phone":"4024434240","cityStateSlug":"wahoo.ne","slug":"Wahoo.NE/sid+dillon+ford+wahoo","location":"41.2045264,-96.6221462","brandsList":["ford"]},{"id":6936,"crm_id":67073422,"name":"INFINITI Of Omaha","dealerSlug":"infiniti+of+omaha","city_state_slug":"Elkhorn.NE","brand":"INFINITI","website":"www.infinitiofomaha.com","address":"18201 Burt St","city":"Elkhorn","state":"NE","zip":68022,"latitude":41.2639601,"longitude":-96.1998987,"phone_number_service":"4024033018","phone_number_main":"4025922200","service_hours":"Mo-Fr 07:00 - 18:00 | Sa 07:30 - 16:00","utc_offset":"-300","gplace_id":null,"gplace_url":"https://maps.google.com/?cid=18005755155854358070","dealerID":73227,"trusted":false,"image_id":"v1597283957/infiniti_RM.png","phone":"4024033018","cityStateSlug":"elkhorn.ne","slug":"Elkhorn.NE/infiniti+of+omaha","location":"41.2639601,-96.1998987","brandsList":["infiniti"]},{"id":14958,"crm_id":67073425,"name":"Village Pointe Toyota","dealerSlug":"village+pointe+toyota","city_state_slug":"Omaha.NE","brand":"Toyota","website":"www.villagepointetoyota.com","address":"18201 Cuming St","city":"Omaha","state":"NE","zip":68022,"latitude":41.2655196,"longitude":-96.2008528,"phone_number_service":"8559767655","phone_number_main":"4022062295","service_hours":"Mo-Fr 07:00 - 18:00 | Sa 07:00 - 17:00","utc_offset":"-300","gplace_id":null,"gplace_url":"https://maps.google.com/?cid=15920407131670887282","dealerID":73228,"trusted":false,"image_id":"v1597284039/toyota_ms.png","phone":"8559767655","cityStateSlug":"omaha.ne","slug":"Omaha.NE/village+pointe+toyota","location":"41.2655196,-96.2008528","brandsList":["toyota"]},{"id":13203,"crm_id":67073431,"name":"Sid Dillon Mazda","dealerSlug":"sid+dillon+mazda","city_state_slug":"Fremont.NE","brand":"Mazda","website":"www.siddillonmazda.com","address":"2424 E 23rd St","city":"Fremont","state":"NE","zip":68025,"latitude":41.452235,"longitude":-96.4661205,"phone_number_service":"8889039962","phone_number_main":"8774473692","service_hours":"Mo-Fr 07:30 - 17:30 | Sa 07:30-12:00","utc_offset":"-300","gplace_id":null,"gplace_url":"https://maps.google.com/?cid=13530128273775567333","dealerID":73229,"trusted":false,"image_id":"v1597283937/mazda.png","phone":"8889039962","cityStateSlug":"fremont.ne","slug":"Fremont.NE/sid+dillon+mazda","location":"41.452235,-96.4661205","brandsList":["mazda"]},{"id":5464,"crm_id":67073440,"name":"Gene Steffy Chrysler Dodge Jeep RAM","dealerSlug":"gene+steffy+chrysler+dodge+jeep+ram","city_state_slug":"Fremont.NE","brand":"Chrysler,Dodge,Jeep,RAM","website":"www.genesteffy.com","address":"2545 East 23rd Avenue South","city":"Fremont","state":"NE","zip":68025,"latitude":41.4506368,"longitude":-96.4648882,"phone_number_service":"8772719453","phone_number_main":"4022184170","service_hours":"Mo-Fr 07:30 - 17:00 | Sa 07:30-12:00","utc_offset":"-300","gplace_id":null,"gplace_url":"https://maps.google.com/?cid=8649834323664230902","dealerID":73231,"trusted":false,"image_id":"v1597283975/chrysler_RM.png","phone":"8772719453","cityStateSlug":"fremont.ne","slug":"Fremont.NE/gene+steffy+chrysler+dodge+jeep+ram","location":"41.4506368,-96.4648882","brandsList":["chrysler","dodge","jeep","ram"]},{"id":5851,"crm_id":67073443,"name":"Gregg Young Chevrolet Of Plattsmouth","dealerSlug":"gregg+young+chevrolet+of+plattsmouth","city_state_slug":"Plattsmouth.NE","brand":"Chevrolet","website":"www.gychevyplattsmouth.net","address":"302 Fulton Ave","city":"Plattsmouth","state":"NE","zip":68048,"latitude":41.0202408,"longitude":-95.9072571,"phone_number_service":"4022985750","phone_number_main":"4022985070","service_hours":"Mo-Fr 07:30 - 17:30 | Sa 07:30 - 12:00","utc_offset":"-300","gplace_id":null,"gplace_url":"https://maps.google.com/?cid=5170701839850847647","dealerID":73232,"trusted":false,"image_id":"v1597284079/chevy_ms.png","phone":"4022985750","cityStateSlug":"plattsmouth.ne","slug":"Plattsmouth.NE/gregg+young+chevrolet+of+plattsmouth","location":"41.0202408,-95.9072571","brandsList":["chevrolet"]},{"id":5853,"crm_id":67073446,"name":"Gregg Young Chrysler Dodge Jeep RAM of Plattsmouth","dealerSlug":"gregg+young+chrysler+dodge+jeep+ram+of+plattsmouth","city_state_slug":"Plattsmouth.NE","brand":"Chrysler,Dodge,Jeep,RAM","website":"www.greggyoungcdjrofplattsmouth.com","address":"319 Fulton Ave","city":"Plattsmouth","state":"NE","zip":68048,"latitude":41.0189207,"longitude":-95.9064732,"phone_number_service":"4028355068","phone_number_main":"4028355063","service_hours":"Mo-Fr 07:30 - 17:30 | Sa 07:30 - 12:00","utc_offset":"-300","gplace_id":null,"gplace_url":"https://maps.google.com/?cid=14559451014659709123","dealerID":73233,"trusted":false,"image_id":"v1597283975/chrysler_RM.png","phone":"4028355068","cityStateSlug":"plattsmouth.ne","slug":"Plattsmouth.NE/gregg+young+chrysler+dodge+jeep+ram+of+plattsmouth","location":"41.0189207,-95.9064732","brandsList":["chrysler","dodge","jeep","ram"]},{"id":13201,"crm_id":67073452,"name":"Sid Dillon Chevrolet Buick - Wahoo","dealerSlug":"sid+dillon+chevrolet+buick+wahoo","city_state_slug":"Wahoo.NE","brand":"Buick,Chevrolet","website":"www.siddillonwahoo.com/","address":"1750 County Rd J","city":"Wahoo","state":"NE","zip":68066,"latitude":41.1939851,"longitude":-96.6326603,"phone_number_service":"4028171584","phone_number_main":"4028171699","service_hours":"Mo-Fr 07:30 - 17:30 | Sa 07:30-12:00","utc_offset":"-300","gplace_id":null,"gplace_url":"https://maps.google.com/?cid=4873086784864130700","dealerID":73234,"trusted":false,"image_id":"v1597283981/buick_RM.png","phone":"4028171584","cityStateSlug":"wahoo.ne","slug":"Wahoo.NE/sid+dillon+chevrolet+buick+wahoo","location":"41.1939851,-96.6326603","brandsList":["buick","chevrolet"]},{"id":10923,"crm_id":67073455,"name":"O'Daniel Honda","dealerSlug":"odaniel+honda","city_state_slug":"Omaha.NE","brand":"Honda","website":"www.odanielhonda.com","address":"123 Beverly Dr","city":"Omaha","state":"NE","zip":68114,"latitude":41.2585259,"longitude":-96.0351522,"phone_number_service":"4024043106","phone_number_main":"4023937801","service_hours":"Mo-Fr 07:00 - 17:30 | Sa 08:00 - 16:00","utc_offset":"-300","gplace_id":null,"gplace_url":"https://maps.google.com/?cid=9994007592660141736","dealerID":73235,"trusted":false,"image_id":"v1597284047/honda_ms.png","phone":"4024043106","cityStateSlug":"omaha.ne","slug":"Omaha.NE/odaniel+honda","location":"41.2585259,-96.0351522","brandsList":["honda"]},{"id":8324,"crm_id":67073461,"name":"Land Rover Omaha","dealerSlug":"land+rover+omaha","city_state_slug":"Omaha.NE","brand":"Land Rover","website":"www.landroveromaha.com","address":"14800 Davenport St","city":"Omaha","state":"NE","zip":68154,"latitude":41.2617546,"longitude":-96.1452304,"phone_number_service":"4023939701","phone_number_main":"4023939700","service_hours":"Mo-Fr 07:00 - 18:00 | Sa 07:30 - 17:00","utc_offset":"-300","gplace_id":null,"gplace_url":"https://maps.google.com/?cid=10674934011868117286","dealerID":73236,"trusted":false,"image_id":"v1597283945/landrover_RM.png","phone":"4023939701","cityStateSlug":"omaha.ne","slug":"Omaha.NE/land+rover+omaha","location":"41.2617546,-96.1452304","brandsList":["land rover"]},{"id":1094,"crm_id":67073464,"name":"Baxter Subaru","dealerSlug":"baxter+subaru","city_state_slug":"Omaha.NE","brand":"Subaru","website":"www.baxtersubaru.com","address":"17130 Burt St","city":"Omaha","state":"NE","zip":68118,"latitude":41.2650918,"longitude":-96.1831284,"phone_number_service":"8883693645","phone_number_main":"4023978305","service_hours":"Mo-Fr 07:00 - 18:00 | Sa 08:00 - 15:00","utc_offset":"-300","gplace_id":null,"gplace_url":"https://maps.google.com/?cid=7409386182228933824","dealerID":73237,"trusted":false,"image_id":"v1597283982/subaru_ms.png","phone":"8883693645","cityStateSlug":"omaha.ne","slug":"Omaha.NE/baxter+subaru","location":"41.2650918,-96.1831284","brandsList":["subaru"]},{"id":11711,"crm_id":67073467,"name":"Porsche of Omaha","dealerSlug":"porsche+of+omaha","city_state_slug":"Omaha.NE","brand":"Porsche","website":"porscheomaha.com","address":"6625 L St","city":"Omaha","state":"NE","zip":68117,"latitude":41.211737,"longitude":-96.015685,"phone_number_service":"4025041560","phone_number_main":"4025041510","service_hours":"Mo-Fr 07:00 - 17:00 | Sa 08:00 - 16:00","utc_offset":"-300","gplace_id":null,"gplace_url":"https://maps.google.com/?cid=15149553843031766258","dealerID":73238,"trusted":false,"image_id":"v1597283919/porsche.jpg","phone":"4025041560","cityStateSlug":"omaha.ne","slug":"Omaha.NE/porsche+of+omaha","location":"41.211737,-96.015685","brandsList":["porsche"]},{"id":10735,"crm_id":67073470,"name":"Nissan of Omaha","dealerSlug":"nissan+of+omaha","city_state_slug":"Omaha.NE","brand":"Nissan","website":"www.nissanofomaha.com","address":"17410 Burt St","city":"Omaha","state":"NE","zip":68118,"latitude":41.2648334,"longitude":-96.1879036,"phone_number_service":"8669569457","phone_number_main":"4024934000","service_hours":"Mo-Fr 07:00 - 18:00 | Sa 07:00 - 16:00","utc_offset":"-300","gplace_id":null,"gplace_url":"https://maps.google.com/?cid=8014467466258963208","dealerID":73239,"trusted":false,"image_id":"v1597283926/nissan_RM.png","phone":"8669569457","cityStateSlug":"omaha.ne","slug":"Omaha.NE/nissan+of+omaha","location":"41.2648334,-96.1879036","brandsList":["nissan"]},{"id":1092,"crm_id":67073473,"name":"Baxter Chrysler Dodge Jeep RAM FIAT of Omaha","dealerSlug":"baxter+chrysler+dodge+jeep+ram+fiat+of+omaha","city_state_slug":"Omaha.NE","brand":"Chrysler,Dodge,Jeep,RAM,Fiat","website":"www.baxterchryslerjeepdodge.net","address":"17950 Burt St","city":"Omaha","state":"NE","zip":68118,"latitude":41.2662427,"longitude":-96.1946132,"phone_number_service":"8442842450","phone_number_main":"4024937800","service_hours":"Mo-Th 09:00 - 20:00 | Fr-Sa 09:00 - 18:00","utc_offset":"-300","gplace_id":null,"gplace_url":"https://maps.google.com/?cid=9239649415128278394","dealerID":73240,"trusted":false,"image_id":"v1597283975/chrysler_RM.png","phone":"8442842450","cityStateSlug":"omaha.ne","slug":"Omaha.NE/baxter+chrysler+dodge+jeep+ram+fiat+of+omaha","location":"41.2662427,-96.1946132","brandsList":["chrysler","dodge","jeep","ram","fiat"]},{"id":5967,"crm_id":67073476,"name":"H & H Kia","dealerSlug":"h+and+h+kia","city_state_slug":"Omaha.NE","brand":"Kia","website":"www.hhkia.com","address":"4040 S 84th St","city":"Omaha","state":"NE","zip":68127,"latitude":41.2204849,"longitude":-96.0439091,"phone_number_service":"5312131911","phone_number_main":"4023319100","service_hours":"Mo-Fr 07:00 - 18:00 | Sa 07:00 - 13:00","utc_offset":"-300","gplace_id":null,"gplace_url":"https://maps.google.com/?cid=7534743475883544586","dealerID":73241,"trusted":false,"image_id":"v1597283948/kia_RM.png","phone":"5312131911","cityStateSlug":"omaha.ne","slug":"Omaha.NE/h+and+h+kia","location":"41.2204849,-96.0439091","brandsList":["kia"]},{"id":5966,"crm_id":67073479,"name":"H&H Chevrolet","dealerSlug":"handh+chevrolet","city_state_slug":"Omaha.NE","brand":"Chevrolet","website":"www.hhchevy.com","address":"4645 S 84th St","city":"Omaha","state":"NE","zip":68127,"latitude":41.213776,"longitude":-96.041925,"phone_number_service":"4022381742","phone_number_main":"4023392222","service_hours":"Mo-Fr 07:00 - 18:00 | Sa 08:00 - 13:00","utc_offset":"-300","gplace_id":null,"gplace_url":"https://maps.google.com/?cid=6552482949652217705","dealerID":73242,"trusted":false,"image_id":"v1597284079/chevy_ms.png","phone":"4022381742","cityStateSlug":"omaha.ne","slug":"Omaha.NE/handh+chevrolet","location":"41.213776,-96.041925","brandsList":["chevrolet"]},{"id":1097,"crm_id":67073485,"name":"Baxter Volkswagen La Vista","dealerSlug":"baxter+volkswagen+la+vista","city_state_slug":"La-Vista.NE","brand":"Volkswagen","website":"www.baxtervw.com","address":"7108 S 124th Cir","city":"La Vista","state":"NE","zip":68128,"latitude":41.1882859,"longitude":-96.1087885,"phone_number_service":"4029839801","phone_number_main":"4029839801","service_hours":"Mo-Fr 06:30 - 18:00 | Sa 08:00- 15:00","utc_offset":"-300","gplace_id":null,"gplace_url":"https://maps.google.com/?cid=12952084864231782193","dealerID":73243,"trusted":false,"image_id":"v1597283902/volkswagen.png","phone":"4029839801","cityStateSlug":"la-vista.ne","slug":"La-Vista.NE/baxter+volkswagen+la+vista","location":"41.1882859,-96.1087885","brandsList":["volkswagen"]},{"id":15624,"crm_id":67073488,"name":"Woodhouse Ford of Omaha","dealerSlug":"woodhouse+ford+of+omaha","city_state_slug":"Omaha.NE","brand":"Ford","website":"www.woodhousefordofomahainc.com","address":"3633 N 72nd St","city":"Omaha","state":"NE","zip":68134,"latitude":41.2914216,"longitude":-96.0230566,"phone_number_service":"8888102705","phone_number_main":"8664012340","service_hours":"Mo-Fr 07:00 - 18:00 | Sa 08:00 - 16:00","utc_offset":"-300","gplace_id":null,"gplace_url":"https://maps.google.com/?cid=3737383519864145622","dealerID":73244,"trusted":false,"image_id":"v1597283967/ford_RM.png","phone":"8888102705","cityStateSlug":"omaha.ne","slug":"Omaha.NE/woodhouse+ford+of+omaha","location":"41.2914216,-96.0230566","brandsList":["ford"]},{"id":9803,"crm_id":67073491,"name":"Mercedes-Benz of Omaha","dealerSlug":"mercedes+benz+of+omaha","city_state_slug":"Omaha.NE","brand":"Mercedes-Benz","website":"www.omahamercedes.com","address":"14335 Hillsdale Ave","city":"Omaha","state":"NE","zip":68137,"latitude":41.2141055,"longitude":-96.1379537,"phone_number_service":"4027048205","phone_number_main":"4027048205","service_hours":"Mo-Fr 07:00 - 18:00 | Sa 08:00 - 16:00","utc_offset":"-300","gplace_id":null,"gplace_url":"https://maps.google.com/?cid=9027994504844746550","dealerID":73245,"trusted":false,"image_id":"v1597283934/mercedes_RM.png","phone":"4027048205","cityStateSlug":"omaha.ne","slug":"Omaha.NE/mercedes+benz+of+omaha","location":"41.2141055,-96.1379537","brandsList":["mercedes-benz"]},{"id":1093,"crm_id":67073494,"name":"Baxter Ford South","dealerSlug":"baxter+ford+south","city_state_slug":"Omaha.NE","brand":"Ford","website":"www.baxterforddealersouth.com","address":"9203 S 145th St","city":"Omaha","state":"NE","zip":68138,"latitude":41.1675626,"longitude":-96.139799,"phone_number_service":"4029839772","phone_number_main":"4028966000","service_hours":"Mo-Fr 07:00 - 18:00 | Sa 07:30 - 17:00","utc_offset":"-300","gplace_id":null,"gplace_url":"https://maps.google.com/?cid=7920255611358652536","dealerID":73246,"trusted":false,"image_id":"v1597283967/ford_RM.png","phone":"4029839772","cityStateSlug":"omaha.ne","slug":"Omaha.NE/baxter+ford+south","location":"41.1675626,-96.139799","brandsList":["ford"]},{"id":6716,"crm_id":67073497,"name":"Huber Cadillac","dealerSlug":"huber+cadillac","city_state_slug":"Omaha.NE","brand":"Cadillac","website":"www.hubercadillac.com","address":"11102 W Dodge Rd","city":"Omaha","state":"NE","zip":68154,"latitude":41.2643349,"longitude":-96.0893732,"phone_number_service":"4022381775","phone_number_main":"4024965400","service_hours":"Mo-Fr 07:00 - 18:00 | Sa 08:00 - 12:00","utc_offset":"-300","gplace_id":null,"gplace_url":"https://maps.google.com/?cid=5589309547254336425","dealerID":73247,"trusted":false,"image_id":"v1597283980/cadillac.png","phone":"4022381775","cityStateSlug":"omaha.ne","slug":"Omaha.NE/huber+cadillac","location":"41.2643349,-96.0893732","brandsList":["cadillac"]},{"id":9912,"crm_id":67073500,"name":"Meyer Auto Group","dealerSlug":"meyer+auto+group","city_state_slug":"Auburn.NE","brand":"Buick,Cadillac,Chevrolet,GMC","website":"www.meyercars.com/","address":"1100 E St","city":"Auburn","state":"NE","zip":68305,"latitude":40.3934684,"longitude":-95.8323344,"phone_number_service":"8885736611","phone_number_main":"8775132873","service_hours":"Mo-Fr 08:00 - 18:00 | Sa 08:00 - 12:00","utc_offset":"-300","gplace_id":null,"gplace_url":"https://maps.google.com/?cid=2883335092852272303","dealerID":73248,"trusted":false,"image_id":"v1597283981/buick_RM.png","phone":"8885736611","cityStateSlug":"auburn.ne","slug":"Auburn.NE/meyer+auto+group","location":"40.3934684,-95.8323344","brandsList":["buick","cadillac","chevrolet","gmc"]},{"id":2611,"crm_id":67073503,"name":"Carriage Motors","dealerSlug":"carriage+motors","city_state_slug":"Beatrice.NE","brand":"Buick,Chevrolet,GMC","website":"www.carriagegmc.com","address":"206 S 6th St","city":"Beatrice","state":"NE","zip":68310,"latitude":40.2643778,"longitude":-96.7476847,"phone_number_service":"8004819408","phone_number_main":"4022232397","service_hours":"Mo-Fr 07:30 - 18:00 | Sa 07:30 - 12:00","utc_offset":"-300","gplace_id":null,"gplace_url":"https://maps.google.com/?cid=11611711037787480265","dealerID":73249,"trusted":false,"image_id":"v1597283981/buick_RM.png","phone":"8004819408","cityStateSlug":"beatrice.ne","slug":"Beatrice.NE/carriage+motors","location":"40.2643778,-96.7476847","brandsList":["buick","chevrolet","gmc"]},{"id":13200,"crm_id":67073506,"name":"Sid Dillon Chevrolet Buick - Crete","dealerSlug":"sid+dillon+chevrolet+buick+crete","city_state_slug":"Crete.NE","brand":"Buick,Chevrolet","website":"www.siddilloncrete.org/","address":"2455 E. Hwy 33","city":"Crete","state":"NE","zip":68333,"latitude":40.644211,"longitude":-96.9338,"phone_number_service":"8886735147","phone_number_main":"8776357206","service_hours":"Mo-Fr 07:30 - 17:30 | Sa 07:30-12:00","utc_offset":"-300","gplace_id":null,"gplace_url":"https://maps.google.com/?cid=8360755084395311520","dealerID":73250,"trusted":false,"image_id":"v1597283981/buick_RM.png","phone":"8886735147","cityStateSlug":"crete.ne","slug":"Crete.NE/sid+dillon+chevrolet+buick+crete","location":"40.644211,-96.9338","brandsList":["buick","chevrolet"]},{"id":8488,"crm_id":67073515,"name":"Larson Motors","dealerSlug":"larson+motors","city_state_slug":"Nebraska-City.NE","brand":"Ford","website":"www.larsonmotors.info","address":"1801 Frontage Rd","city":"Nebraska City","state":"NE","zip":68410,"latitude":40.686698,"longitude":-95.8676589,"phone_number_service":"8338409186","phone_number_main":"4028733449","service_hours":"Mo-Fr 07:30 - 17:30 | Sa 07:30 - 12:00","utc_offset":"-300","gplace_id":null,"gplace_url":"https://maps.google.com/?cid=11444729971454144961","dealerID":73252,"trusted":false,"image_id":"v1597283967/ford_RM.png","phone":"8338409186","cityStateSlug":"nebraska-city.ne","slug":"Nebraska-City.NE/larson+motors","location":"40.686698,-95.8676589","brandsList":["ford"]},{"id":9914,"crm_id":67073524,"name":"Meyer Automotive","dealerSlug":"meyer+automotive","city_state_slug":"Seward.NE","brand":"Buick,Chevrolet,GMC","website":"www.meyerseward.com","address":"975 280th","city":"Seward","state":"NE","zip":68434,"latitude":40.8254453,"longitude":-97.1056759,"phone_number_service":"8774206631","phone_number_main":"8775427940","service_hours":"Mo-Fr 08:00 - 17:00 | Sa 08:00 - 12:00","utc_offset":"-300","gplace_id":null,"gplace_url":"https://maps.google.com/?cid=1670944289732215399","dealerID":73253,"trusted":false,"image_id":"v1597283981/buick_RM.png","phone":"8774206631","cityStateSlug":"seward.ne","slug":"Seward.NE/meyer+automotive","location":"40.8254453,-97.1056759","brandsList":["buick","chevrolet","gmc"]},{"id":4772,"crm_id":67073527,"name":"Field Ford","dealerSlug":"field+ford","city_state_slug":"Tecumseh.NE","brand":"Ford","website":"www.fieldford.com","address":"235 Clay St","city":"Tecumseh","state":"NE","zip":68450,"latitude":40.3664574,"longitude":-96.1968316,"phone_number_service":"8778015268","phone_number_main":"4023353365","service_hours":"Mo-Fr 08:00 - 17:30 | Sa 08:00 - 12:00","utc_offset":"-300","gplace_id":null,"gplace_url":"https://maps.google.com/?cid=13361825207685413744","dealerID":73254,"trusted":false,"image_id":"v1597283967/ford_RM.png","phone":"8778015268","cityStateSlug":"tecumseh.ne","slug":"Tecumseh.NE/field+ford","location":"40.3664574,-96.1968316","brandsList":["ford"]},{"id":2148,"crm_id":67073530,"name":"Brinkman Brothers Chevrolet Buick","dealerSlug":"brinkman+brothers+chevrolet+buick","city_state_slug":"Tecumseh.NE","brand":"Buick,Chevrolet","website":"www.brinkmansgm.com","address":"307 Clay St","city":"Tecumseh","state":"NE","zip":68450,"latitude":40.3665733,"longitude":-96.195488,"phone_number_service":"8003220156","phone_number_main":"4023353348","service_hours":"Mo-Fr 08:00 - 17:30 | Sa 08:00 - 12:00","utc_offset":"-300","gplace_id":null,"gplace_url":"https://maps.google.com/?cid=12435816331978994642","dealerID":73255,"trusted":false,"image_id":"v1597283981/buick_RM.png","phone":"8003220156","cityStateSlug":"tecumseh.ne","slug":"Tecumseh.NE/brinkman+brothers+chevrolet+buick","location":"40.3665733,-96.195488","brandsList":["buick","chevrolet"]},{"id":12968,"crm_id":67073533,"name":"Schworer Volkswagen","dealerSlug":"schworer+volkswagen","city_state_slug":"Lincoln.NE","brand":"Volkswagen","website":"www.schworervolkswagen.com","address":"3301 Schworer Dr","city":"Lincoln","state":"NE","zip":68504,"latitude":40.859259,"longitude":-96.670001,"phone_number_service":"8448810480","phone_number_main":"4024353300","service_hours":"Mo-Fr 07:00 - 17:30 | Sa 08:00 - 13:30","utc_offset":"-300","gplace_id":null,"gplace_url":"https://maps.google.com/?cid=17761224574003538057","dealerID":73256,"trusted":false,"image_id":"v1597283902/volkswagen.png","phone":"8448810480","cityStateSlug":"lincoln.ne","slug":"Lincoln.NE/schworer+volkswagen","location":"40.859259,-96.670001","brandsList":["volkswagen"]},{"id":4289,"crm_id":67073539,"name":"DuTeau Subaru","dealerSlug":"duteau+subaru","city_state_slug":"Lincoln.NE","brand":"Subaru","website":"www.duteausubaru.com","address":"2750 Jamie Ln","city":"Lincoln","state":"NE","zip":68516,"latitude":40.729034,"longitude":-96.68077,"phone_number_service":"8884679318","phone_number_main":"8669819108","service_hours":"Mo-Fr 07:00 - 17:30 | Sa 08:00 - 12:00","utc_offset":"-300","gplace_id":null,"gplace_url":"https://maps.google.com/?cid=17616891996881292260","dealerID":73257,"trusted":false,"image_id":"v1597283982/subaru_ms.png","phone":"8884679318","cityStateSlug":"lincoln.ne","slug":"Lincoln.NE/duteau+subaru","location":"40.729034,-96.68077","brandsList":["subaru"]},{"id":1096,"crm_id":67073542,"name":"Baxter Toyota Lincoln","dealerSlug":"baxter+toyota+lincoln","city_state_slug":"Lincoln.NE","brand":"Toyota","website":"www.toyotaoflincoln.com","address":"8600 S 33rd St","city":"Lincoln","state":"NE","zip":68516,"latitude":40.7253551,"longitude":-96.6716561,"phone_number_service":"4024764001","phone_number_main":"4024764000","service_hours":"Mo-Sa 6:00-18:00","utc_offset":"-300","gplace_id":null,"gplace_url":"https://maps.google.com/?cid=12947394066420142596","dealerID":73258,"trusted":false,"image_id":"v1597284039/toyota_ms.png","phone":"4024764001","cityStateSlug":"lincoln.ne","slug":"Lincoln.NE/baxter+toyota+lincoln","location":"40.7253551,-96.6716561","brandsList":["toyota"]},{"id":1091,"crm_id":67073545,"name":"Baxter Chrysler Dodge Jeep RAM FIAT of Lincoln","dealerSlug":"baxter+chrysler+dodge+jeep+ram+fiat+of+lincoln","city_state_slug":"Lincoln.NE","brand":"Chrysler,Dodge,Jeep,RAM,Fiat","website":"www.baxtercdjrlincoln.com","address":"6601 Telluride Dr","city":"Lincoln","state":"NE","zip":68521,"latitude":40.8777897,"longitude":-96.6850742,"phone_number_service":"8442843411","phone_number_main":"4028177449","service_hours":"Mo-Fr 07:00 - 18:00 | Sa 08:00 - 16:00","utc_offset":"-300","gplace_id":null,"gplace_url":"https://maps.google.com/?cid=13167383784804279880","dealerID":73259,"trusted":false,"image_id":"v1597283975/chrysler_RM.png","phone":"8442843411","cityStateSlug":"lincoln.ne","slug":"Lincoln.NE/baxter+chrysler+dodge+jeep+ram+fiat+of+lincoln","location":"40.8777897,-96.6850742","brandsList":["chrysler","dodge","jeep","ram","fiat"]},{"id":1688,"crm_id":67073548,"name":"BMW of Lincoln","dealerSlug":"bmw+of+lincoln","city_state_slug":"Lincoln.NE","brand":"Lincoln","website":"www.bmwoflincoln.com","address":"6741 Telluride Dr","city":"Lincoln","state":"NE","zip":68521,"latitude":40.8797692,"longitude":-96.684089,"phone_number_service":"8669559963","phone_number_main":"4025074110","service_hours":"Mo-Fr 07:00 - 18:00","utc_offset":"-300","gplace_id":null,"gplace_url":"https://maps.google.com/?cid=16129107143592720605","dealerID":51583,"trusted":true,"image_id":"v1597283942/lincoln_RM.png","phone":"8669559963","cityStateSlug":"lincoln.ne","slug":"Lincoln.NE/bmw+of+lincoln","location":"40.8797692,-96.684089","brandsList":["lincoln"]},{"id":6786,"crm_id":67073551,"name":"Husker Auto Group","dealerSlug":"husker+auto+group","city_state_slug":"Lincoln.NE","brand":"Buick,Chevrolet,GMC","website":"www.huskergm.com","address":"6833 Telluride Dr","city":"Lincoln","state":"NE","zip":68521,"latitude":40.8808062,"longitude":-96.6848895,"phone_number_service":"8772887941","phone_number_main":"8559278953","service_hours":"Mo-Fr 07:00 - 18:00 | Sa 08:00 - 15:00","utc_offset":"-300","gplace_id":null,"gplace_url":"https://maps.google.com/?cid=14902917640811970339","dealerID":73261,"trusted":false,"image_id":"v1597283981/buick_RM.png","phone":"8772887941","cityStateSlug":"lincoln.ne","slug":"Lincoln.NE/husker+auto+group","location":"40.8808062,-96.6848895","brandsList":["buick","chevrolet","gmc"]},{"id":5465,"crm_id":67073554,"name":"Gene Steffy Ford","dealerSlug":"gene+steffy+ford","city_state_slug":"Columbus.NE","brand":"Ford","website":"www.genesteffyford.com","address":"2215 23rd St E","city":"Columbus","state":"NE","zip":68601,"latitude":41.4372892,"longitude":-97.2997032,"phone_number_service":"4023076635","phone_number_main":"4025643218","service_hours":"Mo-Fr 07:30 - 17:30 | Sa 07:30-13:00","utc_offset":"-300","gplace_id":null,"gplace_url":"https://maps.google.com/?cid=5531284468900228370","dealerID":73262,"trusted":false,"image_id":"v1597283967/ford_RM.png","phone":"4023076635","cityStateSlug":"columbus.ne","slug":"Columbus.NE/gene+steffy+ford","location":"41.4372892,-97.2997032","brandsList":["ford"]},{"id":14363,"crm_id":67073557,"name":"Tonniges Chevrolet","dealerSlug":"tonniges+chevrolet","city_state_slug":"Osceola.NE","brand":"Chevrolet","website":"www.tonniges.com","address":"414 Nebraska St","city":"Osceola","state":"NE","zip":68651,"latitude":41.1806914,"longitude":-97.5471919,"phone_number_service":"8885724158","phone_number_main":"4027474461","service_hours":"Mo-Fr 08:00 - 17:30 | Sa 08:00 - 12:00","utc_offset":"-300","gplace_id":null,"gplace_url":"https://maps.google.com/?cid=2349046067261117036","dealerID":73263,"trusted":false,"image_id":"v1597284079/chevy_ms.png","phone":"8885724158","cityStateSlug":"osceola.ne","slug":"Osceola.NE/tonniges+chevrolet","location":"41.1806914,-97.5471919","brandsList":["chevrolet"]},{"id":3402,"crm_id":67073560,"name":"Courtesy Ford of Norfolk","dealerSlug":"courtesy+ford+of+norfolk","city_state_slug":"Norfolk.NE","brand":"Ford","website":"www.courtesyfordofnorfolk.com","address":"423 Madison Avenue","city":"Norfolk","state":"NE","zip":68701,"latitude":42.031089,"longitude":-97.4133796,"phone_number_service":"4022150569","phone_number_main":"4023719350","service_hours":"Mo-Fr 08:00 - 17:30 | Sa 08:00 - 12:00 | Su 09:00 - 17:00","utc_offset":"-300","gplace_id":null,"gplace_url":"https://maps.google.com/?cid=15985883871807337682","dealerID":73264,"trusted":false,"image_id":"v1597283967/ford_RM.png","phone":"4022150569","cityStateSlug":"norfolk.ne","slug":"Norfolk.NE/courtesy+ford+of+norfolk","location":"42.031089,-97.4133796","brandsList":["ford"]},{"id":7635,"crm_id":67073563,"name":"Jonny Dodge Chrysler Jeep","dealerSlug":"jonny+dodge+chrysler+jeep","city_state_slug":"Neligh.NE","brand":"Chrysler,Dodge,Jeep,RAM","website":"www.jonnydodge.com","address":"1108 W Highway 275","city":"Neligh","state":"NE","zip":68756,"latitude":42.1368556,"longitude":-98.0436263,"phone_number_service":"4028874182","phone_number_main":"4028874182","service_hours":"Mo-Fr 08:00 - 17:30 | Sa 08:00- 16:00","utc_offset":"-300","gplace_id":null,"gplace_url":"https://maps.google.com/?cid=7671052667822361070","dealerID":73265,"trusted":false,"image_id":"v1597283975/chrysler_RM.png","phone":"4028874182","cityStateSlug":"neligh.ne","slug":"Neligh.NE/jonny+dodge+chrysler+jeep","location":"42.1368556,-98.0436263","brandsList":["chrysler","dodge","jeep","ram"]},{"id":11802,"crm_id":67073566,"name":"Prairie Hills Ford","dealerSlug":"prairie+hills+ford","city_state_slug":"O'Neill.NE","brand":"Ford","website":"www.prairiehillsford.us","address":"522 W Douglas St","city":"O'Neill","state":"NE","zip":68763,"latitude":42.4582997,"longitude":-98.6609656,"phone_number_service":"4023362400","phone_number_main":"4023362400","service_hours":"Mo-Fr 08:00 - 17:30 | Sa 08:00 - 12:00","utc_offset":"-300","gplace_id":null,"gplace_url":"https://maps.google.com/?cid=13726775081987801617","dealerID":73266,"trusted":false,"image_id":"v1597283967/ford_RM.png","phone":"4023362400","cityStateSlug":"o'neill.ne","slug":"O'Neill.NE/prairie+hills+ford","location":"42.4582997,-98.6609656","brandsList":["ford"]},{"id":14319,"crm_id":67073569,"name":"Tom Dinsdale Automotive","dealerSlug":"tom+dinsdale+automotive","city_state_slug":"Grand-Island.NE","brand":"Chevrolet,GMC","website":"www.dinsdaleauto.net","address":"1708 S Webb Rd","city":"Grand Island","state":"NE","zip":68803,"latitude":40.9045181,"longitude":-98.3806627,"phone_number_service":"3082102163","phone_number_main":"3086463819","service_hours":"Mo-Fr 07:30 - 18:00 | Sa 08:30 - 14:00","utc_offset":"-300","gplace_id":null,"gplace_url":"https://maps.google.com/?cid=10465819003622096362","dealerID":73267,"trusted":false,"image_id":"v1597284079/chevy_ms.png","phone":"3082102163","cityStateSlug":"grand-island.ne","slug":"Grand-Island.NE/tom+dinsdale+automotive","location":"40.9045181,-98.3806627","brandsList":["chevrolet","gmc"]},{"id":12491,"crm_id":67073575,"name":"Roe Chevrolet Buick","dealerSlug":"roe+chevrolet+buick","city_state_slug":"Aurora.NE","brand":"Buick,Chevrolet","website":"roechevy.com","address":"1111 M St","city":"Aurora","state":"NE","zip":68818,"latitude":40.868779,"longitude":-98.0039182,"phone_number_service":"4022181556","phone_number_main":"4026943131","service_hours":"Mo-Fr 07:30 - 17:00 | Sa 07:30 - 13:00","utc_offset":"-300","gplace_id":null,"gplace_url":"https://maps.google.com/?cid=4190394996027916445","dealerID":73268,"trusted":false,"image_id":"v1597283981/buick_RM.png","phone":"4022181556","cityStateSlug":"aurora.ne","slug":"Aurora.NE/roe+chevrolet+buick","location":"40.868779,-98.0039182","brandsList":["buick","chevrolet"]},{"id":9960,"crm_id":67073578,"name":"Midway Chrysler Dodge Jeep RAM","dealerSlug":"midway+chrysler+dodge+jeep+ram","city_state_slug":"Kearney.NE","brand":"Chrysler,Dodge,Jeep,RAM","website":"www.midwaycdjr.com","address":"219 2nd Ave E","city":"Kearney","state":"NE","zip":68847,"latitude":40.6750991,"longitude":-99.0839079,"phone_number_service":"8883417876","phone_number_main":"8886550410","service_hours":"Mo-Fr 07:30 - 17:30 | Sa 08:00 - 17:00","utc_offset":"-300","gplace_id":null,"gplace_url":"https://maps.google.com/?cid=12924232880285147472","dealerID":73269,"trusted":false,"image_id":"v1597283975/chrysler_RM.png","phone":"8883417876","cityStateSlug":"kearney.ne","slug":"Kearney.NE/midway+chrysler+dodge+jeep+ram","location":"40.6750991,-99.0839079","brandsList":["chrysler","dodge","jeep","ram"]},{"id":4556,"crm_id":67073584,"name":"Ericson Ford","dealerSlug":"ericson+ford","city_state_slug":"Loup-City.NE","brand":"Ford","website":"www.wesellservice.net","address":"813 P St","city":"Loup City","state":"NE","zip":68853,"latitude":41.2734963,"longitude":-98.9690947,"phone_number_service":"3087450667","phone_number_main":"3087450667","service_hours":"Mo-Fr  08:00 - 17:00","utc_offset":"-300","gplace_id":null,"gplace_url":"https://maps.google.com/?cid=16221104496404985195","dealerID":73270,"trusted":false,"image_id":"v1597283967/ford_RM.png","phone":"3087450667","cityStateSlug":"loup-city.ne","slug":"Loup-City.NE/ericson+ford","location":"41.2734963,-98.9690947","brandsList":["ford"]},{"id":6168,"crm_id":67073587,"name":"Hastings Ford Lincoln","dealerSlug":"hastings+ford+lincoln","city_state_slug":"Hastings.NE","brand":"Ford,Lincoln","website":"www.hastingsfordlincoln.com","address":"3101 Osborne Dr W","city":"Hastings","state":"NE","zip":68901,"latitude":40.6171354,"longitude":-98.3852751,"phone_number_service":"4024633116","phone_number_main":"4024633116","service_hours":"Mo-Fr 07:00 - 18:00 | Sa 08:00 - 17:00","utc_offset":"-300","gplace_id":null,"gplace_url":"https://maps.google.com/?cid=8723451085062446916","dealerID":73271,"trusted":false,"image_id":"v1597283967/ford_RM.png","phone":"4024633116","cityStateSlug":"hastings.ne","slug":"Hastings.NE/hastings+ford+lincoln","location":"40.6171354,-98.3852751","brandsList":["ford","lincoln"]},{"id":7830,"crm_id":67073593,"name":"Kenesaw Motor Co","dealerSlug":"kenesaw+motor+co","city_state_slug":"Kenesaw.NE","brand":"Ford","website":"www.kenesawmotorco.com","address":"119 W Maple St","city":"Kenesaw","state":"NE","zip":68956,"latitude":40.6209919,"longitude":-98.6587694,"phone_number_service":"8889044123","phone_number_main":"4027523360","service_hours":"Mo-Fr 08:00 - 17:00","utc_offset":"-300","gplace_id":null,"gplace_url":"https://maps.google.com/?cid=17794646779927490027","dealerID":73272,"trusted":false,"image_id":"v1597283967/ford_RM.png","phone":"8889044123","cityStateSlug":"kenesaw.ne","slug":"Kenesaw.NE/kenesaw+motor+co","location":"40.6209919,-98.6587694","brandsList":["ford"]},{"id":11637,"crm_id":67073596,"name":"Pony Express Ford","dealerSlug":"pony+express+ford","city_state_slug":"Minden.NE","brand":"Ford","website":"www.ponyexpressford.com/","address":"445 S Brown Ave","city":"Minden","state":"NE","zip":68959,"latitude":40.4922739,"longitude":-98.9526964,"phone_number_service":"8887153052","phone_number_main":"3088321640","service_hours":"Mo-Fr 07:30 - 17:30 | Sa07:30 - 12:00","utc_offset":"-300","gplace_id":null,"gplace_url":"https://maps.google.com/?cid=13408912069178363198","dealerID":73273,"trusted":false,"image_id":"v1597283967/ford_RM.png","phone":"8887153052","cityStateSlug":"minden.ne","slug":"Minden.NE/pony+express+ford","location":"40.4922739,-98.9526964","brandsList":["ford"]},{"id":5253,"crm_id":67073599,"name":"Friesen Chevrolet","dealerSlug":"friesen+chevrolet","city_state_slug":"Sutton.NE","brand":"Chevrolet","website":"www.friesenchevrolet.com","address":"806 S. Commercial Ave.","city":"Sutton","state":"NE","zip":68979,"latitude":40.5984139,"longitude":-97.8553533,"phone_number_service":"8666318375","phone_number_main":"8007427664","service_hours":"Mo-Fr 07:30 - 18:00 | Sa 07:30-12:00","utc_offset":"-300","gplace_id":null,"gplace_url":"https://maps.google.com/?cid=15682236662783355989","dealerID":73274,"trusted":false,"image_id":"v1597284079/chevy_ms.png","phone":"8666318375","cityStateSlug":"sutton.ne","slug":"Sutton.NE/friesen+chevrolet","location":"40.5984139,-97.8553533","brandsList":["chevrolet"]},{"id":15163,"crm_id":67073602,"name":"Wagner Toyota","dealerSlug":"wagner+toyota","city_state_slug":"McCook.NE","brand":"Toyota","website":"wagner-toyota.com","address":"211 W 2nd St","city":"McCook","state":"NE","zip":69001,"latitude":40.1995413,"longitude":-100.6282993,"phone_number_service":"8884459331","phone_number_main":"3083452350","service_hours":"Mo-Fr 07:30 - 17:30 | Sa 07:30 - 12:00","utc_offset":"-300","gplace_id":null,"gplace_url":"https://maps.google.com/?cid=8878039746345925954","dealerID":73275,"trusted":false,"image_id":"v1597284039/toyota_ms.png","phone":"8884459331","cityStateSlug":"mccook.ne","slug":"McCook.NE/wagner+toyota","location":"40.1995413,-100.6282993","brandsList":["toyota"]},{"id":3979,"crm_id":67073605,"name":"Deveny Ford","dealerSlug":"deveny+ford","city_state_slug":"Benkelman.NE","brand":"Ford","website":"www.devenyford.com","address":"504 Chief St","city":"Benkelman","state":"NE","zip":69021,"latitude":40.0482467,"longitude":-101.5327803,"phone_number_service":"8886956046","phone_number_main":"3084232532","service_hours":"Mo-Fr 07:30 - 17:30","utc_offset":"-360","gplace_id":null,"gplace_url":"https://maps.google.com/?cid=14963321589115735920","dealerID":73276,"trusted":false,"image_id":"v1597283967/ford_RM.png","phone":"8886956046","cityStateSlug":"benkelman.ne","slug":"Benkelman.NE/deveny+ford","location":"40.0482467,-101.5327803","brandsList":["ford"]},{"id":6880,"crm_id":67073608,"name":"Imperial Country Ford","dealerSlug":"imperial+country+ford","city_state_slug":"Imperial.NE","brand":"Ford","website":"www.imperialnecountryford.com","address":"501 Hwy 61","city":"Imperial","state":"NE","zip":69033,"latitude":40.5166557,"longitude":-101.6293767,"phone_number_service":"3088824323","phone_number_main":"8002559762","service_hours":"Mo-Fr 07:00 - 17:00 | Sa 07:00 - 12:00","utc_offset":"-360","gplace_id":null,"gplace_url":"https://maps.google.com/?cid=8914440779328815295","dealerID":73277,"trusted":false,"image_id":"v1597283967/ford_RM.png","phone":"3088824323","cityStateSlug":"imperial.ne","slug":"Imperial.NE/imperial+country+ford","location":"40.5166557,-101.6293767","brandsList":["ford"]},{"id":7215,"crm_id":67073617,"name":"Janssen Chrysler Jeep Dodge","dealerSlug":"janssen+chrysler+jeep+dodge","city_state_slug":"North-Platte.NE","brand":"Chrysler,Dodge,Jeep,RAM","website":"www.janssenchryslerjeepdodge.com","address":"1711 Halligan Dr","city":"North Platte","state":"NE","zip":69101,"latitude":41.106351,"longitude":-100.762837,"phone_number_service":"3086243375","phone_number_main":"3082217844","service_hours":"Mo-Fr 08:00 - 17:30 | Sa 07:00 - 14:00","utc_offset":"-300","gplace_id":null,"gplace_url":"https://maps.google.com/?cid=17498154642541333052","dealerID":73278,"trusted":false,"image_id":"v1597283975/chrysler_RM.png","phone":"3086243375","cityStateSlug":"north-platte.ne","slug":"North-Platte.NE/janssen+chrysler+jeep+dodge","location":"41.106351,-100.762837","brandsList":["chrysler","dodge","jeep","ram"]},{"id":7327,"crm_id":67073623,"name":"Jerry Remus Chevrolet","dealerSlug":"jerry+remus+chevrolet","city_state_slug":"North-Platte.NE","brand":"Chevrolet","website":"www.jerryremus.com","address":"3801 South Jeffers","city":"North Platte","state":"NE","zip":69101,"latitude":41.0991226,"longitude":-100.7624119,"phone_number_service":"3085351923","phone_number_main":"3085327400","service_hours":"Mo-Fr 08:00 - 17:30 | Sa 08:00 - 12:00","utc_offset":"-300","gplace_id":null,"gplace_url":"https://maps.google.com/?cid=7089233964052664749","dealerID":73279,"trusted":false,"image_id":"v1597284079/chevy_ms.png","phone":"3085351923","cityStateSlug":"north-platte.ne","slug":"North-Platte.NE/jerry+remus+chevrolet","location":"41.0991226,-100.7624119","brandsList":["chevrolet"]},{"id":11832,"crm_id":67073626,"name":"Premier Toyota","dealerSlug":"premier+toyota","city_state_slug":"North-Platte.NE","brand":"Toyota","website":"premierautoplex.com","address":"2600 S Willow St","city":"North Platte","state":"NE","zip":69101,"latitude":41.110879,"longitude":-100.7677575,"phone_number_service":"3085328400","phone_number_main":"3085328400","service_hours":"Mo-Fr 08:00 - 17:30","utc_offset":"-300","gplace_id":null,"gplace_url":"https://maps.google.com/?cid=9574282623101808726","dealerID":73280,"trusted":false,"image_id":"v1597284039/toyota_ms.png","phone":"3085328400","cityStateSlug":"north-platte.ne","slug":"North-Platte.NE/premier+toyota","location":"41.110879,-100.7677575","brandsList":["toyota"]},{"id":11636,"crm_id":67073629,"name":"Pony Express Chevrolet Buick","dealerSlug":"pony+express+chevrolet+buick","city_state_slug":"Gothenburg.NE","brand":"Buick,Chevrolet","website":"www.ponyexpresschevy.com","address":"420 South Lake Avenue","city":"Gothenburg","state":"NE","zip":69138,"latitude":40.924001,"longitude":-100.165722,"phone_number_service":"8665494267","phone_number_main":"3085373671","service_hours":"Mo-Fr 08:00 - 18:00 | Sa 08:00 - 12:00","utc_offset":"-300","gplace_id":null,"gplace_url":"https://maps.google.com/?cid=13538809212270359378","dealerID":73281,"trusted":false,"image_id":"v1597283981/buick_RM.png","phone":"8665494267","cityStateSlug":"gothenburg.ne","slug":"Gothenburg.NE/pony+express+chevrolet+buick","location":"40.924001,-100.165722","brandsList":["buick","chevrolet"]},{"id":15596,"crm_id":67073641,"name":"Wolf Auto Chevrolet Buick","dealerSlug":"wolf+auto+chevrolet+buick","city_state_slug":"Kimball.NE","brand":"Buick,Chevrolet,GMC","website":"www.wolfauto.com/","address":"601 U.S. HWY 30","city":"Kimball","state":"NE","zip":69145,"latitude":41.2364868,"longitude":-103.6727089,"phone_number_service":"3082353697","phone_number_main":"3082846090","service_hours":"Mo-Fr 07:30 - 17:30 | Sa 07:30 - 12:00","utc_offset":"-360","gplace_id":null,"gplace_url":"https://maps.google.com/?cid=16843080412514271357","dealerID":73282,"trusted":false,"image_id":"v1597283981/buick_RM.png","phone":"3082353697","cityStateSlug":"kimball.ne","slug":"Kimball.NE/wolf+auto+chevrolet+buick","location":"41.2364868,-103.6727089","brandsList":["buick","chevrolet","gmc"]},{"id":15598,"crm_id":67073644,"name":"Wolf Auto Ogallala Ford","dealerSlug":"wolf+auto+ogallala+ford","city_state_slug":"Ogallala.NE","brand":"Ford","website":"www.wolfautofordogallala.com","address":"602 W 1st St","city":"Ogallala","state":"NE","zip":69153,"latitude":41.1238011,"longitude":-101.7251007,"phone_number_service":"8667989552","phone_number_main":"3082842001","service_hours":"Mo-Fr 07:30 - 17:30 | Sa 08:00-12:00","utc_offset":"-360","gplace_id":null,"gplace_url":"https://maps.google.com/?cid=1950299468956654275","dealerID":73283,"trusted":false,"image_id":"v1597283967/ford_RM.png","phone":"8667989552","cityStateSlug":"ogallala.ne","slug":"Ogallala.NE/wolf+auto+ogallala+ford","location":"41.1238011,-101.7251007","brandsList":["ford"]},{"id":9129,"crm_id":67073647,"name":"Maddox Motor Company","dealerSlug":"maddox+motor+company","city_state_slug":"Sidney.NE","brand":"Chrysler,Dodge,Jeep,RAM","website":"www.maddoxmotor.com","address":"564 Glover Rd","city":"Sidney","state":"NE","zip":69162,"latitude":41.1178899,"longitude":-102.9570376,"phone_number_service":"3082545577","phone_number_main":"3082545577","service_hours":"Mo-Fr 08:00 - 17:30 | Sa 09:00 - 13:00","utc_offset":"-360","gplace_id":null,"gplace_url":"https://maps.google.com/?cid=459739277681335236","dealerID":73284,"trusted":false,"image_id":"v1597283975/chrysler_RM.png","phone":"3082545577","cityStateSlug":"sidney.ne","slug":"Sidney.NE/maddox+motor+company","location":"41.1178899,-102.9570376","brandsList":["chrysler","dodge","jeep","ram"]},{"id":3416,"crm_id":67073650,"name":"Cover-Jones Motor","dealerSlug":"cover+jones+motor","city_state_slug":"Alliance.NE","brand":"Ford","website":"www.cover-jones.com","address":"403 W 3rd St PO Box 717","city":"Alliance","state":"NE","zip":69301,"latitude":42.096812,"longitude":-102.8753495,"phone_number_service":"8884358720","phone_number_main":"8003449288","service_hours":"Mo-Fr 08:00 - 17:00 | Sa 08:00 - 12:00","utc_offset":"-360","gplace_id":null,"gplace_url":"https://maps.google.com/?cid=6699394529590697016","dealerID":73285,"trusted":false,"image_id":"v1597283967/ford_RM.png","phone":"8884358720","cityStateSlug":"alliance.ne","slug":"Alliance.NE/cover+jones+motor","location":"42.096812,-102.8753495","brandsList":["ford"]},{"id":5648,"crm_id":67073653,"name":"GMC of Chadron","dealerSlug":"gmc+of+chadron","city_state_slug":"Chadron.NE","brand":"Buick,GMC","website":"www.gmcofchadron.com","address":"1500 West Highway 20","city":"Chadron","state":"NE","zip":69337,"latitude":42.8288546,"longitude":-103.0210394,"phone_number_service":"8664272502","phone_number_main":"8882912801","service_hours":"Mo-Fr 08:00 - 17:00","utc_offset":"-360","gplace_id":null,"gplace_url":"https://maps.google.com/?cid=15630414211204069199","dealerID":73286,"trusted":false,"image_id":"v1597283981/buick_RM.png","phone":"8664272502","cityStateSlug":"chadron.ne","slug":"Chadron.NE/gmc+of+chadron","location":"42.8288546,-103.0210394","brandsList":["buick","gmc"]},{"id":4310,"crm_id":67073656,"name":"Eagle Chevrolet Buick","dealerSlug":"eagle+chevrolet+buick","city_state_slug":"Chadron.NE","brand":"Buick","website":"www.eaglechevroletbuick.com","address":"585 South Hwy 385","city":"Chadron","state":"NE","zip":69337,"latitude":42.8261768,"longitude":-103.0192588,"phone_number_service":"8665760073","phone_number_main":"8002725583","service_hours":"Mo-Fr 08:00 - 17:30 | Sa 08:00 - 12:00","utc_offset":"-360","gplace_id":null,"gplace_url":"https://maps.google.com/?cid=17168221935631903141","dealerID":73287,"trusted":false,"image_id":"v1597283981/buick_RM.png","phone":"8665760073","cityStateSlug":"chadron.ne","slug":"Chadron.NE/eagle+chevrolet+buick","location":"42.8261768,-103.0192588","brandsList":["buick"]},{"id":5213,"crm_id":67073662,"name":"Fremont Ford Scottsbluff","dealerSlug":"fremont+ford+scottsbluff","city_state_slug":"Scottsbluff.NE","brand":"Ford","website":"www.fremontscottsbluff.com","address":"1515 E 20th St","city":"Scottsbluff","state":"NE","zip":69361,"latitude":41.867448,"longitude":-103.643314,"phone_number_service":"3085622224","phone_number_main":"3082254510","service_hours":"Mo-Fr 07:30 - 18:00 | Sa 09:00-15:00","utc_offset":"-360","gplace_id":null,"gplace_url":"https://maps.google.com/?cid=1855553161762959227","dealerID":73288,"trusted":false,"image_id":"v1597283967/ford_RM.png","phone":"3085622224","cityStateSlug":"scottsbluff.ne","slug":"Scottsbluff.NE/fremont+ford+scottsbluff","location":"41.867448,-103.643314","brandsList":["ford"]},{"id":12211,"crm_id":67073665,"name":"Reganis Auto Center","dealerSlug":"reganis+auto+center","city_state_slug":"Scottsbluff.NE","brand":"Buick,Cadillac","website":"www.reganisbuickcadillac.com/","address":"2006 E Overland Drive","city":"Scottsbluff","state":"NE","zip":69361,"latitude":41.8589217,"longitude":-103.6372463,"phone_number_service":"3086328200","phone_number_main":"3086328200","service_hours":"Mo-Fr 07:30 - 17:30 | Sa Temporarily Closed","utc_offset":"-360","gplace_id":null,"gplace_url":"https://maps.google.com/?cid=15821932448490121607","dealerID":73289,"trusted":false,"image_id":"v1597283981/buick_RM.png","phone":"3086328200","cityStateSlug":"scottsbluff.ne","slug":"Scottsbluff.NE/reganis+auto+center","location":"41.8589217,-103.6372463","brandsList":["buick","cadillac"]},{"id":12210,"crm_id":67073668,"name":"Reganis Auto Center","dealerSlug":"reganis+auto+center","city_state_slug":"Scottsbluff.NE","brand":"Chrysler,Dodge,Jeep,RAM","website":"www.reganis.com","address":"2006 E Overland Drive","city":"Scottsbluff","state":"NE","zip":69361,"latitude":41.8589217,"longitude":-103.6372463,"phone_number_service":"3086328200","phone_number_main":"3086328200","service_hours":"Mo-Fr 07:30 - 17:30 | Sa Temporarily Closed","utc_offset":"-360","gplace_id":null,"gplace_url":"https://maps.google.com/?cid=15821932448490121607","dealerID":73290,"trusted":false,"image_id":"v1597283975/chrysler_RM.png","phone":"3086328200","cityStateSlug":"scottsbluff.ne","slug":"Scottsbluff.NE/reganis+auto+center","location":"41.8589217,-103.6372463","brandsList":["chrysler","dodge","jeep","ram"]},{"id":12212,"crm_id":67073671,"name":"Reganis Honda","dealerSlug":"reganis+honda","city_state_slug":"Scottsbluff.NE","brand":"Honda","website":"www.reganishonda.com/","address":"1117 East 27th Street","city":"Scottsbluff","state":"NE","zip":69361,"latitude":41.8747777,"longitude":-103.6510218,"phone_number_service":"3086328200","phone_number_main":"3086328200","service_hours":"Mo-Fr 07:30 - 17:30 | Sa 07:30 - 12:00","utc_offset":"-360","gplace_id":null,"gplace_url":"https://maps.google.com/?cid=15821932448490121607","dealerID":73291,"trusted":false,"image_id":"v1597284047/honda_ms.png","phone":"3086328200","cityStateSlug":"scottsbluff.ne","slug":"Scottsbluff.NE/reganis+honda","location":"41.8747777,-103.6510218","brandsList":["honda"]},{"id":3229,"crm_id":67079842,"name":"Columbus Chrysler Dodge Jeep RAM","dealerSlug":"columbus+chrysler+dodge+jeep+ram","city_state_slug":"Columbus.NE","brand":"Chrysler,Dodge,Jeep,RAM","website":"www.columbusmotorcompanyne.com","address":"2806 23rd St","city":"Columbus","state":"NE","zip":68601,"latitude":41.4397312,"longitude":-97.3619038,"phone_number_service":"4024014670","phone_number_main":"4025642846","service_hours":"Mo-Fr 07:30 - 19:00 | Sa 08:00 - 17:00","utc_offset":"-300","gplace_id":null,"gplace_url":"https://maps.google.com/?cid=17109687948528272556","dealerID":74871,"trusted":false,"image_id":"v1597283975/chrysler_RM.png","phone":"4024014670","cityStateSlug":"columbus.ne","slug":"Columbus.NE/columbus+chrysler+dodge+jeep+ram","location":"41.4397312,-97.3619038","brandsList":["chrysler","dodge","jeep","ram"]},{"id":1723,"crm_id":100600855,"name":"BMW of Omaha","dealerSlug":"bmw+of+omaha","city_state_slug":"Omaha.NE","brand":"BMW","website":"www.bmwofomaha.com","address":"14800 Davenport St","city":"Omaha","state":"NE","zip":68154,"latitude":41.2616761,"longitude":-96.1453675,"phone_number_service":"4023939701","phone_number_main":"4023939700","service_hours":"Mo-Fr 07:00 - 18:00 | Sa 07:30 - 17:00","utc_offset":"-300","gplace_id":null,"gplace_url":"https://maps.google.com/?cid=280864908943087432","dealerID":51613,"trusted":true,"image_id":"v1597283982/bmw_RM.png","phone":"4023939701","cityStateSlug":"omaha.ne","slug":"Omaha.NE/bmw+of+omaha","location":"41.2616761,-96.1453675","brandsList":["bmw"]},{"id":10162,"crm_id":114996088,"name":"MINI of Omaha","dealerSlug":"mini+of+omaha","city_state_slug":"Omaha.NE","brand":"MINI","website":"www.miniofomaha.com","address":"14800 Davenport St","city":"Omaha","state":"NE","zip":68154,"latitude":41.2617062,"longitude":-96.1450694,"phone_number_service":"4023939701","phone_number_main":"4023939700","service_hours":"Mo-Fr 07:00 - 18:00 | Sa 07:30 - 17:00","utc_offset":"-300","gplace_id":null,"gplace_url":"https://maps.google.com/?cid=16174009637352438761","dealerID":76968,"trusted":false,"image_id":"v1597283930/mini_RM.png","phone":"4023939701","cityStateSlug":"omaha.ne","slug":"Omaha.NE/mini+of+omaha","location":"41.2617062,-96.1450694","brandsList":["mini"]}]