[{"id":17000,"crm_id":999,"name":"McGee Toyota of Claremont","dealerSlug":"mcgee+toyota+of+claremont","city_state_slug":"Claremont.NH","brand":"Toyota","website":"www.mcgeetoyotaofclaremont.com","address":"114 Charlestown Road","city":"Claremont","state":"NH","zip":3743,"latitude":43.353614,"longitude":-72.358837,"phone_number_service":"6082693673","phone_number_main":"","service_hours":"Mo-Th 08:30 - 19:00 | Fr 08:30 - 18:00 | Sa 09:00 - 17:00","utc_offset":"","gplace_id":0,"gplace_url":"","dealerID":60176,"trusted":false,"image_id":"v1597284039/toyota_ms.png","phone":"6082693673","cityStateSlug":"claremont.nh","slug":"Claremont.NH/mcgee+toyota+of+claremont","location":"43.353614,-72.358837","brandsList":["toyota"]},{"id":17979,"crm_id":999,"name":"Genesis of Manchester","dealerSlug":"genesis+of+manchester","city_state_slug":"Manchester.NH","brand":"Genesis","website":"www.autofair.com","address":"1477 S Willow St","city":"Manchester","state":"NH","zip":3103,"latitude":42.955147,"longitude":-71.436978,"phone_number_service":"8773326956","phone_number_main":"","service_hours":"Mo-Fr 07:30 - 19:00 | Sa 07:30 - 17:00","utc_offset":"","gplace_id":0,"gplace_url":"","dealerID":60349,"trusted":false,"image_id":"v2-motorsafety/assets/images/default-logo","phone":"8773326956","cityStateSlug":"manchester.nh","slug":"Manchester.NH/genesis+of+manchester","location":"42.955147,-71.436978","brandsList":["genesis"]},{"id":16425,"crm_id":999,"name":"Ford of Claremont","dealerSlug":"ford+of+claremont","city_state_slug":"Claremont.NH","brand":"Ford","website":"www.fordofclaremont.com","address":"157 Charlestown Road","city":"Claremont","state":"NH","zip":3743,"latitude":43.348267,"longitude":-72.361904,"phone_number_service":"6035429800","phone_number_main":"","service_hours":"Mo-Sa 09:00 - 18:00 | Su Closed","utc_offset":"","gplace_id":0,"gplace_url":"","dealerID":60693,"trusted":false,"image_id":"v1597283967/ford_RM.png","phone":"6035429800","cityStateSlug":"claremont.nh","slug":"Claremont.NH/ford+of+claremont","location":"43.348267,-72.361904","brandsList":["ford"]},{"id":16819,"crm_id":999,"name":"Key Nissan Of Lebanon","dealerSlug":"key+nissan+of+lebanon","city_state_slug":"Lebanon.NH","brand":"Nissan","website":"www.keynissannh.com","address":"51 EVANS DR","city":"Lebanon","state":"NH","zip":3766,"latitude":43.6507563,"longitude":-72.2495558,"phone_number_service":"6034483500","phone_number_main":"","service_hours":"Mo-Th 09:00 - 19:00\n | Fr 09:00 - 18:00\n | Sa 09:00 - 17:00\n | Su Closed","utc_offset":"","gplace_id":0,"gplace_url":"","dealerID":61364,"trusted":false,"image_id":"v1597283926/nissan_RM.png","phone":"6034483500","cityStateSlug":"lebanon.nh","slug":"Lebanon.NH/key+nissan+of+lebanon","location":"43.6507563,-72.2495558","brandsList":["nissan"]},{"id":16033,"crm_id":999,"name":"Bonneville & Son","dealerSlug":"bonneville+and+son","city_state_slug":"Manchester.NH","brand":"Chrysler,Dodge,Jeep,RAM","website":"bonnevilleandson.com","address":"625 Hooksett Rd","city":"Manchester","state":"NH","zip":3104,"latitude":43.016112,"longitude":-71.449918,"phone_number_service":"6036249280","phone_number_main":"","service_hours":"Mo-Fr 08:00 - 19:00 | Sa 08:00 - 18:00 | Su Closed","utc_offset":"","gplace_id":0,"gplace_url":"","dealerID":61460,"trusted":false,"image_id":"v1597283975/chrysler_RM.png","phone":"6036249280","cityStateSlug":"manchester.nh","slug":"Manchester.NH/bonneville+and+son","location":"43.016112,-71.449918","brandsList":["chrysler","dodge","jeep","ram"]},{"id":17042,"crm_id":999,"name":"Mercedes-Benz of Manchester","dealerSlug":"mercedes+benz+of+manchester","city_state_slug":"Manchester.NH","brand":"Mercedes-Benz","website":"www.manchester.mercedesdealer.com","address":"875 Gold Street","city":"Manchester","state":"NH","zip":3103,"latitude":42.956801,"longitude":-71.439583,"phone_number_service":"6036696788","phone_number_main":"6036696788","service_hours":"","utc_offset":"","gplace_id":0,"gplace_url":"","dealerID":61645,"trusted":false,"image_id":"v1597283934/mercedes_RM.png","phone":"6036696788","cityStateSlug":"manchester.nh","slug":"Manchester.NH/mercedes+benz+of+manchester","location":"42.956801,-71.439583","brandsList":["mercedes-benz"]},{"id":17257,"crm_id":999,"name":"Patriot Nissan","dealerSlug":"patriot+nissan","city_state_slug":"Salem.NH","brand":"Nissan","website":"www.patriotnissan.com","address":"93 S BROADWAY","city":"Salem","state":"NH","zip":3079,"latitude":42.772844,"longitude":-71.2238199,"phone_number_service":"6038944300","phone_number_main":"","service_hours":"Mo-Th 08:00 - 20:00\n | Fr-Sa 08:00 - 18:00\n | Su 11:00 - 17:00","utc_offset":"","gplace_id":0,"gplace_url":"","dealerID":61687,"trusted":false,"image_id":"v1597283926/nissan_RM.png","phone":"6038944300","cityStateSlug":"salem.nh","slug":"Salem.NH/patriot+nissan","location":"42.772844,-71.2238199","brandsList":["nissan"]},{"id":17816,"crm_id":999,"name":"Walker Motor Sales","dealerSlug":"walker+motor+sales","city_state_slug":"Woodsville.NH","brand":"Chrysler,Dodge,Jeep,RAM","website":"www.walkermotor.net","address":"Dartmouth Coll Hgy","city":"Woodsville","state":"NH","zip":3785,"latitude":44.115494,"longitude":-71.959869,"phone_number_service":"6037473380","phone_number_main":"","service_hours":"Mo-Fr 08:00 - 17:00 | Sa 09:00 - 24:00 | Su Closed","utc_offset":"","gplace_id":0,"gplace_url":"","dealerID":61714,"trusted":false,"image_id":"v1597283975/chrysler_RM.png","phone":"6037473380","cityStateSlug":"woodsville.nh","slug":"Woodsville.NH/walker+motor+sales","location":"44.115494,-71.959869","brandsList":["chrysler","dodge","jeep","ram"]},{"id":11899,"crm_id":51926749,"name":"Prime Subaru Manchester","dealerSlug":"prime+subaru+manchester","city_state_slug":"Manchester.NH","brand":"Subaru","website":"www.primesubarumanchester.com","address":"764 Second St","city":"Manchester","state":"NH","zip":3102,"latitude":42.97025,"longitude":-71.4775682,"phone_number_service":"8448255751","phone_number_main":"6037950377","service_hours":"Mo-Fr 07:30 - 18:00 | Sa 07:30 - 16:00","utc_offset":"-240","gplace_id":null,"gplace_url":"https://maps.google.com/?cid=8218504703255296646","dealerID":62162,"trusted":false,"image_id":"v1597283982/subaru_ms.png","phone":"8448255751","cityStateSlug":"manchester.nh","slug":"Manchester.NH/prime+subaru+manchester","location":"42.97025,-71.4775682","brandsList":["subaru"]},{"id":4216,"crm_id":67032184,"name":"Dover Honda","dealerSlug":"dover+honda","city_state_slug":"Dover.NH","brand":"Honda","website":"www.doverhonda.com","address":"1 Dover Point Rd","city":"Dover","state":"NH","zip":3820,"latitude":43.176351,"longitude":-70.8682698,"phone_number_service":"8002935176","phone_number_main":"6037421676","service_hours":"Mo-Sa 08:00 - 17:00","utc_offset":"-240","gplace_id":null,"gplace_url":"https://maps.google.com/?cid=1287514124353965945","dealerID":62809,"trusted":false,"image_id":"v1597284047/honda_ms.png","phone":"8002935176","cityStateSlug":"dover.nh","slug":"Dover.NH/dover+honda","location":"43.176351,-70.8682698","brandsList":["honda"]},{"id":2028,"crm_id":67032337,"name":"Bournival","dealerSlug":"bournival","city_state_slug":"Portsmouth.NH","brand":"Jeep","website":"www.bournivaljeep.net","address":"2355 Lafayette Rd","city":"Portsmouth","state":"NH","zip":3801,"latitude":43.033113,"longitude":-70.78224,"phone_number_service":"6036090579","phone_number_main":"6034318900","service_hours":"Mo-Tu 07:30 - 18:00 | Tu-Sa 07:30 - 17:00","utc_offset":"-240","gplace_id":null,"gplace_url":"https://maps.google.com/?cid=1214314887919799060","dealerID":62851,"trusted":false,"image_id":"v1597284085/jeep_ms.png","phone":"6036090579","cityStateSlug":"portsmouth.nh","slug":"Portsmouth.NH/bournival","location":"43.033113,-70.78224","brandsList":["jeep"]},{"id":14606,"crm_id":67032466,"name":"Tri City Subaru","dealerSlug":"tri+city+subaru","city_state_slug":"Somersworth.NH","brand":"Subaru","website":"www.tricitysubaru.com","address":"195 Route 108","city":"Somersworth","state":"NH","zip":3878,"latitude":43.2419143,"longitude":-70.899884,"phone_number_service":"6037423647","phone_number_main":"6037423647","service_hours":"Mo-Fr 07:45 - 18:00 | Sa 07:45 - 16:00","utc_offset":"-240","gplace_id":null,"gplace_url":"https://maps.google.com/?cid=12757905401472539441","dealerID":62888,"trusted":false,"image_id":"v1597283982/subaru_ms.png","phone":"6037423647","cityStateSlug":"somersworth.nh","slug":"Somersworth.NH/tri+city+subaru","location":"43.2419143,-70.899884","brandsList":["subaru"]},{"id":6932,"crm_id":67032496,"name":"INFINITI Of Nashua","dealerSlug":"infiniti+of+nashua","city_state_slug":"Nashua.NH","brand":"INFINITI","website":"www.infinitiofnashua.com","address":"11 Marmon Dr","city":"Nashua","state":"NH","zip":3060,"latitude":42.7295584,"longitude":-71.4456134,"phone_number_service":"8442849881","phone_number_main":"6038911400","service_hours":"Mo-Fr 08:00 - 17:00 | Sa 08:00 - 16:00","utc_offset":"-240","gplace_id":null,"gplace_url":"https://maps.google.com/?cid=1665621833523806358","dealerID":62897,"trusted":false,"image_id":"v1597283957/infiniti_RM.png","phone":"8442849881","cityStateSlug":"nashua.nh","slug":"Nashua.NH/infiniti+of+nashua","location":"42.7295584,-71.4456134","brandsList":["infiniti"]},{"id":11453,"crm_id":67033174,"name":"Peters of Nashua","dealerSlug":"peters+of+nashua","city_state_slug":"Nashua.NH","brand":"Kia","website":"www.petersauto.com","address":"280-300 Amherst Street","city":"Nashua","state":"NH","zip":3063,"latitude":42.7798374,"longitude":-71.5022558,"phone_number_service":"6038891166","phone_number_main":"6037183852","service_hours":"","utc_offset":"-240","gplace_id":null,"gplace_url":"https://maps.google.com/?cid=6489805282643717711","dealerID":63083,"trusted":false,"image_id":"v1597283948/kia_RM.png","phone":"6038891166","cityStateSlug":"nashua.nh","slug":"Nashua.NH/peters+of+nashua","location":"42.7798374,-71.5022558","brandsList":["kia"]},{"id":15084,"crm_id":67033243,"name":"Volvo Cars Keene","dealerSlug":"volvo+cars+keene","city_state_slug":"Swanzey.NH","brand":"Volvo","website":"www.volvocarskeene.com","address":"591 Monadnock Hwy E","city":"Swanzey","state":"NH","zip":3446,"latitude":42.8754949,"longitude":-72.2321233,"phone_number_service":"8885317681","phone_number_main":"6033545100","service_hours":"Mo-Fr 08:00 - 17:00 | Sa 08:00 - 13:00","utc_offset":"-240","gplace_id":null,"gplace_url":"https://maps.google.com/?cid=1575308092729936201","dealerID":63105,"trusted":false,"image_id":"v1597283901/volvo.jpg","phone":"8885317681","cityStateSlug":"swanzey.nh","slug":"Swanzey.NH/volvo+cars+keene","location":"42.8754949,-72.2321233","brandsList":["volvo"]},{"id":15346,"crm_id":67033672,"name":"Werner Mazda","dealerSlug":"werner+mazda","city_state_slug":"Manchester.NH","brand":"Mazda","website":"www.wernermazda.com","address":"736 Huse Rd","city":"Manchester","state":"NH","zip":3103,"latitude":42.9493611,"longitude":-71.432441,"phone_number_service":"8884375992","phone_number_main":"6036266666","service_hours":"Mo 07:30 - 17:00 | Tu 07:30 - 19:00 | We 07:30 - 17:00 | Th 07:30 - 19:00 | Fr 07:30 - 17:00 | Sa 08:00 - 17:00","utc_offset":"-240","gplace_id":null,"gplace_url":"https://maps.google.com/?cid=12707782054677574573","dealerID":63221,"trusted":false,"image_id":"v1597283937/mazda.png","phone":"8884375992","cityStateSlug":"manchester.nh","slug":"Manchester.NH/werner+mazda","location":"42.9493611,-71.432441","brandsList":["mazda"]},{"id":11452,"crm_id":67034473,"name":"Peters Nissan Of Nashua","dealerSlug":"peters+nissan+of+nashua","city_state_slug":"Nashua.NH","brand":"Nissan","website":"www.petersnissanofnashua.com","address":"280 Amherst St","city":"Nashua","state":"NH","zip":3063,"latitude":42.7791818,"longitude":-71.4990555,"phone_number_service":"6038891166","phone_number_main":"6038891166","service_hours":"Mo-Fr 07:00 - 19:00 | Sa 08:00 - 16:00","utc_offset":"-240","gplace_id":null,"gplace_url":"https://maps.google.com/?cid=8176764388525120039","dealerID":63444,"trusted":false,"image_id":"v1597283926/nissan_RM.png","phone":"6038891166","cityStateSlug":"nashua.nh","slug":"Nashua.NH/peters+nissan+of+nashua","location":"42.7791818,-71.4990555","brandsList":["nissan"]},{"id":4645,"crm_id":67035088,"name":"Fairfield's Buick GMC","dealerSlug":"fairfields+buick+gmc","city_state_slug":"Keene.NH","brand":"Buick,GMC","website":"www.fairfieldsautos.com","address":"434 Winchester St","city":"Keene","state":"NH","zip":3431,"latitude":42.9189187,"longitude":-72.291821,"phone_number_service":"8552303211","phone_number_main":"8339090222","service_hours":"Mo-Fr 08:00 - 17:00","utc_offset":"-240","gplace_id":null,"gplace_url":"https://maps.google.com/?cid=5586241200247753871","dealerID":63609,"trusted":false,"image_id":"v1597283981/buick_RM.png","phone":"8552303211","cityStateSlug":"keene.nh","slug":"Keene.NH/fairfields+buick+gmc","location":"42.9189187,-72.291821","brandsList":["buick","gmc"]},{"id":661,"crm_id":67035271,"name":"Audi Stratham","dealerSlug":"audi+stratham","city_state_slug":"Stratham.NH","brand":"Audi","website":"www.audistratham.com/","address":"58 Portsmouth Ave.","city":"Stratham","state":"NH","zip":3885,"latitude":43.0065995,"longitude":-70.9207525,"phone_number_service":"6037754044","phone_number_main":"","service_hours":"Mo-Fr 07:30 - 18:00 | Sa 08:00 - 16:00","utc_offset":"-240","gplace_id":null,"gplace_url":"https://maps.google.com/?cid=9179994550859899837","dealerID":63662,"trusted":false,"image_id":"v1597283985/audi_RM.png","phone":"6037754044","cityStateSlug":"stratham.nh","slug":"Stratham.NH/audi+stratham","location":"43.0065995,-70.9207525","brandsList":["audi"]},{"id":15174,"crm_id":67035349,"name":"Walier Chevrolet","dealerSlug":"walier+chevrolet","city_state_slug":"Keene.NH","brand":"Chevrolet","website":"www.walierchevy.com","address":"195 Winchester St","city":"Keene","state":"NH","zip":3431,"latitude":42.928003,"longitude":-72.2852023,"phone_number_service":"6032833030","phone_number_main":"6034994378","service_hours":"Mo-Fr 07:30 - 18:00","utc_offset":"-240","gplace_id":null,"gplace_url":"https://maps.google.com/?cid=12571897157768181673","dealerID":63684,"trusted":false,"image_id":"v1597284079/chevy_ms.png","phone":"6032833030","cityStateSlug":"keene.nh","slug":"Keene.NH/walier+chevrolet","location":"42.928003,-72.2852023","brandsList":["chevrolet"]},{"id":1312,"crm_id":67035364,"name":"Berlin City Chevrolet GMC Buick","dealerSlug":"berlin+city+chevrolet+gmc+buick","city_state_slug":"Gorham.NH","brand":"Buick,Chevrolet,GMC","website":"www.berlincitygm.com","address":"545 Main St","city":"Gorham","state":"NH","zip":3581,"latitude":44.4233569,"longitude":-71.1952533,"phone_number_service":"6039314468","phone_number_main":"6032941551","service_hours":"Mo-Fr 07:00 - 17:00 | Sa 08:00 - 17:00","utc_offset":"-240","gplace_id":null,"gplace_url":"https://maps.google.com/?cid=17089156849519005747","dealerID":63686,"trusted":false,"image_id":"v1597283981/buick_RM.png","phone":"6039314468","cityStateSlug":"gorham.nh","slug":"Gorham.NH/berlin+city+chevrolet+gmc+buick","location":"44.4233569,-71.1952533","brandsList":["buick","chevrolet","gmc"]},{"id":4617,"crm_id":67035961,"name":"Exeter Subaru","dealerSlug":"exeter+subaru","city_state_slug":"Stratham.NH","brand":"Subaru","website":"www.exetersubaru.com","address":"37 Portsmouth Ave","city":"Stratham","state":"NH","zip":3885,"latitude":43.0016239,"longitude":-70.9214335,"phone_number_service":"6037780300","phone_number_main":"6037780300","service_hours":"Mo-Th 07:30 - 17:30 | Fr 07:30 - 17:00 | Sa 07:30 - 17:00","utc_offset":"-240","gplace_id":null,"gplace_url":"https://maps.google.com/?cid=15140456128177182890","dealerID":63855,"trusted":false,"image_id":"v1597283982/subaru_ms.png","phone":"6037780300","cityStateSlug":"stratham.nh","slug":"Stratham.NH/exeter+subaru","location":"43.0016239,-70.9214335","brandsList":["subaru"]},{"id":11779,"crm_id":67036798,"name":"Portsmouth Ford","dealerSlug":"portsmouth+ford","city_state_slug":"Portsmouth.NH","brand":"Ford","website":"www.portsmouthford.com","address":"400 Spaulding Turnpike","city":"Portsmouth","state":"NH","zip":3801,"latitude":43.0840791,"longitude":-70.7931319,"phone_number_service":"6034273020","phone_number_main":"6034331221","service_hours":"Mo-Sa 07:00 - 17:00","utc_offset":"-240","gplace_id":null,"gplace_url":"https://maps.google.com/?cid=4638482128089095927","dealerID":64080,"trusted":false,"image_id":"v1597283967/ford_RM.png","phone":"6034273020","cityStateSlug":"portsmouth.nh","slug":"Portsmouth.NH/portsmouth+ford","location":"43.0840791,-70.7931319","brandsList":["ford"]},{"id":11451,"crm_id":67037056,"name":"Peters Honda of Nashua","dealerSlug":"peters+honda+of+nashua","city_state_slug":"Nashua.NH","brand":"Honda","website":"www.petershondaofnashua.com","address":"300 Amherst St","city":"Nashua","state":"NH","zip":3063,"latitude":42.7804094,"longitude":-71.5008948,"phone_number_service":"6037183781","phone_number_main":"6038891166","service_hours":"Mo-Fr 07:00 - 19:00 | Sa 08:00 - 16:00","utc_offset":"-240","gplace_id":null,"gplace_url":"https://maps.google.com/?cid=8097159324895177425","dealerID":64153,"trusted":false,"image_id":"v1597284047/honda_ms.png","phone":"6037183781","cityStateSlug":"nashua.nh","slug":"Nashua.NH/peters+honda+of+nashua","location":"42.7804094,-71.5008948","brandsList":["honda"]},{"id":10895,"crm_id":67037275,"name":"Noyes Volkswagen","dealerSlug":"noyes+volkswagen","city_state_slug":"Keene.NH","brand":"Volkswagen","website":"www.noyesvolkswagen.com","address":"18 Production Ave","city":"Keene","state":"NH","zip":3431,"latitude":42.9213,"longitude":-72.3044,"phone_number_service":"8556379121","phone_number_main":"6033577220","service_hours":"Mo-Fr 08:00 - 17:00","utc_offset":"-240","gplace_id":null,"gplace_url":"https://maps.google.com/?cid=3685209546171688913","dealerID":64216,"trusted":false,"image_id":"v1597283902/volkswagen.png","phone":"8556379121","cityStateSlug":"keene.nh","slug":"Keene.NH/noyes+volkswagen","location":"42.9213,-72.3044","brandsList":["volkswagen"]},{"id":3280,"crm_id":67037539,"name":"Contemporary Chrysler Dodge Jeep RAM FIAT","dealerSlug":"contemporary+chrysler+dodge+jeep+ram+fiat","city_state_slug":"Milford.NH","brand":"Chrysler,Dodge,Jeep,RAM,Fiat","website":"www.contemporarychryslerdodgejeepram.com","address":"30 Hammond Rd","city":"Milford","state":"NH","zip":3055,"latitude":42.8183097,"longitude":-71.6426696,"phone_number_service":"8443178312","phone_number_main":"6036735511","service_hours":"Mo-Fr 07:30 - 17:30 | Sa 08:00 - 16:00","utc_offset":"-240","gplace_id":null,"gplace_url":"https://maps.google.com/?cid=9094022582581850040","dealerID":64292,"trusted":false,"image_id":"v1597283975/chrysler_RM.png","phone":"8443178312","cityStateSlug":"milford.nh","slug":"Milford.NH/contemporary+chrysler+dodge+jeep+ram+fiat","location":"42.8183097,-71.6426696","brandsList":["chrysler","dodge","jeep","ram","fiat"]},{"id":735,"crm_id":67038550,"name":"AutoFair Hyundai in Manchester","dealerSlug":"autofair+hyundai+in+manchester","city_state_slug":"Manchester.NH","brand":"Hyundai","website":"www.autofairhyundai.com","address":"1477 S Willow St","city":"Manchester","state":"NH","zip":3103,"latitude":42.9551643,"longitude":-71.4369323,"phone_number_service":"8668570929","phone_number_main":"6036340500","service_hours":"Mo-Fr 07:30 - 19:00 | Sa 07:30 - 17:00 | Su 9:00-16:00","utc_offset":"-240","gplace_id":null,"gplace_url":"https://maps.google.com/?cid=804822221147829151","dealerID":50475,"trusted":true,"image_id":"v1597283959/hyundai_RM.png","phone":"8668570929","cityStateSlug":"manchester.nh","slug":"Manchester.NH/autofair+hyundai+in+manchester","location":"42.9551643,-71.4369323","brandsList":["hyundai"]},{"id":6984,"crm_id":67038727,"name":"Ira Lexus of Manchester","dealerSlug":"ira+lexus+of+manchester","city_state_slug":"Bedford.NH","brand":"Lexus","website":"www.iralexusofmanchester.com","address":"18 Kilton Rd","city":"Bedford","state":"NH","zip":3110,"latitude":42.9554912,"longitude":-71.4816604,"phone_number_service":"6032183520","phone_number_main":"6032183500","service_hours":"Mo-Fr 07:00 - 18:00 | Sa 07:00 - 16:00","utc_offset":"-240","gplace_id":null,"gplace_url":"https://maps.google.com/?cid=11086377690166746223","dealerID":64621,"trusted":false,"image_id":"v1597284042/lexus_ms.png","phone":"6032183520","cityStateSlug":"bedford.nh","slug":"Bedford.NH/ira+lexus+of+manchester","location":"42.9554912,-71.4816604","brandsList":["lexus"]},{"id":11748,"crm_id":67038910,"name":"Porsche Stratham","dealerSlug":"porsche+stratham","city_state_slug":"Stratham.NH","brand":"Porsche","website":"porschestratham.com","address":"50 Portsmouth Ave","city":"Stratham","state":"NH","zip":3885,"latitude":43.0040144,"longitude":-70.9187783,"phone_number_service":"6037754095","phone_number_main":"6037754095","service_hours":"Mo-Fr 07:30 - 17:00 | Sa 08:00 - 13:00","utc_offset":"-240","gplace_id":null,"gplace_url":"https://maps.google.com/?cid=17160751656510195111","dealerID":64670,"trusted":false,"image_id":"v1597283919/porsche.jpg","phone":"6037754095","cityStateSlug":"stratham.nh","slug":"Stratham.NH/porsche+stratham","location":"43.0040144,-70.9187783","brandsList":["porsche"]},{"id":10717,"crm_id":67040398,"name":"Nissan of Keene","dealerSlug":"nissan+of+keene","city_state_slug":"Swanzey.NH","brand":"Nissan","website":"www.nissanofkeene.com","address":"544 Monadnock Hwy","city":"Swanzey","state":"NH","zip":3446,"latitude":42.8786019,"longitude":-72.2333043,"phone_number_service":"8887452803","phone_number_main":"8882663408","service_hours":"Mo-Fr 07:30 - 17:00 | Sa 07:30 - 14:00","utc_offset":"-240","gplace_id":null,"gplace_url":"https://maps.google.com/?cid=13658988949549047499","dealerID":65074,"trusted":false,"image_id":"v1597283926/nissan_RM.png","phone":"8887452803","cityStateSlug":"swanzey.nh","slug":"Swanzey.NH/nissan+of+keene","location":"42.8786019,-72.2333043","brandsList":["nissan"]},{"id":6621,"crm_id":67041454,"name":"Honda of Keene","dealerSlug":"honda+of+keene","city_state_slug":"Swanzey.NH","brand":"Honda","website":"www.hondaofkeene.com","address":"567 Monadnock Highway","city":"Swanzey","state":"NH","zip":3446,"latitude":42.8763465,"longitude":-72.2332922,"phone_number_service":"8559972329","phone_number_main":"6033546000","service_hours":"Mo-Fr 08:00 - 17:00 | Sa 08:00 - 13:00","utc_offset":"-240","gplace_id":null,"gplace_url":"https://maps.google.com/?cid=4561249938064466469","dealerID":65340,"trusted":false,"image_id":"v1597284047/honda_ms.png","phone":"8559972329","cityStateSlug":"swanzey.nh","slug":"Swanzey.NH/honda+of+keene","location":"42.8763465,-72.2332922","brandsList":["honda"]},{"id":14483,"crm_id":67041601,"name":"Toyota Of Keene","dealerSlug":"toyota+of+keene","city_state_slug":"Swanzey.NH","brand":"Toyota","website":"www.toyotakeene.com","address":"591 Monadnock Hwy","city":"Swanzey","state":"NH","zip":3446,"latitude":42.875495,"longitude":-72.232123,"phone_number_service":"8559807026","phone_number_main":"6033545000","service_hours":"Mo-Fr  08:00 - 17:00 | Sa 08:00 - 13:00","utc_offset":"-240","gplace_id":null,"gplace_url":"https://maps.google.com/?cid=14915094144052048567","dealerID":65380,"trusted":false,"image_id":"v1597284039/toyota_ms.png","phone":"8559807026","cityStateSlug":"swanzey.nh","slug":"Swanzey.NH/toyota+of+keene","location":"42.875495,-72.232123","brandsList":["toyota"]},{"id":734,"crm_id":67041658,"name":"AutoFair Honda in Manchester","dealerSlug":"autofair+honda+in+manchester","city_state_slug":"Manchester.NH","brand":"Honda","website":"www.autofairhonda.com","address":"200 Keller St","city":"Manchester","state":"NH","zip":3103,"latitude":42.9505354,"longitude":-71.440955,"phone_number_service":"8664172431","phone_number_main":"6034713990","service_hours":"Mo-Fr 07:30 - 19:00 | Sa 07:30 - 17:00 | Su 9:00-16:00","utc_offset":"-240","gplace_id":null,"gplace_url":"https://maps.google.com/?cid=8319026961460101036","dealerID":50474,"trusted":true,"image_id":"v1597284047/honda_ms.png","phone":"8664172431","cityStateSlug":"manchester.nh","slug":"Manchester.NH/autofair+honda+in+manchester","location":"42.9505354,-71.440955","brandsList":["honda"]},{"id":6055,"crm_id":67041862,"name":"Hampton Ford","dealerSlug":"hampton+ford","city_state_slug":"North-Hampton.NH","brand":"Ford","website":"www.hamptonford.com","address":"177 Lafayette Rd (RT.1)","city":"North Hampton","state":"NH","zip":3862,"latitude":42.9918219,"longitude":-70.8176117,"phone_number_service":"8778241060","phone_number_main":"6039648771","service_hours":"Mo-Fr 07:30 - 17:30 | Sa 08:00 - 16:00","utc_offset":"-240","gplace_id":null,"gplace_url":"https://maps.google.com/?cid=13316961527171271239","dealerID":65449,"trusted":false,"image_id":"v1597283967/ford_RM.png","phone":"8778241060","cityStateSlug":"north-hampton.nh","slug":"North-Hampton.NH/hampton+ford","location":"42.9918219,-70.8176117","brandsList":["ford"]},{"id":6056,"crm_id":67041868,"name":"Hampton Hyundai","dealerSlug":"hampton+hyundai","city_state_slug":"North-Hampton.NH","brand":"Hyundai","website":"www.hyundaiguy.com","address":"177 Lafayette Rd","city":"North Hampton","state":"NH","zip":3862,"latitude":42.9909818,"longitude":-70.817332,"phone_number_service":"8558407273","phone_number_main":"6039648771","service_hours":"Mo-Fr 07:30 - 17:30 | Sa 08:00 - 16:00","utc_offset":"-240","gplace_id":null,"gplace_url":"https://maps.google.com/?cid=5391088964552714250","dealerID":65450,"trusted":false,"image_id":"v1597283959/hyundai_RM.png","phone":"8558407273","cityStateSlug":"north-hampton.nh","slug":"North-Hampton.NH/hampton+hyundai","location":"42.9909818,-70.817332","brandsList":["hyundai"]},{"id":1356,"crm_id":67042687,"name":"Betley Chevrolet","dealerSlug":"betley+chevrolet","city_state_slug":"Derry.NH","brand":"Chevrolet","website":"www.betley.com","address":"50 N Main St","city":"Derry","state":"NH","zip":3038,"latitude":42.900536,"longitude":-71.3193973,"phone_number_service":"8669259915","phone_number_main":"8886063324","service_hours":"Mo-Fr 07:30 - 17:00","utc_offset":"-240","gplace_id":null,"gplace_url":"https://maps.google.com/?cid=4023834284569443401","dealerID":65676,"trusted":false,"image_id":"v1597284079/chevy_ms.png","phone":"8669259915","cityStateSlug":"derry.nh","slug":"Derry.NH/betley+chevrolet","location":"42.900536,-71.3193973","brandsList":["chevrolet"]},{"id":14732,"crm_id":67042699,"name":"Unique Ford","dealerSlug":"unique+ford","city_state_slug":"Goffstown.NH","brand":"Ford","website":"www.uniqueford.net","address":"330 Mast Rd Route 114","city":"Goffstown","state":"NH","zip":3045,"latitude":43.008748,"longitude":-71.538006,"phone_number_service":"6036418400","phone_number_main":"6036418400","service_hours":"Mo-Fr 07:00 - 17:30 | Sa 08:00 - 13:00","utc_offset":"-240","gplace_id":null,"gplace_url":"https://maps.google.com/?cid=15126897195432253606","dealerID":65679,"trusted":false,"image_id":"v1597283967/ford_RM.png","phone":"6036418400","cityStateSlug":"goffstown.nh","slug":"Goffstown.NH/unique+ford","location":"43.008748,-71.538006","brandsList":["ford"]},{"id":4993,"crm_id":67042711,"name":"Ford of Londonderry","dealerSlug":"ford+of+londonderry","city_state_slug":"Londonderry.NH","brand":"Ford","website":"www.fordoflondonderry.com","address":"33 Nashua Rd. Rt 102","city":"Londonderry","state":"NH","zip":3053,"latitude":42.8652292,"longitude":-71.34652,"phone_number_service":"8883972759","phone_number_main":"6034344141","service_hours":"Mo-Fr 07:30 - 18:00 | Sa 07:30 - 14:00","utc_offset":"-240","gplace_id":null,"gplace_url":"https://maps.google.com/?cid=6328630677673731405","dealerID":65681,"trusted":false,"image_id":"v1597283967/ford_RM.png","phone":"8883972759","cityStateSlug":"londonderry.nh","slug":"Londonderry.NH/ford+of+londonderry","location":"42.8652292,-71.34652","brandsList":["ford"]},{"id":10075,"crm_id":67042720,"name":"Milford Subaru","dealerSlug":"milford+subaru","city_state_slug":"Milford.NH","brand":"Subaru","website":"www.milfordsubaru.com","address":"544 Nashua St","city":"Milford","state":"NH","zip":3055,"latitude":42.8241843,"longitude":-71.6269612,"phone_number_service":"6036730510","phone_number_main":"6036730510","service_hours":"Mo-Fr 07:30 - 17:30 | Sa 08:00 - 14:00","utc_offset":"-240","gplace_id":null,"gplace_url":"https://maps.google.com/?cid=7437975344525874041","dealerID":65684,"trusted":false,"image_id":"v1597283982/subaru_ms.png","phone":"6036730510","cityStateSlug":"milford.nh","slug":"Milford.NH/milford+subaru","location":"42.8241843,-71.6269612","brandsList":["subaru"]},{"id":14510,"crm_id":67042726,"name":"Toyota of Nashua","dealerSlug":"toyota+of+nashua","city_state_slug":"Nashua.NH","brand":"Toyota","website":"www.toyotaofnashua.com","address":"10 Marmon Dr","city":"Nashua","state":"NH","zip":3060,"latitude":42.728467,"longitude":-71.446211,"phone_number_service":"8336819942","phone_number_main":"6036891500","service_hours":"Mo-Sa 07:00 - 17:00","utc_offset":"-240","gplace_id":null,"gplace_url":"https://maps.google.com/?cid=9392981042003511822","dealerID":65686,"trusted":false,"image_id":"v1597284039/toyota_ms.png","phone":"8336819942","cityStateSlug":"nashua.nh","slug":"Nashua.NH/toyota+of+nashua","location":"42.728467,-71.446211","brandsList":["toyota"]},{"id":265,"crm_id":67042735,"name":"Allen Mello Chrysler Dodge Jeep RAM","dealerSlug":"allen+mello+chrysler+dodge+jeep+ram","city_state_slug":"Nashua.NH","brand":"Chrysler,Dodge,Jeep,RAM","website":"www.allenmellododgenashua.com","address":"13 Marmon Dr","city":"Nashua","state":"NH","zip":3060,"latitude":42.7304342,"longitude":-71.4466783,"phone_number_service":"8443164450","phone_number_main":"8332071926","service_hours":"Mo-Fr 08:00 - 17:00 | Sa 08:00 - 12:00","utc_offset":"-240","gplace_id":null,"gplace_url":"https://maps.google.com/?cid=14683590685910400462","dealerID":65689,"trusted":false,"image_id":"v1597283975/chrysler_RM.png","phone":"8443164450","cityStateSlug":"nashua.nh","slug":"Nashua.NH/allen+mello+chrysler+dodge+jeep+ram","location":"42.7304342,-71.4466783","brandsList":["chrysler","dodge","jeep","ram"]},{"id":14651,"crm_id":67042744,"name":"Tulley BMW of Nashua","dealerSlug":"tulley+bmw+of+nashua","city_state_slug":"Nashua.NH","brand":"BMW","website":"www.tulleybmwnashua.com","address":"147 Daniel Webster Hwy","city":"Nashua","state":"NH","zip":3060,"latitude":42.7241657,"longitude":-71.4465999,"phone_number_service":"6038885050","phone_number_main":"6038885050","service_hours":"Mo-Fr 07:30 - 17:00 | Sa 07:30-14:00","utc_offset":"-240","gplace_id":null,"gplace_url":"https://maps.google.com/?cid=7667190562983779331","dealerID":65691,"trusted":false,"image_id":"v1597283982/bmw_RM.png","phone":"6038885050","cityStateSlug":"nashua.nh","slug":"Nashua.NH/tulley+bmw+of+nashua","location":"42.7241657,-71.4465999","brandsList":["bmw"]},{"id":606,"crm_id":67042756,"name":"Audi Nashua","dealerSlug":"audi+nashua","city_state_slug":"Nashua.NH","brand":"Audi","website":"www.audinashua.com","address":"170 Main Dunstable Rd","city":"Nashua","state":"NH","zip":3060,"latitude":42.7445993,"longitude":-71.490002,"phone_number_service":"8882849496","phone_number_main":"6035951700","service_hours":"Mo-Fr 07:00 - 18:00 | Sa 08:00 - 13:00","utc_offset":"-240","gplace_id":null,"gplace_url":"https://maps.google.com/?cid=17640135248585680564","dealerID":65693,"trusted":false,"image_id":"v1597283985/audi_RM.png","phone":"8882849496","cityStateSlug":"nashua.nh","slug":"Nashua.NH/audi+nashua","location":"42.7445993,-71.490002","brandsList":["audi"]},{"id":11691,"crm_id":67042762,"name":"Porsche Nashua","dealerSlug":"porsche+nashua","city_state_slug":"Nashua.NH","brand":"Porsche","website":"www.porschenashua.com","address":"170 Main Dunstable Rd Suite #2","city":"Nashua","state":"NH","zip":3060,"latitude":42.7445993,"longitude":-71.490002,"phone_number_service":"8886677041","phone_number_main":"6035951707","service_hours":"Mo-Fr 07:00 - 18:00 | Sa 07:00 - 17:00","utc_offset":"-240","gplace_id":null,"gplace_url":"https://maps.google.com/?cid=14369829136938288194","dealerID":65695,"trusted":false,"image_id":"v1597283919/porsche.jpg","phone":"8886677041","cityStateSlug":"nashua.nh","slug":"Nashua.NH/porsche+nashua","location":"42.7445993,-71.490002","brandsList":["porsche"]},{"id":9127,"crm_id":67042768,"name":"MacMulkin Chevrolet","dealerSlug":"macmulkin+chevrolet","city_state_slug":"Nashua.NH","brand":"Chevrolet","website":"www.macmulkin.net","address":"3 Marmon Dr","city":"Nashua","state":"NH","zip":3060,"latitude":42.7278671,"longitude":-71.4445953,"phone_number_service":"6038210369","phone_number_main":"6035058319","service_hours":"Mo-Fr 07:30 - 18:00 | Sa 07:30 - 16:00 | Su  07:30 - 16:00","utc_offset":"-240","gplace_id":null,"gplace_url":"https://maps.google.com/?cid=16573070446629259694","dealerID":65697,"trusted":false,"image_id":"v1597284079/chevy_ms.png","phone":"6038210369","cityStateSlug":"nashua.nh","slug":"Nashua.NH/macmulkin+chevrolet","location":"42.7278671,-71.4445953","brandsList":["chevrolet"]},{"id":10574,"crm_id":67042774,"name":"Nashua Mitsubishi","dealerSlug":"nashua+mitsubishi","city_state_slug":"Nashua.NH","brand":"Mitsubishi","website":"www.nashuamitsubishi.com","address":"5 Rockne Dr","city":"Nashua","state":"NH","zip":3060,"latitude":42.726896,"longitude":-71.4449397,"phone_number_service":"8885465511","phone_number_main":"8888226219","service_hours":"Mo 07:30 - 20:00 | Tu 07:30 - 20:00 | We 07:30 - 20:00 | Th 07:30 - 20:00 | Fr 07:30 - 17:00 | Sa 07:30 - 16:00 | Su 08:00 - 16:00","utc_offset":"-240","gplace_id":null,"gplace_url":"https://maps.google.com/?cid=14466164511779751117","dealerID":65698,"trusted":false,"image_id":"v1597283928/mitsubishi.png","phone":"8885465511","cityStateSlug":"nashua.nh","slug":"Nashua.NH/nashua+mitsubishi","location":"42.726896,-71.4449397","brandsList":["mitsubishi"]},{"id":13879,"crm_id":67042786,"name":"Sunnyside Acura","dealerSlug":"sunnyside+acura","city_state_slug":"Nashua.NH","brand":"Acura","website":"www.sunnysideacura.com","address":"482 Amherst St","city":"Nashua","state":"NH","zip":3063,"latitude":42.7913861,"longitude":-71.5215861,"phone_number_service":"6038806550","phone_number_main":"6038806550","service_hours":"Mo-Fr 08:00 - 18:00 | Sa 08:00 - 17:00","utc_offset":"-240","gplace_id":null,"gplace_url":"https://maps.google.com/?cid=9308405689871159076","dealerID":65702,"trusted":false,"image_id":"v1597283988/acura.png","phone":"6038806550","cityStateSlug":"nashua.nh","slug":"Nashua.NH/sunnyside+acura","location":"42.7913861,-71.5215861","brandsList":["acura"]},{"id":12468,"crm_id":67042798,"name":"Rockingham Honda","dealerSlug":"rockingham+honda","city_state_slug":"Salem.NH","brand":"Honda","website":"www.rockinghamhonda.com","address":"402 S Broadway","city":"Salem","state":"NH","zip":3079,"latitude":42.7493936,"longitude":-71.2052302,"phone_number_service":"6034848135","phone_number_main":"6034848143","service_hours":"Mo-Tu 07:30 - 18:00 | We-Th 07:30 - 20:00 | Fr 07:30 - 18:00 | Sa 07:30 - 17:00","utc_offset":"-240","gplace_id":null,"gplace_url":"https://maps.google.com/?cid=1501082345952121459","dealerID":65705,"trusted":false,"image_id":"v1597284047/honda_ms.png","phone":"6034848135","cityStateSlug":"salem.nh","slug":"Salem.NH/rockingham+honda","location":"42.7493936,-71.2052302","brandsList":["honda"]},{"id":12469,"crm_id":67042804,"name":"Rockingham Toyota","dealerSlug":"rockingham+toyota","city_state_slug":"Salem.NH","brand":"Toyota","website":"www.rockinghamtoyota.com","address":"412 S Broadway","city":"Salem","state":"NH","zip":3079,"latitude":42.7484314,"longitude":-71.2044022,"phone_number_service":"6034848164","phone_number_main":"6034848163","service_hours":"Mo-Fr 07:30 - 18:00 | Sa 07:30 - 17:00","utc_offset":"-240","gplace_id":null,"gplace_url":"https://maps.google.com/?cid=16159930443889092014","dealerID":65707,"trusted":false,"image_id":"v1597284039/toyota_ms.png","phone":"6034848164","cityStateSlug":"salem.nh","slug":"Salem.NH/rockingham+toyota","location":"42.7484314,-71.2044022","brandsList":["toyota"]},{"id":12783,"crm_id":67042810,"name":"Salem Ford","dealerSlug":"salem+ford","city_state_slug":"Salem.NH","brand":"Ford","website":"www.salemford.net","address":"60 S Broadway","city":"Salem","state":"NH","zip":3079,"latitude":42.7755254,"longitude":-71.2262599,"phone_number_service":"8884516274","phone_number_main":"6038989766","service_hours":"Mo-Fr 07:30 - 17:00","utc_offset":"-240","gplace_id":null,"gplace_url":"https://maps.google.com/?cid=6953967953903231497","dealerID":65709,"trusted":false,"image_id":"v1597283967/ford_RM.png","phone":"8884516274","cityStateSlug":"salem.nh","slug":"Salem.NH/salem+ford","location":"42.7755254,-71.2262599","brandsList":["ford"]},{"id":7883,"crm_id":67042816,"name":"Key Hyundai of Salem","dealerSlug":"key+hyundai+of+salem","city_state_slug":"Salem.NH","brand":"Hyundai","website":"www.salemhyundai.com","address":"470 S Broadway","city":"Salem","state":"NH","zip":3079,"latitude":42.7456964,"longitude":-71.2024891,"phone_number_service":"8778488092","phone_number_main":"6038413099","service_hours":"Mo-Fr 07:30 - 17:00","utc_offset":"-240","gplace_id":null,"gplace_url":"https://maps.google.com/?cid=9745244286084075263","dealerID":65711,"trusted":false,"image_id":"v1597283959/hyundai_RM.png","phone":"8778488092","cityStateSlug":"salem.nh","slug":"Salem.NH/key+hyundai+of+salem","location":"42.7456964,-71.2024891","brandsList":["hyundai"]},{"id":11935,"crm_id":67042822,"name":"Profile Subaru","dealerSlug":"profile+subaru","city_state_slug":"Conway.NH","brand":"Subaru","website":"www.profilesubaru.com","address":"1323 NH-16","city":"Conway","state":"NH","zip":3818,"latitude":43.9711274,"longitude":-71.1445816,"phone_number_service":"6034473845","phone_number_main":"6034473845","service_hours":"Mo-Fr 07:30 - 18:30 | Sa 08:00 - 16:00","utc_offset":"-240","gplace_id":null,"gplace_url":"https://maps.google.com/?cid=8623244237746964187","dealerID":65713,"trusted":false,"image_id":"v1597283982/subaru_ms.png","phone":"6034473845","cityStateSlug":"conway.nh","slug":"Conway.NH/profile+subaru","location":"43.9711274,-71.1445816","brandsList":["subaru"]},{"id":9891,"crm_id":67042825,"name":"Merrimack Street Volvo Cars","dealerSlug":"merrimack+street+volvo+cars","city_state_slug":"Manchester.NH","brand":"Volvo","website":"www.merrimackstvolvo.com","address":"40-56 Merrimack St","city":"Manchester","state":"NH","zip":3101,"latitude":42.9896238,"longitude":-71.4615869,"phone_number_service":"8669832870","phone_number_main":"6036238015","service_hours":"Mo-Fr 07:30 - 17:00 | Sa 08:00 - 16:00","utc_offset":"-240","gplace_id":null,"gplace_url":"https://maps.google.com/?cid=8085212440681959709","dealerID":65714,"trusted":false,"image_id":"v1597283901/volvo.jpg","phone":"8669832870","cityStateSlug":"manchester.nh","slug":"Manchester.NH/merrimack+street+volvo+cars","location":"42.9896238,-71.4615869","brandsList":["volvo"]},{"id":12010,"crm_id":67042840,"name":"Quirk Volkswagen of Manchester","dealerSlug":"quirk+volkswagen+of+manchester","city_state_slug":"Manchester.NH","brand":"Volkswagen","website":"www.quirkvwnh.com","address":"1100 S Willow St","city":"Manchester","state":"NH","zip":3103,"latitude":42.9621199,"longitude":-71.4379084,"phone_number_service":"6036267000","phone_number_main":"6036267000","service_hours":"Mo-Fr 07:00 - 17:00","utc_offset":"-240","gplace_id":null,"gplace_url":"https://maps.google.com/?cid=12704098781370103315","dealerID":65717,"trusted":false,"image_id":"v1597283902/volkswagen.png","phone":"6036267000","cityStateSlug":"manchester.nh","slug":"Manchester.NH/quirk+volkswagen+of+manchester","location":"42.9621199,-71.4379084","brandsList":["volkswagen"]},{"id":11997,"crm_id":67042846,"name":"Quirk Buick GMC","dealerSlug":"quirk+buick+gmc","city_state_slug":"Manchester.NH","brand":"Buick,GMC","website":"www.quirkbuickgmc.com","address":"1250 S Willow St","city":"Manchester","state":"NH","zip":3103,"latitude":42.96146,"longitude":-71.437543,"phone_number_service":"6032634900","phone_number_main":"6032634900","service_hours":"Mo-Fr 07:00 - 17:00","utc_offset":"-240","gplace_id":null,"gplace_url":"https://maps.google.com/?cid=12422669285001953070","dealerID":65719,"trusted":false,"image_id":"v1597283981/buick_RM.png","phone":"6032634900","cityStateSlug":"manchester.nh","slug":"Manchester.NH/quirk+buick+gmc","location":"42.96146,-71.437543","brandsList":["buick","gmc"]},{"id":732,"crm_id":67042852,"name":"AutoFair Ford in Manchester","dealerSlug":"autofair+ford+in+manchester","city_state_slug":"Manchester.NH","brand":"Ford","website":"www.autofairford.com","address":"1475 S Willow St","city":"Manchester","state":"NH","zip":3103,"latitude":42.9550948,"longitude":-71.4386302,"phone_number_service":"8667747468","phone_number_main":"6036341001","service_hours":"Mo-Fr 07:00 - 19:00 | Sa 07:30 - 17:00","utc_offset":"-240","gplace_id":null,"gplace_url":"https://maps.google.com/?cid=8374122679470163867","dealerID":50473,"trusted":true,"image_id":"v1597283967/ford_RM.png","phone":"8667747468","cityStateSlug":"manchester.nh","slug":"Manchester.NH/autofair+ford+in+manchester","location":"42.9550948,-71.4386302","brandsList":["ford"]},{"id":6987,"crm_id":67042858,"name":"Ira Toyota of Manchester","dealerSlug":"ira+toyota+of+manchester","city_state_slug":"Manchester.NH","brand":"Toyota","website":"www.toyotaofmanchesternh.com","address":"33 Auto Center Rd","city":"Manchester","state":"NH","zip":3103,"latitude":42.9523479,"longitude":-71.4385745,"phone_number_service":"6036572323","phone_number_main":"6036241800","service_hours":"Mo-Th 07:00 - 19:00 | Fr-Sa 07:00 - 18:00","utc_offset":"-240","gplace_id":null,"gplace_url":"https://maps.google.com/?cid=8773408707441770523","dealerID":65723,"trusted":false,"image_id":"v1597284039/toyota_ms.png","phone":"6036572323","cityStateSlug":"manchester.nh","slug":"Manchester.NH/ira+toyota+of+manchester","location":"42.9523479,-71.4385745","brandsList":["toyota"]},{"id":14098,"crm_id":67042864,"name":"Team Nissan Manchester NH","dealerSlug":"team+nissan+manchester+nh","city_state_slug":"Manchester.NH","brand":"Nissan","website":"www.teamnissannh.com","address":"70 Keller St","city":"Manchester","state":"NH","zip":3103,"latitude":42.9530969,"longitude":-71.4424595,"phone_number_service":"8666088546","phone_number_main":"8884157675","service_hours":"Mo-Fr 07:30 - 18:00 | Sa 07:30 - 17:00","utc_offset":"-240","gplace_id":null,"gplace_url":"https://maps.google.com/?cid=7802506307802197654","dealerID":50958,"trusted":true,"image_id":"v1597283926/nissan_RM.png","phone":"8666088546","cityStateSlug":"manchester.nh","slug":"Manchester.NH/team+nissan+manchester+nh","location":"42.9530969,-71.4424595","brandsList":["nissan"]},{"id":13574,"crm_id":67042873,"name":"State Motors Lincoln","dealerSlug":"state+motors+lincoln","city_state_slug":"Manchester.NH","brand":"Lincoln","website":"www.statemotorslincoln.net","address":"275 Hooksett Rd","city":"Manchester","state":"NH","zip":3104,"latitude":43.0114186,"longitude":-71.4535731,"phone_number_service":"8669808044","phone_number_main":"6036237291","service_hours":"Mo-Fr 07:30 - 18:00 | Sa 07:30-15:30","utc_offset":"-240","gplace_id":null,"gplace_url":"https://maps.google.com/?cid=14379616361623541030","dealerID":65728,"trusted":false,"image_id":"v1597283942/lincoln_RM.png","phone":"8669808044","cityStateSlug":"manchester.nh","slug":"Manchester.NH/state+motors+lincoln","location":"43.0114186,-71.4535731","brandsList":["lincoln"]},{"id":923,"crm_id":67042894,"name":"AutoServ Kia","dealerSlug":"autoserv+kia","city_state_slug":"Tilton.NH","brand":"Kia","website":"www.autoservkia.com","address":"40 Tilton Road","city":"Tilton","state":"NH","zip":3276,"latitude":43.4529073,"longitude":-71.565799,"phone_number_service":"8778988013","phone_number_main":"6037291107","service_hours":"Mo-Fr 08:00 - 20:00 | Sa 08:00 - 17:00 | Su 10:00 - 17:00","utc_offset":"-240","gplace_id":null,"gplace_url":"https://maps.google.com/?cid=1031753143703152568","dealerID":65731,"trusted":false,"image_id":"v1597283948/kia_RM.png","phone":"8778988013","cityStateSlug":"tilton.nh","slug":"Tilton.NH/autoserv+kia","location":"43.4529073,-71.565799","brandsList":["kia"]},{"id":6996,"crm_id":67042906,"name":"Irwin Ford Laconia","dealerSlug":"irwin+ford+laconia","city_state_slug":"Laconia.NH","brand":"Ford","website":"www.irwinzoneford.com","address":"59 Bisson Ave","city":"Laconia","state":"NH","zip":3246,"latitude":43.5358617,"longitude":-71.4656285,"phone_number_service":"6035244923","phone_number_main":"6035244922","service_hours":"Mo-Th 07:00 - 18:00 | Fr 07:00 - 17:00 | Sa 08:00 - 17:00","utc_offset":"-240","gplace_id":null,"gplace_url":"https://maps.google.com/?cid=13603813169014666197","dealerID":65734,"trusted":false,"image_id":"v1597283967/ford_RM.png","phone":"6035244923","cityStateSlug":"laconia.nh","slug":"Laconia.NH/irwin+ford+laconia","location":"43.5358617,-71.4656285","brandsList":["ford"]},{"id":7000,"crm_id":67042912,"name":"Irwin Toyota","dealerSlug":"irwin+toyota","city_state_slug":"Laconia.NH","brand":"Toyota","website":"irwinzonetoyota.com","address":"59 Bisson Ave","city":"Laconia","state":"NH","zip":3246,"latitude":43.5360741,"longitude":-71.4659118,"phone_number_service":"6035244922","phone_number_main":"6035244922","service_hours":"Mo-Th 07:00 - 18:00 | Fr 07:00 - 17:00","utc_offset":"-240","gplace_id":null,"gplace_url":"https://maps.google.com/?cid=10091065860982871277","dealerID":65736,"trusted":false,"image_id":"v1597284039/toyota_ms.png","phone":"6035244922","cityStateSlug":"laconia.nh","slug":"Laconia.NH/irwin+toyota","location":"43.5360741,-71.4659118","brandsList":["toyota"]},{"id":2468,"crm_id":67042918,"name":"Cantin Chevrolet","dealerSlug":"cantin+chevrolet","city_state_slug":"Laconia.NH","brand":"Chevrolet","website":"www.cantins.com","address":"623 Union Ave","city":"Laconia","state":"NH","zip":3246,"latitude":43.54357,"longitude":-71.4647811,"phone_number_service":"6036144744","phone_number_main":"6035240770","service_hours":"Mo-Fr 07:30 - 17:00","utc_offset":"-240","gplace_id":null,"gplace_url":"https://maps.google.com/?cid=14245914417687426587","dealerID":65738,"trusted":false,"image_id":"v1597284079/chevy_ms.png","phone":"6036144744","cityStateSlug":"laconia.nh","slug":"Laconia.NH/cantin+chevrolet","location":"43.54357,-71.4647811","brandsList":["chevrolet"]},{"id":9003,"crm_id":67042921,"name":"Lovering Volvo Cars Meredith","dealerSlug":"lovering+volvo+cars+meredith","city_state_slug":"Meredith.NH","brand":"Volvo","website":"www.loveringmeredith.com","address":"251 Daniel Webster Hwy","city":"Meredith","state":"NH","zip":3253,"latitude":43.6499086,"longitude":-71.4977896,"phone_number_service":"8884848563","phone_number_main":"6032798000","service_hours":"Mo-Fr 07:30 - 17:00","utc_offset":"-240","gplace_id":null,"gplace_url":"https://maps.google.com/?cid=707785306950040430","dealerID":65739,"trusted":false,"image_id":"v1597283901/volvo.jpg","phone":"8884848563","cityStateSlug":"meredith.nh","slug":"Meredith.NH/lovering+volvo+cars+meredith","location":"43.6499086,-71.4977896","brandsList":["volvo"]},{"id":11605,"crm_id":67042930,"name":"Plymouth Ford","dealerSlug":"plymouth+ford","city_state_slug":"Plymouth.NH","brand":"Ford","website":"www.plymouthford.com","address":"14 Town West Rd","city":"Plymouth","state":"NH","zip":3264,"latitude":43.7716307,"longitude":-71.7275637,"phone_number_service":"8443675346","phone_number_main":"6035364521","service_hours":"Mo-Fr 08:00 - 17:00 | Sa 07:30 - 12:00","utc_offset":"-240","gplace_id":null,"gplace_url":"https://maps.google.com/?cid=9336684536680365939","dealerID":65741,"trusted":false,"image_id":"v1597283967/ford_RM.png","phone":"8443675346","cityStateSlug":"plymouth.nh","slug":"Plymouth.NH/plymouth+ford","location":"43.7716307,-71.7275637","brandsList":["ford"]},{"id":1191,"crm_id":67042936,"name":"Belknap Subaru","dealerSlug":"belknap+subaru","city_state_slug":"Tilton.NH","brand":"Subaru","website":"www.belknapsubaru.com","address":"35 Tilton Rd","city":"Tilton","state":"NH","zip":3276,"latitude":43.453063,"longitude":-71.565912,"phone_number_service":"8558881355","phone_number_main":"6037291300","service_hours":"Mo-Fr 08:00 - 17:00 | Sa 08:30 - 15:00","utc_offset":"-240","gplace_id":null,"gplace_url":"https://maps.google.com/?cid=14168786468198321465","dealerID":65743,"trusted":false,"image_id":"v1597283982/subaru_ms.png","phone":"8558881355","cityStateSlug":"tilton.nh","slug":"Tilton.NH/belknap+subaru","location":"43.453063,-71.565912","brandsList":["subaru"]},{"id":921,"crm_id":67042942,"name":"AutoServ Chrysler Of Tilton","dealerSlug":"autoserv+chrysler+of+tilton","city_state_slug":"Tilton.NH","brand":"Chrysler,Dodge,Jeep,RAM","website":"www.autoservchrysler.com","address":"40 E Main St lot c","city":"Tilton","state":"NH","zip":3276,"latitude":43.4506832,"longitude":-71.5734858,"phone_number_service":"6038195596","phone_number_main":"6037291167","service_hours":"Mo-Fr 07:30 - 18:00","utc_offset":"-240","gplace_id":null,"gplace_url":"https://maps.google.com/?cid=3474270437349926752","dealerID":65745,"trusted":false,"image_id":"v1597283975/chrysler_RM.png","phone":"6038195596","cityStateSlug":"tilton.nh","slug":"Tilton.NH/autoserv+chrysler+of+tilton","location":"43.4506832,-71.5734858","brandsList":["chrysler","dodge","jeep","ram"]},{"id":922,"crm_id":67042948,"name":"AutoServ Ford","dealerSlug":"autoserv+ford","city_state_slug":"Tilton.NH","brand":"Ford","website":"www.autoservford.com","address":"40 E Main St lot b","city":"Tilton","state":"NH","zip":3276,"latitude":43.450748,"longitude":-71.573468,"phone_number_service":"6037291065","phone_number_main":"6037291166","service_hours":"Mo-Fr 07:30 - 18:00","utc_offset":"-240","gplace_id":null,"gplace_url":"https://maps.google.com/?cid=7048743041838614054","dealerID":65747,"trusted":false,"image_id":"v1597283967/ford_RM.png","phone":"6037291065","cityStateSlug":"tilton.nh","slug":"Tilton.NH/autoserv+ford","location":"43.450748,-71.573468","brandsList":["ford"]},{"id":924,"crm_id":67042960,"name":"AutoServ Nissan of Tilton","dealerSlug":"autoserv+nissan+of+tilton","city_state_slug":"Tilton.NH","brand":"Nissan","website":"www.autoservnissan.com","address":"40 E Main St lot a","city":"Tilton","state":"NH","zip":3276,"latitude":43.450717,"longitude":-71.573492,"phone_number_service":"6037291065","phone_number_main":"6032863141","service_hours":"Mo-Fr 07:30 - 18:00","utc_offset":"-240","gplace_id":null,"gplace_url":"https://maps.google.com/?cid=1017239876745073510","dealerID":65750,"trusted":false,"image_id":"v1597283926/nissan_RM.png","phone":"6037291065","cityStateSlug":"tilton.nh","slug":"Tilton.NH/autoserv+nissan+of+tilton","location":"43.450717,-71.573492","brandsList":["nissan"]},{"id":925,"crm_id":67042966,"name":"AutoServ Volkswagen","dealerSlug":"autoserv+volkswagen","city_state_slug":"Tilton.NH","brand":"Volkswagen","website":"www.autoservvw.com","address":"40 E Main St lot d","city":"Tilton","state":"NH","zip":3276,"latitude":43.450729,"longitude":-71.573492,"phone_number_service":"8773218541","phone_number_main":"6037291105","service_hours":"Mo-Fr 07:30 - 18:00","utc_offset":"-240","gplace_id":null,"gplace_url":"https://maps.google.com/?cid=15794737410291936633","dealerID":65752,"trusted":false,"image_id":"v1597283902/volkswagen.png","phone":"8773218541","cityStateSlug":"tilton.nh","slug":"Tilton.NH/autoserv+volkswagen","location":"43.450729,-71.573492","brandsList":["volkswagen"]},{"id":1017,"crm_id":67042972,"name":"Banks Chevrolet Cadillac Buick GMC","dealerSlug":"banks+chevrolet+cadillac+buick+gmc","city_state_slug":"Concord.NH","brand":"Buick,Cadillac,Chevrolet,GMC","website":"www.banksautos.com","address":"137 Manchester St","city":"Concord","state":"NH","zip":3301,"latitude":43.1891916,"longitude":-71.502204,"phone_number_service":"8664125675","phone_number_main":"8445112874","service_hours":"Mo-Fr 07:30 - 17:00 | Sa 07:30 - 14:00","utc_offset":"-240","gplace_id":null,"gplace_url":"https://maps.google.com/?cid=16775515053931755651","dealerID":65754,"trusted":false,"image_id":"v1597283981/buick_RM.png","phone":"8664125675","cityStateSlug":"concord.nh","slug":"Concord.NH/banks+chevrolet+cadillac+buick+gmc","location":"43.1891916,-71.502204","brandsList":["buick","cadillac","chevrolet","gmc"]},{"id":1867,"crm_id":67042978,"name":"Bob Mariano Chrysler Dodge Jeep RAM","dealerSlug":"bob+mariano+chrysler+dodge+jeep+ram","city_state_slug":"Concord.NH","brand":"Chrysler,Dodge,Jeep,RAM","website":"www.bobmariano.com","address":"146 Manchester St","city":"Concord","state":"NH","zip":3301,"latitude":43.1879326,"longitude":-71.5016869,"phone_number_service":"6032874900","phone_number_main":"6032247437","service_hours":"Mo-Fr 07:30 - 18:00 | Sa 08:00 - 14:00","utc_offset":"-240","gplace_id":null,"gplace_url":"https://maps.google.com/?cid=3819968113642016641","dealerID":65756,"trusted":false,"image_id":"v1597283975/chrysler_RM.png","phone":"6032874900","cityStateSlug":"concord.nh","slug":"Concord.NH/bob+mariano+chrysler+dodge+jeep+ram","location":"43.1879326,-71.5016869","brandsList":["chrysler","dodge","jeep","ram"]},{"id":4410,"crm_id":67042984,"name":"Ed Reilly Subaru","dealerSlug":"ed+reilly+subaru","city_state_slug":"Concord.NH","brand":"Subaru","website":"www.edreillysubaru.com","address":"150 Manchester St","city":"Concord","state":"NH","zip":3301,"latitude":43.1873571,"longitude":-71.5011847,"phone_number_service":"6032250200","phone_number_main":"6032250200","service_hours":"Mo-Fr 07:00 - 17:30 | Sa 07:30 - 17:00","utc_offset":"-240","gplace_id":null,"gplace_url":"https://maps.google.com/?cid=7398406918209484768","dealerID":51756,"trusted":true,"image_id":"v1597283982/subaru_ms.png","phone":"6032250200","cityStateSlug":"concord.nh","slug":"Concord.NH/ed+reilly+subaru","location":"43.1873571,-71.5011847","brandsList":["subaru"]},{"id":9002,"crm_id":67043008,"name":"Lovering Volvo Cars Concord","dealerSlug":"lovering+volvo+cars+concord","city_state_slug":"Concord.NH","brand":"Volvo","website":"www.loveringconcord.com","address":"95 Manchester St","city":"Concord","state":"NH","zip":3301,"latitude":43.190169,"longitude":-71.5085885,"phone_number_service":"8669350091","phone_number_main":"6032256681","service_hours":"Mo-Fr 07:30 - 17:00","utc_offset":"-240","gplace_id":null,"gplace_url":"https://maps.google.com/?cid=6285727849955017603","dealerID":65764,"trusted":false,"image_id":"v1597283901/volvo.jpg","phone":"8669350091","cityStateSlug":"concord.nh","slug":"Concord.NH/lovering+volvo+cars+concord","location":"43.190169,-71.5085885","brandsList":["volvo"]},{"id":5750,"crm_id":67043014,"name":"Grappone Hyundai","dealerSlug":"grappone+hyundai","city_state_slug":"Bow.NH","brand":"Hyundai","website":"www.grapponehyundai.com","address":"514 NH-3A","city":"Bow","state":"NH","zip":3304,"latitude":43.175131,"longitude":-71.529623,"phone_number_service":"8005288993","phone_number_main":"8559019965","service_hours":"Mo-Fr 07:30 - 17:30 | Sa 08:00 - 13:00","utc_offset":"-240","gplace_id":null,"gplace_url":"https://maps.google.com/?cid=8429341164454571077","dealerID":65766,"trusted":false,"image_id":"v1597283959/hyundai_RM.png","phone":"8005288993","cityStateSlug":"bow.nh","slug":"Bow.NH/grappone+hyundai","location":"43.175131,-71.529623","brandsList":["hyundai"]},{"id":5748,"crm_id":67043020,"name":"Grappone Ford","dealerSlug":"grappone+ford","city_state_slug":"Bow.NH","brand":"Ford","website":"www.grapponeford.com","address":"530 Route 3A","city":"Bow","state":"NH","zip":3304,"latitude":43.1736036,"longitude":-71.5302532,"phone_number_service":"8005288993","phone_number_main":"8559020274","service_hours":"Mo-Fr 07:30 - 17:30 | Sa 08:00 - 13:00","utc_offset":"-240","gplace_id":null,"gplace_url":"https://maps.google.com/?cid=16033996202104264426","dealerID":65768,"trusted":false,"image_id":"v1597283967/ford_RM.png","phone":"8005288993","cityStateSlug":"bow.nh","slug":"Bow.NH/grappone+ford","location":"43.1736036,-71.5302532","brandsList":["ford"]},{"id":5749,"crm_id":67043029,"name":"Grappone Honda","dealerSlug":"grappone+honda","city_state_slug":"Bow.NH","brand":"Honda","website":"www.grapponehonda.com","address":"519 NH-3A","city":"Bow","state":"NH","zip":3304,"latitude":43.174826,"longitude":-71.5285391,"phone_number_service":"8005288993","phone_number_main":"8005288993","service_hours":"Mo-Fr 07:30 - 17:30 | Sa 08:00 - 13:00","utc_offset":"-240","gplace_id":null,"gplace_url":"https://maps.google.com/?cid=3934858491990472253","dealerID":65771,"trusted":false,"image_id":"v1597284047/honda_ms.png","phone":"8005288993","cityStateSlug":"bow.nh","slug":"Bow.NH/grappone+honda","location":"43.174826,-71.5285391","brandsList":["honda"]},{"id":5751,"crm_id":67043035,"name":"Grappone Mazda","dealerSlug":"grappone+mazda","city_state_slug":"Bow.NH","brand":"Mazda","website":"www.grapponemazda.com","address":"530 Route 3A","city":"Bow","state":"NH","zip":3304,"latitude":43.1737277,"longitude":-71.5301338,"phone_number_service":"8889792642","phone_number_main":"8559019967","service_hours":"Mo-Fr 07:30 - 17:30 | Sa 08:00 - 13:00","utc_offset":"-240","gplace_id":null,"gplace_url":"https://maps.google.com/?cid=14582875362010562451","dealerID":65773,"trusted":false,"image_id":"v1597283937/mazda.png","phone":"8889792642","cityStateSlug":"bow.nh","slug":"Bow.NH/grappone+mazda","location":"43.1737277,-71.5301338","brandsList":["mazda"]},{"id":13771,"crm_id":67043041,"name":"Subaru of Keene","dealerSlug":"subaru+of+keene","city_state_slug":"Keene.NH","brand":"Subaru","website":"www.subaruofkeene.com","address":"11 Production Ave","city":"Keene","state":"NH","zip":3431,"latitude":42.9219375,"longitude":-72.3053055,"phone_number_service":"6033555000","phone_number_main":"6034396809","service_hours":"Mo-Fr 08:00 - 17:00 | Sa 08:00 - 13:00","utc_offset":"-240","gplace_id":null,"gplace_url":"https://maps.google.com/?cid=16107944347916448354","dealerID":65775,"trusted":false,"image_id":"v1597283982/subaru_ms.png","phone":"6033555000","cityStateSlug":"keene.nh","slug":"Keene.NH/subaru+of+keene","location":"42.9219375,-72.3053055","brandsList":["subaru"]},{"id":6824,"crm_id":67043047,"name":"Hyundai of Keene","dealerSlug":"hyundai+of+keene","city_state_slug":"Keene.NH","brand":"Hyundai","website":"www.hyundaiofkeene.com","address":"14 Production Ave","city":"Keene","state":"NH","zip":3431,"latitude":42.9218717,"longitude":-72.305135,"phone_number_service":"8449940736","phone_number_main":"6033545060","service_hours":"Mo-Fr 08:00 - 17:00 | Sa 08:00 - 12:00","utc_offset":"-240","gplace_id":null,"gplace_url":"https://maps.google.com/?cid=14097391716576917896","dealerID":65777,"trusted":false,"image_id":"v1597283959/hyundai_RM.png","phone":"8449940736","cityStateSlug":"keene.nh","slug":"Keene.NH/hyundai+of+keene","location":"42.9218717,-72.305135","brandsList":["hyundai"]},{"id":7730,"crm_id":67043056,"name":"Keene Chrysler Dodge Jeep RAM","dealerSlug":"keene+chrysler+dodge+jeep+ram","city_state_slug":"Keene.NH","brand":"Chrysler,Dodge,Jeep,RAM","website":"www.keenechryslerdodgejeep.com","address":"410 Winchester St","city":"Keene","state":"NH","zip":3431,"latitude":42.9203387,"longitude":-72.2910892,"phone_number_service":"6034994824","phone_number_main":"6033570808","service_hours":"Mo-Tu 08:00 - 17:30 | We 08:00 - 18:00 | Th-Fr 08:00 - 17:30 | Sa 08:00 - 14:00","utc_offset":"-240","gplace_id":null,"gplace_url":"https://maps.google.com/?cid=13759262260055319643","dealerID":65780,"trusted":false,"image_id":"v1597283975/chrysler_RM.png","phone":"6034994824","cityStateSlug":"keene.nh","slug":"Keene.NH/keene+chrysler+dodge+jeep+ram","location":"42.9203387,-72.2910892","brandsList":["chrysler","dodge","jeep","ram"]},{"id":4641,"crm_id":67043065,"name":"Fairfield KIA","dealerSlug":"fairfield+kia","city_state_slug":"Keene.NH","brand":"Kia","website":"www.fairfieldkia.com","address":"440 Winchester St","city":"Keene","state":"NH","zip":3431,"latitude":42.9185066,"longitude":-72.2918871,"phone_number_service":"8883545680","phone_number_main":"8339720156","service_hours":"Mo-Fr 08:00 - 17:30 | Sa 08:00 - 12:00","utc_offset":"-240","gplace_id":null,"gplace_url":"https://maps.google.com/?cid=8848372430819644769","dealerID":65783,"trusted":false,"image_id":"v1597283948/kia_RM.png","phone":"8883545680","cityStateSlug":"keene.nh","slug":"Keene.NH/fairfield+kia","location":"42.9185066,-72.2918871","brandsList":["kia"]},{"id":706,"crm_id":67043077,"name":"Autex Mazda of Keene","dealerSlug":"autex+mazda+of+keene","city_state_slug":"Keene.NH","brand":"Mazda","website":"www.autexcars.com","address":"94 Key Rd","city":"Keene","state":"NH","zip":3431,"latitude":42.923649,"longitude":-72.294321,"phone_number_service":"6033524400","phone_number_main":"6033524400","service_hours":"Mo-Fr 08:00 - 17:30 | Sa 08:00 - 17:00","utc_offset":"-240","gplace_id":null,"gplace_url":"https://maps.google.com/?cid=15733905384606754829","dealerID":65785,"trusted":false,"image_id":"v1597283937/mazda.png","phone":"6033524400","cityStateSlug":"keene.nh","slug":"Keene.NH/autex+mazda+of+keene","location":"42.923649,-72.294321","brandsList":["mazda"]},{"id":3528,"crm_id":67043092,"name":"Crosstown Motors Chrysler Dodge Jeep RAM Fiat","dealerSlug":"crosstown+motors+chrysler+dodge+jeep+ram+fiat","city_state_slug":"Littleton.NH","brand":"Chrysler,Dodge,Jeep,RAM,Fiat","website":"www.crosstownmotors.net","address":"650 Meadow Street","city":"Littleton","state":"NH","zip":3561,"latitude":44.3050548,"longitude":-71.8042973,"phone_number_service":"6032594023","phone_number_main":"6034442066","service_hours":"Mo-Fr 07:00 - 17:30 | Sa 07:00 - 17:30","utc_offset":"-240","gplace_id":null,"gplace_url":"https://maps.google.com/?cid=11763291368641361082","dealerID":65790,"trusted":false,"image_id":"v1597283975/chrysler_RM.png","phone":"6032594023","cityStateSlug":"littleton.nh","slug":"Littleton.NH/crosstown+motors+chrysler+dodge+jeep+ram+fiat","location":"44.3050548,-71.8042973","brandsList":["chrysler","dodge","jeep","ram","fiat"]},{"id":8915,"crm_id":67043098,"name":"Littleton Chevrolet Buick","dealerSlug":"littleton+chevrolet+buick","city_state_slug":"Littleton.NH","brand":"Buick,Chevrolet","website":"www.littletonchevrolet.com","address":"851 Meadow St","city":"Littleton","state":"NH","zip":3561,"latitude":44.2992148,"longitude":-71.8040892,"phone_number_service":"6039234131","phone_number_main":"6034441999","service_hours":"Mo-Fr 07:00 - 17:00 | Sa 07:30 - 12:30","utc_offset":"-240","gplace_id":null,"gplace_url":"https://maps.google.com/?cid=8600207539478216824","dealerID":65792,"trusted":false,"image_id":"v1597283981/buick_RM.png","phone":"6039234131","cityStateSlug":"littleton.nh","slug":"Littleton.NH/littleton+chevrolet+buick","location":"44.2992148,-71.8040892","brandsList":["buick","chevrolet"]},{"id":1314,"crm_id":67043104,"name":"Berlin City Ford Lincoln","dealerSlug":"berlin+city+ford+lincoln","city_state_slug":"Gorham.NH","brand":"Ford,Lincoln","website":"www.berlincityfordnh.com/","address":"485 Main St","city":"Gorham","state":"NH","zip":3581,"latitude":44.4139327,"longitude":-71.19541,"phone_number_service":"6033927484","phone_number_main":"6037526644","service_hours":"Mo-Fr 07:00 - 17:00 | Sa 08:00 - 17:00","utc_offset":"-240","gplace_id":null,"gplace_url":"https://maps.google.com/?cid=16195492751159370202","dealerID":65794,"trusted":false,"image_id":"v1597283967/ford_RM.png","phone":"6033927484","cityStateSlug":"gorham.nh","slug":"Gorham.NH/berlin+city+ford+lincoln","location":"44.4139327,-71.19541","brandsList":["ford","lincoln"]},{"id":1313,"crm_id":67043110,"name":"Berlin City Dodge Chrysler Jeep RAM","dealerSlug":"berlin+city+dodge+chrysler+jeep+ram","city_state_slug":"Gorham.NH","brand":"Chrysler,Dodge,Jeep,RAM","website":"www.berlincitysdodgejeepchrysler.com","address":"485 Main St","city":"Gorham","state":"NH","zip":3581,"latitude":44.4139327,"longitude":-71.19541,"phone_number_service":"6033927916","phone_number_main":"6033927916","service_hours":"Mo-Fr 07:00 - 17:00 | Sa 08:00 - 17:00","utc_offset":"-240","gplace_id":null,"gplace_url":"https://maps.google.com/?cid=12276635051492189009","dealerID":65796,"trusted":false,"image_id":"v1597283975/chrysler_RM.png","phone":"6033927916","cityStateSlug":"gorham.nh","slug":"Gorham.NH/berlin+city+dodge+chrysler+jeep+ram","location":"44.4139327,-71.19541","brandsList":["chrysler","dodge","jeep","ram"]},{"id":1320,"crm_id":67043116,"name":"Berlin City Toyota","dealerSlug":"berlin+city+toyota","city_state_slug":"Gorham.NH","brand":"Toyota","website":"www.berlincitytoyotanh.com","address":"485 Main St","city":"Gorham","state":"NH","zip":3581,"latitude":44.4139327,"longitude":-71.19541,"phone_number_service":"6033927916","phone_number_main":"6034466029","service_hours":"Mo-Fr 07:00 - 17:00 | Sa 08:00 - 17:00","utc_offset":"-240","gplace_id":null,"gplace_url":"https://maps.google.com/?cid=8166641181648163951","dealerID":65798,"trusted":false,"image_id":"v1597284039/toyota_ms.png","phone":"6033927916","cityStateSlug":"gorham.nh","slug":"Gorham.NH/berlin+city+toyota","location":"44.4139327,-71.19541","brandsList":["toyota"]},{"id":1318,"crm_id":67043122,"name":"Berlin City Nissan NH","dealerSlug":"berlin+city+nissan+nh","city_state_slug":"Gorham.NH","brand":"Nissan","website":"www.berlincitynissannh.com","address":"485 Main St","city":"Gorham","state":"NH","zip":3581,"latitude":44.4139516,"longitude":-71.1954457,"phone_number_service":"6033927916","phone_number_main":"6032392469","service_hours":"Mo-Fr 07:00 - 17:00 | Sa 08:00 - 17:00 | Su 07:00 - 12:00","utc_offset":"-240","gplace_id":null,"gplace_url":"https://maps.google.com/?cid=1897543419643957111","dealerID":65800,"trusted":false,"image_id":"v1597283926/nissan_RM.png","phone":"6033927916","cityStateSlug":"gorham.nh","slug":"Gorham.NH/berlin+city+nissan+nh","location":"44.4139516,-71.1954457","brandsList":["nissan"]},{"id":10808,"crm_id":67043131,"name":"North Country Mtr Sales","dealerSlug":"north+country+mtr+sales","city_state_slug":"Lancaster.NH","brand":"Ford","website":"www.ncfordinc.com","address":"29 Middle St","city":"Lancaster","state":"NH","zip":3584,"latitude":44.4882853,"longitude":-71.5681782,"phone_number_service":"6037882279","phone_number_main":"6037882311","service_hours":"Mo-Fr 07:30 - 17:00","utc_offset":"-240","gplace_id":null,"gplace_url":"https://maps.google.com/?cid=1591515947837860082","dealerID":65803,"trusted":false,"image_id":"v1597283967/ford_RM.png","phone":"6037882279","cityStateSlug":"lancaster.nh","slug":"Lancaster.NH/north+country+mtr+sales","location":"44.4882853,-71.5681782","brandsList":["ford"]},{"id":3684,"crm_id":67043143,"name":"Dan O'Brien Subaru","dealerSlug":"dan+obrien+subaru","city_state_slug":"Claremont.NH","brand":"Subaru","website":"www.danobriensubaru.com/","address":"152 Charlestown Rd","city":"Claremont","state":"NH","zip":3743,"latitude":43.3755709,"longitude":-72.3237621,"phone_number_service":"6035429966","phone_number_main":"","service_hours":"Mo-Sa 07:30 - 17:30","utc_offset":"-240","gplace_id":null,"gplace_url":"https://maps.google.com/?cid=9495522982329384834","dealerID":65805,"trusted":false,"image_id":"v1597283982/subaru_ms.png","phone":"6035429966","cityStateSlug":"claremont.nh","slug":"Claremont.NH/dan+obrien+subaru","location":"43.3755709,-72.3237621","brandsList":["subaru"]},{"id":8223,"crm_id":67043149,"name":"Lambert Chrysler Dodge Jeep RAM","dealerSlug":"lambert+chrysler+dodge+jeep+ram","city_state_slug":"Claremont.NH","brand":"Chrysler,Dodge,Jeep,RAM","website":"www.lambertauto.com","address":"5 River Rd","city":"Claremont","state":"NH","zip":3743,"latitude":43.3683254,"longitude":-72.3783889,"phone_number_service":"6032612283","phone_number_main":"6035430188","service_hours":"Mo-Fr 08:30 - 17:00 | Sa 08:30 - 16:00","utc_offset":"-240","gplace_id":null,"gplace_url":"https://maps.google.com/?cid=10761901788699222049","dealerID":65807,"trusted":false,"image_id":"v1597283975/chrysler_RM.png","phone":"6032612283","cityStateSlug":"claremont.nh","slug":"Claremont.NH/lambert+chrysler+dodge+jeep+ram","location":"43.3683254,-72.3783889","brandsList":["chrysler","dodge","jeep","ram"]},{"id":7878,"crm_id":67043155,"name":"Key Chrysler Dodge Jeep RAM of Lebanon","dealerSlug":"key+chrysler+dodge+jeep+ram+of+lebanon","city_state_slug":"Lebanon.NH","brand":"Chrysler,Dodge,Jeep,RAM","website":"www.keycdjr.com","address":"145 Route 120","city":"Lebanon","state":"NH","zip":3766,"latitude":43.656731,"longitude":-72.245683,"phone_number_service":"8883816019","phone_number_main":"6036784396","service_hours":"Mo-Fr 09:00 - 17:00","utc_offset":"-240","gplace_id":null,"gplace_url":"https://maps.google.com/?cid=9321849570659643044","dealerID":65809,"trusted":false,"image_id":"v1597283975/chrysler_RM.png","phone":"8883816019","cityStateSlug":"lebanon.nh","slug":"Lebanon.NH/key+chrysler+dodge+jeep+ram+of+lebanon","location":"43.656731,-72.245683","brandsList":["chrysler","dodge","jeep","ram"]},{"id":15103,"crm_id":67043164,"name":"Volvo Cars of Lebanon","dealerSlug":"volvo+cars+of+lebanon","city_state_slug":"Lebanon.NH","brand":"Volvo","website":"www.volvocarsoflebanon.com","address":"175 Heater Rd","city":"Lebanon","state":"NH","zip":3766,"latitude":43.651017,"longitude":-72.244419,"phone_number_service":"8669534740","phone_number_main":"6034486363","service_hours":"Mo-Fr 07:30 - 17:00","utc_offset":"-240","gplace_id":null,"gplace_url":"https://maps.google.com/?cid=6663313650339339185","dealerID":65812,"trusted":false,"image_id":"v1597283901/volvo.jpg","phone":"8669534740","cityStateSlug":"lebanon.nh","slug":"Lebanon.NH/volvo+cars+of+lebanon","location":"43.651017,-72.244419","brandsList":["volvo"]},{"id":15028,"crm_id":67043170,"name":"Volkswagen of Lebanon","dealerSlug":"volkswagen+of+lebanon","city_state_slug":"Lebanon.NH","brand":"Volkswagen","website":"www.volkswagenoflebanon.com","address":"175 Heater Rd","city":"Lebanon","state":"NH","zip":3766,"latitude":43.651083,"longitude":-72.244,"phone_number_service":"8883223128","phone_number_main":"6034486363","service_hours":"Mo-Fr 07:30 - 17:00","utc_offset":"-240","gplace_id":null,"gplace_url":"https://maps.google.com/?cid=13915582183033113341","dealerID":65814,"trusted":false,"image_id":"v1597283902/volkswagen.png","phone":"8883223128","cityStateSlug":"lebanon.nh","slug":"Lebanon.NH/volkswagen+of+lebanon","location":"43.651083,-72.244","brandsList":["volkswagen"]},{"id":10659,"crm_id":67043185,"name":"Newport Chevrolet Buick GMC","dealerSlug":"newport+chevrolet+buick+gmc","city_state_slug":"Newport.NH","brand":"Buick,Chevrolet,GMC","website":"www.newportchevrolet.com","address":"320 John Stark Hwy","city":"Newport","state":"NH","zip":3773,"latitude":43.3595587,"longitude":-72.1991682,"phone_number_service":"6038653306","phone_number_main":"6038651655","service_hours":"Mo-Fr 07:30 - 17:30 | Sa 07:30 - 17:30","utc_offset":"-240","gplace_id":null,"gplace_url":"https://maps.google.com/?cid=10617625596664429016","dealerID":65818,"trusted":false,"image_id":"v1597283981/buick_RM.png","phone":"6038653306","cityStateSlug":"newport.nh","slug":"Newport.NH/newport+chevrolet+buick+gmc","location":"43.3595587,-72.1991682","brandsList":["buick","chevrolet","gmc"]},{"id":11762,"crm_id":67043191,"name":"Port City Nissan","dealerSlug":"port+city+nissan","city_state_slug":"Portsmouth.NH","brand":"Nissan","website":"www.portcitynissan.com","address":"120 Spaulding Turnpike","city":"Portsmouth","state":"NH","zip":3801,"latitude":43.0771915,"longitude":-70.7850974,"phone_number_service":"6038383556","phone_number_main":"6034316500","service_hours":"Mo-Fr 07:30 - 17:30 | Sa 08:00 - 16:00","utc_offset":"-240","gplace_id":null,"gplace_url":"https://maps.google.com/?cid=3120302216896079120","dealerID":65820,"trusted":false,"image_id":"v1597283926/nissan_RM.png","phone":"6038383556","cityStateSlug":"portsmouth.nh","slug":"Portsmouth.NH/port+city+nissan","location":"43.0771915,-70.7850974","brandsList":["nissan"]},{"id":14524,"crm_id":67043197,"name":"Toyota of Portsmouth","dealerSlug":"toyota+of+portsmouth","city_state_slug":"Portsmouth.NH","brand":"Toyota","website":"toyotaofportsmouth.com","address":"150 Greenleaf Ave","city":"Portsmouth","state":"NH","zip":3801,"latitude":43.0581885,"longitude":-70.7728778,"phone_number_service":"6034316100","phone_number_main":"6034316100","service_hours":"Mo-Th 07:30 - 17:30 | Fr  07:30 - 17:00","utc_offset":"-240","gplace_id":null,"gplace_url":"https://maps.google.com/?cid=14367344791623404989","dealerID":65822,"trusted":false,"image_id":"v1597284039/toyota_ms.png","phone":"6034316100","cityStateSlug":"portsmouth.nh","slug":"Portsmouth.NH/toyota+of+portsmouth","location":"43.0581885,-70.7728778","brandsList":["toyota"]},{"id":11761,"crm_id":67043203,"name":"Port City Chrysler Dodge","dealerSlug":"port+city+chrysler+dodge","city_state_slug":"Portsmouth.NH","brand":"Chrysler,Dodge,RAM","website":"www.portcitychryslerdodge.com","address":"155 Greenleaf Ave","city":"Portsmouth","state":"NH","zip":3801,"latitude":43.0570682,"longitude":-70.7713924,"phone_number_service":"8443104517","phone_number_main":"8445258158","service_hours":"Mo-Fr 07:30 - 17:00 | Sa 07:30 - 17:00","utc_offset":"-240","gplace_id":null,"gplace_url":"https://maps.google.com/?cid=2170271795201893374","dealerID":65824,"trusted":false,"image_id":"v1597283975/chrysler_RM.png","phone":"8443104517","cityStateSlug":"portsmouth.nh","slug":"Portsmouth.NH/port+city+chrysler+dodge","location":"43.0570682,-70.7713924","brandsList":["chrysler","dodge","ram"]},{"id":12995,"crm_id":67043209,"name":"Seacoast Mazda","dealerSlug":"seacoast+mazda","city_state_slug":"Portsmouth.NH","brand":"Mazda","website":"www.seacoastmazda.com","address":"180 Spaulding Turnpike","city":"Portsmouth","state":"NH","zip":3801,"latitude":43.0785098,"longitude":-70.7867874,"phone_number_service":"6034366811","phone_number_main":"6034366811","service_hours":"Mo-Fr 07:30 - 17:30 | Sa 08:00-17:30","utc_offset":"-240","gplace_id":null,"gplace_url":"https://maps.google.com/?cid=7605109492211293737","dealerID":65826,"trusted":false,"image_id":"v1597283937/mazda.png","phone":"6034366811","cityStateSlug":"portsmouth.nh","slug":"Portsmouth.NH/seacoast+mazda","location":"43.0785098,-70.7867874","brandsList":["mazda"]},{"id":6522,"crm_id":67043218,"name":"Holloway Buick GMC","dealerSlug":"holloway+buick+gmc","city_state_slug":"Portsmouth.NH","brand":"Buick,GMC","website":"www.hollowaygm.com","address":"500 US Hwy 1 Bypass South","city":"Portsmouth","state":"NH","zip":3801,"latitude":43.0698736,"longitude":-70.77747,"phone_number_service":"8664120695","phone_number_main":"6034361700","service_hours":"Mo-Fr 07:30 - 17:00","utc_offset":"-240","gplace_id":null,"gplace_url":"https://maps.google.com/?cid=2154212472957090360","dealerID":65829,"trusted":false,"image_id":"v1597283981/buick_RM.png","phone":"8664120695","cityStateSlug":"portsmouth.nh","slug":"Portsmouth.NH/holloway+buick+gmc","location":"43.0698736,-70.77747","brandsList":["buick","gmc"]},{"id":11778,"crm_id":67043224,"name":"Portsmouth Chevrolet","dealerSlug":"portsmouth+chevrolet","city_state_slug":"Portsmouth.NH","brand":"Chevrolet","website":"www.portsmouthchevrolet.com","address":"549 US Highway 1 Bypass","city":"Portsmouth","state":"NH","zip":3801,"latitude":43.0709408,"longitude":-70.7805692,"phone_number_service":"8559719825","phone_number_main":"8442996541","service_hours":"Mo-Fr 07:00 - 17:00","utc_offset":"-240","gplace_id":null,"gplace_url":"https://maps.google.com/?cid=6585855370902559610","dealerID":65831,"trusted":false,"image_id":"v1597284079/chevy_ms.png","phone":"8559719825","cityStateSlug":"portsmouth.nh","slug":"Portsmouth.NH/portsmouth+chevrolet","location":"43.0709408,-70.7805692","brandsList":["chevrolet"]},{"id":1445,"crm_id":67043239,"name":"Bill Dube Ford","dealerSlug":"bill+dube+ford","city_state_slug":"Dover.NH","brand":"Toyota","website":"billdubeford.com","address":"40 Dover Point Rd","city":"Dover","state":"NH","zip":3820,"latitude":43.172179,"longitude":-70.8591722,"phone_number_service":"6037495500","phone_number_main":"6037495500","service_hours":"Mo-Fr 07:30 - 17:30 | Sa 07:30 - 17:00","utc_offset":"-240","gplace_id":null,"gplace_url":"https://maps.google.com/?cid=8293611926653226675","dealerID":65835,"trusted":false,"image_id":"v1597284039/toyota_ms.png","phone":"6037495500","cityStateSlug":"dover.nh","slug":"Dover.NH/bill+dube+ford","location":"43.172179,-70.8591722","brandsList":["toyota"]},{"id":1447,"crm_id":67043245,"name":"Bill Dube Toyota","dealerSlug":"bill+dube+toyota","city_state_slug":"Dover.NH","brand":"Toyota","website":"billdubetoyota.com","address":"40 Dover Point Rd","city":"Dover","state":"NH","zip":3820,"latitude":43.172191,"longitude":-70.859116,"phone_number_service":"6037495500","phone_number_main":"6037495500","service_hours":"Mo-Fr 07:30 - 17:30 | Sa 07:30 - 17:00","utc_offset":"-240","gplace_id":null,"gplace_url":"https://maps.google.com/?cid=12616156771042758248","dealerID":65837,"trusted":false,"image_id":"v1597284039/toyota_ms.png","phone":"6037495500","cityStateSlug":"dover.nh","slug":"Dover.NH/bill+dube+toyota","location":"43.172191,-70.859116","brandsList":["toyota"]},{"id":5032,"crm_id":67043260,"name":"Foss Motors","dealerSlug":"foss+motors","city_state_slug":"Exeter.NH","brand":"Chrysler,Dodge,Jeep,RAM","website":"www.fosscars.com","address":"133 Portsmouth Avenue","city":"Exeter","state":"NH","zip":3833,"latitude":42.9889723,"longitude":-70.9320766,"phone_number_service":"8444540037","phone_number_main":"6037727777","service_hours":"Mo-Th 08:00 - 19:00 |Fr 08:00 - 18:00 | Sa 09:00 - 17:00 | Su 11:00 - 16:00","utc_offset":"-240","gplace_id":null,"gplace_url":"https://maps.google.com/?cid=13324000069106562610","dealerID":65839,"trusted":false,"image_id":"v1597283975/chrysler_RM.png","phone":"8444540037","cityStateSlug":"exeter.nh","slug":"Exeter.NH/foss+motors","location":"42.9889723,-70.9320766","brandsList":["chrysler","dodge","jeep","ram"]},{"id":15097,"crm_id":67043272,"name":"Volvo Cars of Exeter","dealerSlug":"volvo+cars+of+exeter","city_state_slug":"Exeter.NH","brand":"Volvo","website":"www.volvocarsexeter.com","address":"140 Portsmouth Ave","city":"Exeter","state":"NH","zip":3833,"latitude":42.9904517,"longitude":-70.9315133,"phone_number_service":"6037725975","phone_number_main":"6037725975","service_hours":"Mo-Fr 07:30 - 17:00 |Sa 08:00 - 16:00","utc_offset":"-240","gplace_id":null,"gplace_url":"https://maps.google.com/?cid=468351080390579616","dealerID":65842,"trusted":false,"image_id":"v1597283901/volvo.jpg","phone":"6037725975","cityStateSlug":"exeter.nh","slug":"Exeter.NH/volvo+cars+of+exeter","location":"42.9904517,-70.9315133","brandsList":["volvo"]},{"id":9515,"crm_id":67043278,"name":"McFarland Ford","dealerSlug":"mcfarland+ford","city_state_slug":"Exeter.NH","brand":"Ford","website":"www.mcfarlandford.com","address":"151 Portsmouth Ave","city":"Exeter","state":"NH","zip":3833,"latitude":42.9903014,"longitude":-70.9281874,"phone_number_service":"8883494006","phone_number_main":"8006393673","service_hours":"Mo-Fr 07:30 - 17:00 | Sa 08:00 - 16:00","utc_offset":"-240","gplace_id":null,"gplace_url":"https://maps.google.com/?cid=15363647203432042921","dealerID":65844,"trusted":false,"image_id":"v1597283967/ford_RM.png","phone":"8883494006","cityStateSlug":"exeter.nh","slug":"Exeter.NH/mcfarland+ford","location":"42.9903014,-70.9281874","brandsList":["ford"]},{"id":9818,"crm_id":67043293,"name":"Mercedes-Benz of Portsmouth","dealerSlug":"mercedes+benz+of+portsmouth","city_state_slug":"Greenland.NH","brand":"Mercedes-Benz","website":"www.mbportsmouth.com","address":"309 Portsmouth Ave","city":"Greenland","state":"NH","zip":3840,"latitude":43.0421741,"longitude":-70.8243995,"phone_number_service":"6034318585","phone_number_main":"6034318585","service_hours":"Mo-Fr 07:30 - 18:00 | Sa 08:00 - 14:00","utc_offset":"-240","gplace_id":null,"gplace_url":"https://maps.google.com/?cid=3196112493121661703","dealerID":65847,"trusted":false,"image_id":"v1597283934/mercedes_RM.png","phone":"6034318585","cityStateSlug":"greenland.nh","slug":"Greenland.NH/mercedes+benz+of+portsmouth","location":"43.0421741,-70.8243995","brandsList":["mercedes-benz"]},{"id":12996,"crm_id":67043302,"name":"Seacoast Volkswagen","dealerSlug":"seacoast+volkswagen","city_state_slug":"Greenland.NH","brand":"Volkswagen","website":"www.seacoastvolkswagen.com","address":"95 Ocean Rd","city":"Greenland","state":"NH","zip":3840,"latitude":43.044563,"longitude":-70.818026,"phone_number_service":"6035132784","phone_number_main":"6034366900","service_hours":"Mo-Fr 07:30 - 17:00 | Sa 08:00-16:00","utc_offset":"-240","gplace_id":null,"gplace_url":"https://maps.google.com/?cid=669427665967160950","dealerID":65849,"trusted":false,"image_id":"v1597283902/volkswagen.png","phone":"6035132784","cityStateSlug":"greenland.nh","slug":"Greenland.NH/seacoast+volkswagen","location":"43.044563,-70.818026","brandsList":["volkswagen"]},{"id":7872,"crm_id":67043308,"name":"Key Acura of Porstmouth","dealerSlug":"key+acura+of+porstmouth","city_state_slug":"Portsmouth.NH","brand":"Acura","website":"www.keyacura.com/","address":"2219 Lafayette Rd","city":"Portsmouth","state":"NH","zip":3801,"latitude":43.0351434,"longitude":-70.7776641,"phone_number_service":"8886823564","phone_number_main":"","service_hours":"Mo-Fr 08:30 - 17:30","utc_offset":"-240","gplace_id":null,"gplace_url":"https://maps.google.com/?cid=11227067113310280132","dealerID":65851,"trusted":false,"image_id":"v1597283988/acura.png","phone":"8886823564","cityStateSlug":"portsmouth.nh","slug":"Portsmouth.NH/key+acura+of+porstmouth","location":"43.0351434,-70.7776641","brandsList":["acura"]},{"id":9533,"crm_id":67043320,"name":"McGovern Subaru","dealerSlug":"mcgovern+subaru","city_state_slug":"North-Hampton.NH","brand":"Subaru","website":"www.mcgovernsubaru.com","address":"203 Lafayette Rd","city":"North Hampton","state":"NH","zip":3862,"latitude":42.9958699,"longitude":-70.81484,"phone_number_service":"8336787545","phone_number_main":"6037820033","service_hours":"Mo-Fr 07:00 - 15:00 | Sa 07:30 - 14:00","utc_offset":"-240","gplace_id":null,"gplace_url":"https://maps.google.com/?cid=14090801031257272201","dealerID":65854,"trusted":false,"image_id":"v1597283982/subaru_ms.png","phone":"8336787545","cityStateSlug":"north-hampton.nh","slug":"North-Hampton.NH/mcgovern+subaru","location":"42.9958699,-70.81484","brandsList":["subaru"]},{"id":15048,"crm_id":67043332,"name":"Volkswagen of Rochester","dealerSlug":"volkswagen+of+rochester","city_state_slug":"Rochester.NH","brand":"Volkswagen","website":"www.vwofrochesternh.com","address":"20 Farmington Rd","city":"Rochester","state":"NH","zip":3867,"latitude":43.323962,"longitude":-71.0015439,"phone_number_service":"8554431031","phone_number_main":"6033326242","service_hours":"Mo-Fr 07:30 - 17:30","utc_offset":"-240","gplace_id":null,"gplace_url":"https://maps.google.com/?cid=8064879749044768595","dealerID":65857,"trusted":false,"image_id":"v1597283902/volkswagen.png","phone":"8554431031","cityStateSlug":"rochester.nh","slug":"Rochester.NH/volkswagen+of+rochester","location":"43.323962,-71.0015439","brandsList":["volkswagen"]},{"id":11786,"crm_id":67043341,"name":"Poulin Chrysler Dodge Jeep RAM","dealerSlug":"poulin+chrysler+dodge+jeep+ram","city_state_slug":"Rochester.NH","brand":"Chrysler,Dodge,Jeep,RAM","website":"www.poulinchryslerjeep.net","address":"401 N Main St","city":"Rochester","state":"NH","zip":3867,"latitude":43.3151943,"longitude":-70.9934468,"phone_number_service":"6036014554","phone_number_main":"6033322010","service_hours":"Mo-Fr 07:30 - 16:00 | Sa 07:45 - 16:00","utc_offset":"-240","gplace_id":null,"gplace_url":"https://maps.google.com/?cid=11819240183936567379","dealerID":65859,"trusted":false,"image_id":"v1597283975/chrysler_RM.png","phone":"6036014554","cityStateSlug":"rochester.nh","slug":"Rochester.NH/poulin+chrysler+dodge+jeep+ram","location":"43.3151943,-70.9934468","brandsList":["chrysler","dodge","jeep","ram"]},{"id":12450,"crm_id":67043347,"name":"Rochester Ford NH","dealerSlug":"rochester+ford+nh","city_state_slug":"Rochester.NH","brand":"Ford","website":"www.rochesterfordnh.com","address":"8 Crane Dr","city":"Rochester","state":"NH","zip":3867,"latitude":43.3303337,"longitude":-71.004219,"phone_number_service":"8443004233","phone_number_main":"6033322585","service_hours":"Mo-Fr 07:30 - 17:30 | Sa 07:30 - 15:00","utc_offset":"-240","gplace_id":null,"gplace_url":"https://maps.google.com/?cid=13440616192202518102","dealerID":65861,"trusted":false,"image_id":"v1597283967/ford_RM.png","phone":"8443004233","cityStateSlug":"rochester.nh","slug":"Rochester.NH/rochester+ford+nh","location":"43.3303337,-71.004219","brandsList":["ford"]},{"id":7874,"crm_id":67043356,"name":"Key Buick GMC of Somersworth","dealerSlug":"key+buick+gmc+of+somersworth","city_state_slug":"Somersworth.NH","brand":"Buick,GMC","website":"www.somersworthbuickgmc.com","address":"155 Route 108","city":"Somersworth","state":"NH","zip":3878,"latitude":43.2358511,"longitude":-70.8970615,"phone_number_service":"6036090993","phone_number_main":"6036090992","service_hours":"Mo-Fr  08:00 - 17:00","utc_offset":"-240","gplace_id":null,"gplace_url":"https://maps.google.com/?cid=10570072877353978512","dealerID":65864,"trusted":false,"image_id":"v1597283981/buick_RM.png","phone":"6036090993","cityStateSlug":"somersworth.nh","slug":"Somersworth.NH/key+buick+gmc+of+somersworth","location":"43.2358511,-70.8970615","brandsList":["buick","gmc"]},{"id":12552,"crm_id":67043368,"name":"Ron Currier's Hilltop Chevrolet","dealerSlug":"ron+curriers+hilltop+chevrolet","city_state_slug":"Somersworth.NH","brand":"Chevrolet","website":"www.hilltopchevy.com","address":"385 New Hampshire 108","city":"Somersworth","state":"NH","zip":3878,"latitude":43.2658099,"longitude":-70.9062442,"phone_number_service":"6036921697","phone_number_main":"6036922121","service_hours":"Mo-Fr 08:00 - 17:00 | Sa 08:00 - 16:00","utc_offset":"-240","gplace_id":null,"gplace_url":"https://maps.google.com/?cid=1277583741875817148","dealerID":65866,"trusted":false,"image_id":"v1597284079/chevy_ms.png","phone":"6036921697","cityStateSlug":"somersworth.nh","slug":"Somersworth.NH/ron+curriers+hilltop+chevrolet","location":"43.2658099,-70.9062442","brandsList":["chevrolet"]},{"id":13334,"crm_id":67043374,"name":"Somersworth Nissan","dealerSlug":"somersworth+nissan","city_state_slug":"Somersworth.NH","brand":"Nissan","website":"www.somersworthnissan.com","address":"285 Route 108","city":"Somersworth","state":"NH","zip":3878,"latitude":43.257410899999996,"longitude":-70.9005594,"phone_number_service":"6036925200","phone_number_main":"6036925200","service_hours":"Mo-We 07:30 - 17:00 | Th 07:00-17:00 | Fr 07:30 - 13:00 | Sa 07:30 - 17:00","utc_offset":"-240","gplace_id":null,"gplace_url":"https://maps.google.com/?cid=15798004834048930852","dealerID":65868,"trusted":false,"image_id":"v1597283926/nissan_RM.png","phone":"6036925200","cityStateSlug":"somersworth.nh","slug":"Somersworth.NH/somersworth+nissan","location":"43.257410899999996,-70.9005594","brandsList":["nissan"]},{"id":13333,"crm_id":67043380,"name":"Somersworth Hyundai","dealerSlug":"somersworth+hyundai","city_state_slug":"Somersworth.NH","brand":"Hyundai","website":"www.somersworthhyundai.com","address":"370 Route 108","city":"Somersworth","state":"NH","zip":3878,"latitude":43.2632871,"longitude":-70.908104,"phone_number_service":"8665916088","phone_number_main":"6036925220","service_hours":"Mo-Sa 07:30 - 17:00","utc_offset":"-240","gplace_id":null,"gplace_url":"https://maps.google.com/?cid=11606037407317750552","dealerID":65870,"trusted":false,"image_id":"v1597283959/hyundai_RM.png","phone":"8665916088","cityStateSlug":"somersworth.nh","slug":"Somersworth.NH/somersworth+hyundai","location":"43.2632871,-70.908104","brandsList":["hyundai"]},{"id":6560,"crm_id":67043389,"name":"Honda Barn","dealerSlug":"honda+barn","city_state_slug":"Stratham.NH","brand":"Honda","website":"www.hondabarn.com","address":"34 Portsmouth Ave","city":"Stratham","state":"NH","zip":3885,"latitude":42.999789,"longitude":-70.920624,"phone_number_service":"6037727300","phone_number_main":"6037727300","service_hours":"Mo-Fr 08:00 - 17:00 | Sa 08:00 - 15:00","utc_offset":"-240","gplace_id":null,"gplace_url":"https://maps.google.com/?cid=7128986459574546387","dealerID":65873,"trusted":false,"image_id":"v1597284047/honda_ms.png","phone":"6037727300","cityStateSlug":"stratham.nh","slug":"Stratham.NH/honda+barn","location":"42.999789,-70.920624","brandsList":["honda"]},{"id":1761,"crm_id":67043404,"name":"BMW of Stratham","dealerSlug":"bmw+of+stratham","city_state_slug":"Stratham.NH","brand":"BMW","website":"www.bmwofstratham.com/","address":"71 Portsmouth Ave","city":"Stratham","state":"NH","zip":3885,"latitude":43.0108176,"longitude":-70.9188826,"phone_number_service":"6033952727","phone_number_main":"6033952710","service_hours":"Mo-Fr 07:00 - 17:00 | Sa 07:00 - 16:00","utc_offset":"-240","gplace_id":null,"gplace_url":"https://maps.google.com/?cid=3929128414032566645","dealerID":65877,"trusted":false,"image_id":"v1597283982/bmw_RM.png","phone":"6033952727","cityStateSlug":"stratham.nh","slug":"Stratham.NH/bmw+of+stratham","location":"43.0108176,-70.9188826","brandsList":["bmw"]},{"id":4046,"crm_id":67043413,"name":"DiPrizio GMC Trucks","dealerSlug":"diprizio+gmc+trucks","city_state_slug":"Middleton.NH","brand":"Buick,Chevrolet,GMC","website":"www.dipriziogmc.com","address":"10 Kings Highway Route 153","city":"Middleton","state":"NH","zip":3887,"latitude":43.4689402,"longitude":-71.0608882,"phone_number_service":"8662557108","phone_number_main":"6034732372","service_hours":"Mo-Fr 07:00 - 17:00","utc_offset":"-240","gplace_id":null,"gplace_url":"https://maps.google.com/?cid=13626063831486802394","dealerID":65880,"trusted":false,"image_id":"v1597283981/buick_RM.png","phone":"8662557108","cityStateSlug":"middleton.nh","slug":"Middleton.NH/diprizio+gmc+trucks","location":"43.4689402,-71.0608882","brandsList":["buick","chevrolet","gmc"]},{"id":8530,"crm_id":67044034,"name":"Lebanon Ford","dealerSlug":"lebanon+ford","city_state_slug":"Lebanon.NH","brand":"Ford","website":"www.lebanonfordnh.com","address":"425 Miracle Mile","city":"Lebanon","state":"NH","zip":3766,"latitude":43.6356675,"longitude":-72.2932074,"phone_number_service":"8884336760","phone_number_main":"6034483363","service_hours":"Mo-Fr 07:30 - 17:00 | Sa 07:30 - 12:00","utc_offset":"-240","gplace_id":null,"gplace_url":"https://maps.google.com/?cid=13229943592861892502","dealerID":66050,"trusted":false,"image_id":"v1597283967/ford_RM.png","phone":"8884336760","cityStateSlug":"lebanon.nh","slug":"Lebanon.NH/lebanon+ford","location":"43.6356675,-72.2932074","brandsList":["ford"]},{"id":6465,"crm_id":67055020,"name":"Hillsboro Chrysler Dodge Jeep RAM","dealerSlug":"hillsboro+chrysler+dodge+jeep+ram","city_state_slug":"Hillsboro.NH","brand":"Chrysler,Dodge,Jeep,RAM","website":"www.hillsborochryslerdodgeramjeep.com","address":"75 Antrim Rd","city":"Hillsboro","state":"NH","zip":3244,"latitude":43.1067805,"longitude":-71.9173742,"phone_number_service":"8445564733","phone_number_main":"6034645200","service_hours":"Mo-Fr 07:30 - 17:30 | Sa 08:00 - 15:00","utc_offset":"-240","gplace_id":null,"gplace_url":"https://maps.google.com/?cid=15335577175205657908","dealerID":69031,"trusted":false,"image_id":"v1597283975/chrysler_RM.png","phone":"8445564733","cityStateSlug":"hillsboro.nh","slug":"Hillsboro.NH/hillsboro+chrysler+dodge+jeep+ram","location":"43.1067805,-71.9173742","brandsList":["chrysler","dodge","jeep","ram"]},{"id":9121,"crm_id":67079686,"name":"MacDonald Motors","dealerSlug":"macdonald+motors","city_state_slug":"Conway.NH","brand":"Ford","website":"www.macdonaldmotorsford.com","address":"61 East Conway Road Center","city":"Conway","state":"NH","zip":3813,"latitude":44.0046208,"longitude":-71.085225,"phone_number_service":"8884184921","phone_number_main":"6033569341","service_hours":"Mo-Fr 08:00 - 17:00 | Sa 08:00 - 12:00","utc_offset":"-240","gplace_id":null,"gplace_url":"https://maps.google.com/?cid=13851537450050491515","dealerID":74853,"trusted":false,"image_id":"v1597283967/ford_RM.png","phone":"8884184921","cityStateSlug":"conway.nh","slug":"Conway.NH/macdonald+motors","location":"44.0046208,-71.085225","brandsList":["ford"]},{"id":3467,"crm_id":67079692,"name":"Crest Auto World","dealerSlug":"crest+auto+world","city_state_slug":"Conway.NH","brand":"Chrysler,Dodge,Jeep,RAM,Fiat","website":"www.crestautoworld.com","address":"802 Eastman Rd.","city":"Conway","state":"NH","zip":3813,"latitude":44.012036,"longitude":-71.098855,"phone_number_service":"6033565401","phone_number_main":"6033565401","service_hours":"Mo-Fr 08:00 - 17:00 | Sa 08:00 - 12:00","utc_offset":"-240","gplace_id":null,"gplace_url":"https://maps.google.com/?cid=8435647083725751489","dealerID":74855,"trusted":false,"image_id":"v1597283975/chrysler_RM.png","phone":"6033565401","cityStateSlug":"conway.nh","slug":"Conway.NH/crest+auto+world","location":"44.012036,-71.098855","brandsList":["chrysler","dodge","jeep","ram","fiat"]},{"id":738,"crm_id":69854050,"name":"AutoFair Volkswagen of Nashua","dealerSlug":"autofair+volkswagen+of+nashua","city_state_slug":"Merrimack.NH","brand":"Volkswagen","website":"www.autofairvolkswagenofnashua.com","address":"717 NH-101A","city":"Merrimack","state":"NH","zip":3054,"latitude":42.8057977,"longitude":-71.5473497,"phone_number_service":"8774520030","phone_number_main":"6038214313","service_hours":"Mo-Fr 07:00 - 19:00 | Sa 08:00 - 17:00","utc_offset":"-240","gplace_id":null,"gplace_url":"https://maps.google.com/?cid=7914522274789101139","dealerID":50487,"trusted":true,"image_id":"v1597283902/volkswagen.png","phone":"8774520030","cityStateSlug":"merrimack.nh","slug":"Merrimack.NH/autofair+volkswagen+of+nashua","location":"42.8057977,-71.5473497","brandsList":["volkswagen"]},{"id":736,"crm_id":69856822,"name":"AutoFair Nissan of Stratham","dealerSlug":"autofair+nissan+of+stratham","city_state_slug":"Stratham.NH","brand":"Nissan","website":"www.autofairnissan.com","address":"45 Portsmouth Ave","city":"Stratham","state":"NH","zip":3885,"latitude":43.0036111,"longitude":-70.9231525,"phone_number_service":"8887037296","phone_number_main":"6035804500","service_hours":"Mo-Fr 07:30 - 18:00 | Sa 08:00 - 15:00","utc_offset":"-240","gplace_id":null,"gplace_url":"https://maps.google.com/?cid=2646997778199442812","dealerID":50479,"trusted":true,"image_id":"v1597283926/nissan_RM.png","phone":"8887037296","cityStateSlug":"stratham.nh","slug":"Stratham.NH/autofair+nissan+of+stratham","location":"43.0036111,-70.9231525","brandsList":["nissan"]},{"id":3681,"crm_id":94925608,"name":"Dan O'Brien Kia","dealerSlug":"dan+obrien+kia","city_state_slug":"Concord.NH","brand":"Kia","website":"www.danobrienkiaconcord.com/","address":"158 Manchester St","city":"Concord","state":"NH","zip":3301,"latitude":43.1871705,"longitude":-71.5002823,"phone_number_service":"6032270550","phone_number_main":"6032270550","service_hours":"Mo-Fr 07:30 - 19:00 | Sa 07:30 - 18:00","utc_offset":"-240","gplace_id":null,"gplace_url":"https://maps.google.com/?cid=7744818413204341490","dealerID":76283,"trusted":false,"image_id":"v1597283948/kia_RM.png","phone":"6032270550","cityStateSlug":"concord.nh","slug":"Concord.NH/dan+obrien+kia","location":"43.1871705,-71.5002823","brandsList":["kia"]},{"id":14652,"crm_id":97892974,"name":"Tulley Mazda","dealerSlug":"tulley+mazda","city_state_slug":"Nashua.NH","brand":"Mazda","website":"www.tulleymazda.com","address":"147 Daniel Webster Hwy","city":"Nashua","state":"NH","zip":3060,"latitude":42.7242273,"longitude":-71.4472831,"phone_number_service":"6038880550","phone_number_main":"6038880550","service_hours":"Mo-Fr 07:30 - 17:00 | Sa 08:00-14:00","utc_offset":"-240","gplace_id":null,"gplace_url":"https://maps.google.com/?cid=5803194965150596979","dealerID":76421,"trusted":false,"image_id":"v1597283937/mazda.png","phone":"6038880550","cityStateSlug":"nashua.nh","slug":"Nashua.NH/tulley+mazda","location":"42.7242273,-71.4472831","brandsList":["mazda"]},{"id":6997,"crm_id":100658350,"name":"Irwin Hyundai","dealerSlug":"irwin+hyundai","city_state_slug":"Laconia.NH","brand":"Hyundai","website":"www.irwinhyundai.com","address":"446 Union Ave","city":"Laconia","state":"NH","zip":3246,"latitude":43.5378512,"longitude":-71.4653263,"phone_number_service":"8442029324","phone_number_main":"6035817133","service_hours":"Mo-Fr 07:00 - 18:00 | Sa 08:00 - 17:00","utc_offset":"-240","gplace_id":null,"gplace_url":"https://maps.google.com/?cid=14588636357405274477","dealerID":76520,"trusted":false,"image_id":"v1597283959/hyundai_RM.png","phone":"8442029324","cityStateSlug":"laconia.nh","slug":"Laconia.NH/irwin+hyundai","location":"43.5378512,-71.4653263","brandsList":["hyundai"]},{"id":10573,"crm_id":100664506,"name":"Nashua Hyundai","dealerSlug":"nashua+hyundai","city_state_slug":"Nashua.NH","brand":"Hyundai","website":"www.nashuahyundai.com","address":"140 Daniel Webster Hwy","city":"Nashua","state":"NH","zip":3060,"latitude":42.7266325,"longitude":-71.4455308,"phone_number_service":"8006013756","phone_number_main":"6038913511","service_hours":"Mo 07:30 - 20:00 | Tu 07:30 - 20:00 | We 07:30 - 20:00 | Th 07:30 - 20:00 | Fr 07:30 - 17:00 | Sa 07:30 - 16:00 | Su 08:00 - 16:00","utc_offset":"-240","gplace_id":null,"gplace_url":"https://maps.google.com/?cid=5696812226475697509","dealerID":76526,"trusted":false,"image_id":"v1597283959/hyundai_RM.png","phone":"8006013756","cityStateSlug":"nashua.nh","slug":"Nashua.NH/nashua+hyundai","location":"42.7266325,-71.4455308","brandsList":["hyundai"]},{"id":12453,"crm_id":106922731,"name":"Rochester Toyota","dealerSlug":"rochester+toyota","city_state_slug":"Rochester.NH","brand":"Toyota","website":"www.rochestertoyota.net","address":"48 Farmington Rd","city":"Rochester","state":"NH","zip":3867,"latitude":43.3275877,"longitude":-71.00511,"phone_number_service":"8443065934","phone_number_main":"6033325131","service_hours":"Mo 08:00 - 17:00 | Tu 08:00 - 17:00 | We 08:00 - 17:00 | Th 08:00 - 18:00 | Fr 08:00 - 17:00 | Sa 08:00 - 13:00","utc_offset":"-240","gplace_id":null,"gplace_url":"https://maps.google.com/?cid=2293935968016267076","dealerID":76696,"trusted":false,"image_id":"v1597284039/toyota_ms.png","phone":"8443065934","cityStateSlug":"rochester.nh","slug":"Rochester.NH/rochester+toyota","location":"43.3275877,-71.00511","brandsList":["toyota"]},{"id":14650,"crm_id":112464916,"name":"Tulley BMW of Manchester","dealerSlug":"tulley+bmw+of+manchester","city_state_slug":"Manchester.NH","brand":"BMW","website":"www.tulleybmwmanchester.com","address":"170 Auto Center Rd","city":"Manchester","state":"NH","zip":3103,"latitude":42.95043,"longitude":-71.43706,"phone_number_service":"6036442691","phone_number_main":"6036442691","service_hours":"Mo-Fr 07:30 - 17:00 | Sa 07:30-14:00","utc_offset":"-240","gplace_id":null,"gplace_url":"https://maps.google.com/?cid=13830182312819924977","dealerID":76800,"trusted":false,"image_id":"v1597283982/bmw_RM.png","phone":"6036442691","cityStateSlug":"manchester.nh","slug":"Manchester.NH/tulley+bmw+of+manchester","location":"42.95043,-71.43706","brandsList":["bmw"]},{"id":9523,"crm_id":114214564,"name":"McGee Toyota of Epping","dealerSlug":"mcgee+toyota+of+epping","city_state_slug":"Epping.NH","brand":"Toyota","website":"www.mcgeetoyotaofepping.com","address":"58 Calef Hwy","city":"Epping","state":"NH","zip":3042,"latitude":43.027759,"longitude":-71.075907,"phone_number_service":"8669842771","phone_number_main":"6036931010","service_hours":"Mo 08:00 - 18:00 | Tu 08:00 - 18:00 | We 08:00 - 18:00 | Th 08:00 - 18:00 | Fr 07:30 - 17:00 | Sa 07:30 - 17:00","utc_offset":"-240","gplace_id":null,"gplace_url":"https://maps.google.com/?cid=6598832093614791691","dealerID":76893,"trusted":false,"image_id":"v1597284039/toyota_ms.png","phone":"8669842771","cityStateSlug":"epping.nh","slug":"Epping.NH/mcgee+toyota+of+epping","location":"43.027759,-71.075907","brandsList":["toyota"]},{"id":5744,"crm_id":114287302,"name":"Granite Subaru","dealerSlug":"granite+subaru","city_state_slug":"Hudson.NH","brand":"Subaru","website":"www.granitesubaru.com","address":"193 Lowell Rd","city":"Hudson","state":"NH","zip":3051,"latitude":42.7373477,"longitude":-71.4259821,"phone_number_service":"6035892610","phone_number_main":"6038889999","service_hours":"Mo-Th 07:00 - 18:00 | Fr 07:00 - 17:00 | Sa 08:00 - 15:00","utc_offset":"-240","gplace_id":null,"gplace_url":"https://maps.google.com/?cid=155020463151651219","dealerID":76894,"trusted":false,"image_id":"v1597283982/subaru_ms.png","phone":"6035892610","cityStateSlug":"hudson.nh","slug":"Hudson.NH/granite+subaru","location":"42.7373477,-71.4259821","brandsList":["subaru"]},{"id":10130,"crm_id":114975490,"name":"MINI of Bedford","dealerSlug":"mini+of+bedford","city_state_slug":"Bedford.NH","brand":"Ford","website":"www.minibedford.com","address":"209 S River Rd","city":"Bedford","state":"NH","zip":3110,"latitude":42.9437845,"longitude":-71.4735798,"phone_number_service":"8888032960","phone_number_main":"6036372900","service_hours":"Mo-Fr 07:00 - 18:00","utc_offset":"-240","gplace_id":null,"gplace_url":"https://maps.google.com/?cid=8190218332333018758","dealerID":76950,"trusted":false,"image_id":"v1597283967/ford_RM.png","phone":"8888032960","cityStateSlug":"bedford.nh","slug":"Bedford.NH/mini+of+bedford","location":"42.9437845,-71.4735798","brandsList":["ford"]}]