[{"id":17860,"crm_id":999,"name":"Wild West Ford","dealerSlug":"wild+west+ford","city_state_slug":"Guymon.OK","brand":"Ford","website":"www.wildwestford.com","address":"906 Highway 54 East","city":"Guymon","state":"OK","zip":73942,"latitude":36.687099,"longitude":-101.46816,"phone_number_service":"5803388423","phone_number_main":"","service_hours":"","utc_offset":"","gplace_id":0,"gplace_url":"","dealerID":60169,"trusted":false,"image_id":"v1597283967/ford_RM.png","phone":"5803388423","cityStateSlug":"guymon.ok","slug":"Guymon.OK/wild+west+ford","location":"36.687099,-101.46816","brandsList":["ford"]},{"id":17724,"crm_id":999,"name":"Toyota of Lawton","dealerSlug":"toyota+of+lawton","city_state_slug":"Lawton.OK","brand":"Toyota","website":"www.toyotaoflawton.com","address":"7110 NW Quanah Parker Trailway","city":"Lawton","state":"OK","zip":73505,"latitude":34.630401,"longitude":-98.478334,"phone_number_service":"6268587202","phone_number_main":"","service_hours":"","utc_offset":"","gplace_id":0,"gplace_url":"","dealerID":60191,"trusted":false,"image_id":"v1597284039/toyota_ms.png","phone":"6268587202","cityStateSlug":"lawton.ok","slug":"Lawton.OK/toyota+of+lawton","location":"34.630401,-98.478334","brandsList":["toyota"]},{"id":17614,"crm_id":999,"name":"Stuteville Ford of Tahlequah","dealerSlug":"stuteville+ford+of+tahlequah","city_state_slug":"Tahlequah.OK","brand":"Ford","website":"www.stuteville.net","address":"145 George Guess Road","city":"Tahlequah","state":"OK","zip":74464,"latitude":35.87349,"longitude":-94.975485,"phone_number_service":"9184566143","phone_number_main":"","service_hours":"Mo-Fr 08:00 - 18:00 | Sa 08:00 - 17:00 | Su Closed","utc_offset":"","gplace_id":0,"gplace_url":"","dealerID":60328,"trusted":false,"image_id":"v1597283967/ford_RM.png","phone":"9184566143","cityStateSlug":"tahlequah.ok","slug":"Tahlequah.OK/stuteville+ford+of+tahlequah","location":"35.87349,-94.975485","brandsList":["ford"]},{"id":16760,"crm_id":999,"name":"Jim Glover Chrysler Dodge Jeep RAM FIAT","dealerSlug":"jim+glover+chrysler+dodge+jeep+ram+fiat","city_state_slug":"Owasso.OK","brand":"Chrysler,Dodge,Jeep,RAM,Fiat","website":"www.jimglovercdjrf.net","address":"10505 N Owasso Expy","city":"Owasso","state":"OK","zip":74055,"latitude":36.305082,"longitude":-95.820081,"phone_number_service":"9184014600","phone_number_main":"","service_hours":"Mo-Sa 08:00 - 20:00 | Su Closed","utc_offset":"","gplace_id":0,"gplace_url":"","dealerID":60456,"trusted":false,"image_id":"v1597283975/chrysler_RM.png","phone":"9184014600","cityStateSlug":"owasso.ok","slug":"Owasso.OK/jim+glover+chrysler+dodge+jeep+ram+fiat","location":"36.305082,-95.820081","brandsList":["chrysler","dodge","jeep","ram","fiat"]},{"id":16080,"crm_id":999,"name":"Byford Nissan","dealerSlug":"byford+nissan","city_state_slug":"Elk-City.OK","brand":"Nissan","website":"www.byfordnissan.com","address":"114 ACCESS RD","city":"Elk City","state":"OK","zip":73644,"latitude":35.4210007,"longitude":-99.3952632,"phone_number_service":"5802253344","phone_number_main":"","service_hours":"Mo-Fr 08:00 - 18:00\n | Sa 09:00 - 15:00\n | Su Closed","utc_offset":"","gplace_id":0,"gplace_url":"","dealerID":60518,"trusted":false,"image_id":"v1597283926/nissan_RM.png","phone":"5802253344","cityStateSlug":"elk-city.ok","slug":"Elk-City.OK/byford+nissan","location":"35.4210007,-99.3952632","brandsList":["nissan"]},{"id":16720,"crm_id":999,"name":"James Hodge Hyundai","dealerSlug":"james+hodge+hyundai","city_state_slug":"Muskogee.OK","brand":"Hyundai","website":"www.jameshodgehyundai.com","address":"1330 N Main Street","city":"Muskogee","state":"OK","zip":74401,"latitude":35.7649432,"longitude":-95.3571137,"phone_number_service":"9186873646","phone_number_main":"","service_hours":"Mo-Fr 07:30 - 18:00 | Sa 08:00 - 14:00","utc_offset":"","gplace_id":0,"gplace_url":"","dealerID":60608,"trusted":false,"image_id":"v1597283959/hyundai_RM.png","phone":"9186873646","cityStateSlug":"muskogee.ok","slug":"Muskogee.OK/james+hodge+hyundai","location":"35.7649432,-95.3571137","brandsList":["hyundai"]},{"id":15838,"crm_id":999,"name":"Ardmore Nissan","dealerSlug":"ardmore+nissan","city_state_slug":"Ardmore.OK","brand":"Nissan","website":"www.ardmoreoknissan.com","address":"1625 N ROCKFORD","city":"Ardmore","state":"OK","zip":73401,"latitude":34.1917841,"longitude":-97.1637739,"phone_number_service":"5802231500","phone_number_main":"","service_hours":"Mo-Fr 08:30 - 19:00\n | Sa 08:30 - 17:00\n | Su Closed","utc_offset":"","gplace_id":0,"gplace_url":"","dealerID":60712,"trusted":false,"image_id":"v1597283926/nissan_RM.png","phone":"5802231500","cityStateSlug":"ardmore.ok","slug":"Ardmore.OK/ardmore+nissan","location":"34.1917841,-97.1637739","brandsList":["nissan"]},{"id":17703,"crm_id":999,"name":"Tommy Nix Chrysler Dodge Jeep RAM of Muskogee","dealerSlug":"tommy+nix+chrysler+dodge+jeep+ram+of+muskogee","city_state_slug":"Muskogee.OK","brand":"Chrysler,Dodge,Jeep,RAM","website":"www.tommynixchryslerdodgejeepramofmuskogee.com/","address":"1711 W Shawnee St","city":"Muskogee","state":"OK","zip":74401,"latitude":35.769478,"longitude":-95.385037,"phone_number_service":"9186821240","phone_number_main":"","service_hours":"Mo-Su Closed","utc_offset":"","gplace_id":0,"gplace_url":"","dealerID":60738,"trusted":false,"image_id":"v1597283975/chrysler_RM.png","phone":"9186821240","cityStateSlug":"muskogee.ok","slug":"Muskogee.OK/tommy+nix+chrysler+dodge+jeep+ram+of+muskogee","location":"35.769478,-95.385037","brandsList":["chrysler","dodge","jeep","ram"]},{"id":16124,"crm_id":999,"name":"Charles Allen Ford","dealerSlug":"charles+allen+ford","city_state_slug":"Chickasha.OK","brand":"Ford","website":"www.charlesallenford.com","address":"1717 S Fourth St","city":"Chickasha","state":"OK","zip":73018,"latitude":35.032338,"longitude":-97.934795,"phone_number_service":"8002881770","phone_number_main":"","service_hours":"Mo-Fr 08:30 - 18:00 | Sa 08:30 - 17:00 | Su Closed","utc_offset":"","gplace_id":0,"gplace_url":"","dealerID":60740,"trusted":false,"image_id":"v1597283967/ford_RM.png","phone":"8002881770","cityStateSlug":"chickasha.ok","slug":"Chickasha.OK/charles+allen+ford","location":"35.032338,-97.934795","brandsList":["ford"]},{"id":17888,"crm_id":999,"name":"Woody Motor Co.","dealerSlug":"woody+motor+co","city_state_slug":"Madill.OK","brand":"Ford","website":"www.woodyford.com","address":"201 South 2nd","city":"Madill","state":"OK","zip":73446,"latitude":34.089759,"longitude":-96.770184,"phone_number_service":"5807953323","phone_number_main":"","service_hours":"Mo-Fr 08:00 - 18:00 | Sa 08:00 - 14:00 | Su Closed","utc_offset":"","gplace_id":0,"gplace_url":"","dealerID":60825,"trusted":false,"image_id":"v1597283967/ford_RM.png","phone":"5807953323","cityStateSlug":"madill.ok","slug":"Madill.OK/woody+motor+co","location":"34.089759,-96.770184","brandsList":["ford"]},{"id":17281,"crm_id":999,"name":"Perry's Ford","dealerSlug":"perrys+ford","city_state_slug":"Holdenville.OK","brand":"Ford","website":"","address":"205 East Highway","city":"Holdenville","state":"OK","zip":74848,"latitude":35.086818,"longitude":-96.385813,"phone_number_service":"8883073779","phone_number_main":"","service_hours":"","utc_offset":"","gplace_id":0,"gplace_url":"","dealerID":60845,"trusted":false,"image_id":"v1597283967/ford_RM.png","phone":"8883073779","cityStateSlug":"holdenville.ok","slug":"Holdenville.OK/perrys+ford","location":"35.086818,-96.385813","brandsList":["ford"]},{"id":16079,"crm_id":999,"name":"Byford Cdjr of Fairview","dealerSlug":"byford+cdjr+of+fairview","city_state_slug":"Fairview.OK","brand":"Chrysler,Dodge,Jeep,RAM","website":"www.byfordcdjroffairview.com","address":"2204 Commerce","city":"Fairview","state":"OK","zip":73737,"latitude":36.26892,"longitude":-98.4798,"phone_number_service":"4052240475","phone_number_main":"","service_hours":"Mo-Fr 08:00 - 17:00 | Sa-Su Closed","utc_offset":"","gplace_id":0,"gplace_url":"","dealerID":60902,"trusted":false,"image_id":"v1597283975/chrysler_RM.png","phone":"4052240475","cityStateSlug":"fairview.ok","slug":"Fairview.OK/byford+cdjr+of+fairview","location":"36.26892,-98.4798","brandsList":["chrysler","dodge","jeep","ram"]},{"id":16989,"crm_id":999,"name":"Matthews Chrysler Dodge Jeep RAM","dealerSlug":"matthews+chrysler+dodge+jeep+ram","city_state_slug":"Vinita.OK","brand":"Chrysler,Dodge,Jeep,RAM","website":"","address":"228 S Wilson St","city":"Vinita","state":"OK","zip":18847,"latitude":36.635542,"longitude":-95.156148,"phone_number_service":"9182566455","phone_number_main":"","service_hours":"Mo-Su Closed","utc_offset":"","gplace_id":0,"gplace_url":"","dealerID":60924,"trusted":false,"image_id":"v1597283975/chrysler_RM.png","phone":"9182566455","cityStateSlug":"vinita.ok","slug":"Vinita.OK/matthews+chrysler+dodge+jeep+ram","location":"36.635542,-95.156148","brandsList":["chrysler","dodge","jeep","ram"]},{"id":17338,"crm_id":999,"name":"Quality Ford","dealerSlug":"quality+ford","city_state_slug":"Cushing.OK","brand":"Ford","website":"www.qualityfordok.net","address":"2300 E Main","city":"Cushing","state":"OK","zip":74023,"latitude":35.985933,"longitude":-96.734872,"phone_number_service":"9182253807","phone_number_main":"","service_hours":"Mo-Fr 08:00 - 18:00 | Sa 08:00 - 15:00 | Su Closed","utc_offset":"","gplace_id":0,"gplace_url":"","dealerID":60930,"trusted":false,"image_id":"v1597283967/ford_RM.png","phone":"9182253807","cityStateSlug":"cushing.ok","slug":"Cushing.OK/quality+ford","location":"35.985933,-96.734872","brandsList":["ford"]},{"id":16844,"crm_id":999,"name":"Kyle Edwards Auto Group","dealerSlug":"kyle+edwards+auto+group","city_state_slug":"Checotah.OK","brand":"Chrysler,Dodge,Jeep,RAM","website":"www.kyleedwardschryslerdodgejeepram.com","address":"2307 Business Hwy 69 South","city":"Checotah","state":"OK","zip":74426,"latitude":35.498235,"longitude":-95.52219,"phone_number_service":"9184732214","phone_number_main":"","service_hours":"Mo-Tu 08:00 - 19:00 | We 08:00 - 18:00 | Th-Sa 08:00 - 19:00 | Su Closed","utc_offset":"","gplace_id":0,"gplace_url":"","dealerID":60934,"trusted":false,"image_id":"v1597283975/chrysler_RM.png","phone":"9184732214","cityStateSlug":"checotah.ok","slug":"Checotah.OK/kyle+edwards+auto+group","location":"35.498235,-95.52219","brandsList":["chrysler","dodge","jeep","ram"]},{"id":16446,"crm_id":999,"name":"Freedom Chrysler Dodge Jeep RAM FIAT By Ed Morse","dealerSlug":"freedom+chrysler+dodge+jeep+ram+fiat+by+ed+morse","city_state_slug":"Durant.OK","brand":"Chrysler,Dodge,Jeep,RAM,Fiat","website":"www.freedomchryslerdodgejeepramfiat.com/","address":"2516 W University Blvd","city":"Durant","state":"OK","zip":74701,"latitude":34.005056,"longitude":-96.401911,"phone_number_service":"5809247500","phone_number_main":"","service_hours":"Mo-Fr 08:30 - 19:00 | Sa 08:30 - 18:00 | Su Closed","utc_offset":"","gplace_id":0,"gplace_url":"","dealerID":60975,"trusted":false,"image_id":"v1597283975/chrysler_RM.png","phone":"5809247500","cityStateSlug":"durant.ok","slug":"Durant.OK/freedom+chrysler+dodge+jeep+ram+fiat+by+ed+morse","location":"34.005056,-96.401911","brandsList":["chrysler","dodge","jeep","ram","fiat"]},{"id":17613,"crm_id":999,"name":"Stuteville Chrysler Dodge Jeep RAM","dealerSlug":"stuteville+chrysler+dodge+jeep+ram","city_state_slug":"Poteau.OK","brand":"Chrysler,Dodge,Jeep,RAM","website":"www.stutevillepoteaucdjr.com","address":"3001 N Broadway St","city":"Poteau","state":"OK","zip":74953,"latitude":35.083735,"longitude":-94.630009,"phone_number_service":"9186473183","phone_number_main":"","service_hours":"Mo-Fr 08:15 - 18:00 | Sa 08:15 - 16:00 | Su Closed","utc_offset":"","gplace_id":0,"gplace_url":"","dealerID":61077,"trusted":false,"image_id":"v1597283975/chrysler_RM.png","phone":"9186473183","cityStateSlug":"poteau.ok","slug":"Poteau.OK/stuteville+chrysler+dodge+jeep+ram","location":"35.083735,-94.630009","brandsList":["chrysler","dodge","jeep","ram"]},{"id":17199,"crm_id":999,"name":"Nix Chrysler Dodge Jeep RAM","dealerSlug":"nix+chrysler+dodge+jeep+ram","city_state_slug":"Tahlequah.OK","brand":"Chrysler,Dodge,Jeep,RAM","website":"www.nixchryslerdodgejeepram.com","address":"3001 South Muskogee","city":"Tahlequah","state":"OK","zip":74464,"latitude":35.890037,"longitude":-94.977302,"phone_number_service":"9184562541","phone_number_main":"","service_hours":"Mo-Tu 08:00 - 19:00 | We 08:00 - 18:00 | Th-Fr 08:00 - 19:00 | Sa 08:00 - 18:00 | Su Closed","utc_offset":"","gplace_id":0,"gplace_url":"","dealerID":61078,"trusted":false,"image_id":"v1597283975/chrysler_RM.png","phone":"9184562541","cityStateSlug":"tahlequah.ok","slug":"Tahlequah.OK/nix+chrysler+dodge+jeep+ram","location":"35.890037,-94.977302","brandsList":["chrysler","dodge","jeep","ram"]},{"id":17612,"crm_id":999,"name":"Stuart Nissan","dealerSlug":"stuart+nissan","city_state_slug":"Enid.OK","brand":"Nissan","website":"www.stuartnissanofenid.com","address":"301 N INDEPENDENCE ST","city":"Enid","state":"OK","zip":73701,"latitude":36.399002,"longitude":-97.879919,"phone_number_service":"5802375616","phone_number_main":"","service_hours":"Mo-Fr 07:30 - 18:30\n | Sa 09:00 - 17:00\n | Su Closed","utc_offset":"","gplace_id":0,"gplace_url":"","dealerID":61081,"trusted":false,"image_id":"v1597283926/nissan_RM.png","phone":"5802375616","cityStateSlug":"enid.ok","slug":"Enid.OK/stuart+nissan","location":"36.399002,-97.879919","brandsList":["nissan"]},{"id":17003,"crm_id":999,"name":"McKay Ford Lincoln","dealerSlug":"mckay+ford+lincoln","city_state_slug":"Woodward.OK","brand":"Ford,Lincoln","website":"www.mckayford.com","address":"3119 Williams Avenue","city":"Woodward","state":"OK","zip":73801,"latitude":36.414423,"longitude":-99.381895,"phone_number_service":"5802566465","phone_number_main":"","service_hours":"Mo-Fr 08:00 - 18:30 | Sa 08:00 - 15:00 | Su Closed","utc_offset":"","gplace_id":0,"gplace_url":"","dealerID":61119,"trusted":false,"image_id":"v1597283967/ford_RM.png","phone":"5802566465","cityStateSlug":"woodward.ok","slug":"Woodward.OK/mckay+ford+lincoln","location":"36.414423,-99.381895","brandsList":["ford","lincoln"]},{"id":16433,"crm_id":999,"name":"Fowler Ford","dealerSlug":"fowler+ford","city_state_slug":"Tulsa.OK","brand":"Ford","website":"www.fowlerfordtulsa.net","address":"3400 South Sheridan","city":"Tulsa","state":"OK","zip":74145,"latitude":36.113824,"longitude":-95.904722,"phone_number_service":"9183466500","phone_number_main":"","service_hours":"Mo-Sa 08:30 - 21:00 | Su Closed","utc_offset":"","gplace_id":0,"gplace_url":"","dealerID":61161,"trusted":false,"image_id":"v1597283967/ford_RM.png","phone":"9183466500","cityStateSlug":"tulsa.ok","slug":"Tulsa.OK/fowler+ford","location":"36.113824,-95.904722","brandsList":["ford"]},{"id":17775,"crm_id":999,"name":"Vance Chrysler Dodge Jeep RAM","dealerSlug":"vance+chrysler+dodge+jeep+ram","city_state_slug":"Miami.OK","brand":"Chrysler,Dodge,Jeep,RAM","website":"www.vancechryslerdodgejeepram.com","address":"3606 Highway 10 East","city":"Miami","state":"OK","zip":74354,"latitude":36.859219,"longitude":-94.913574,"phone_number_service":"9185424424","phone_number_main":"","service_hours":"Mo-Fr 08:00 - 19:00 | Sa 08:30 - 18:00 | Su Closed","utc_offset":"","gplace_id":0,"gplace_url":"","dealerID":61195,"trusted":false,"image_id":"v1597283975/chrysler_RM.png","phone":"9185424424","cityStateSlug":"miami.ok","slug":"Miami.OK/vance+chrysler+dodge+jeep+ram","location":"36.859219,-94.913574","brandsList":["chrysler","dodge","jeep","ram"]},{"id":16238,"crm_id":999,"name":"Cummins Ford","dealerSlug":"cummins+ford","city_state_slug":"Weatherford.OK","brand":"Ford","website":"www.cumminsfordweatherford.com","address":"4000 Carriage Way","city":"Weatherford","state":"OK","zip":73096,"latitude":35.533901,"longitude":-98.658232,"phone_number_service":"5807723319","phone_number_main":"","service_hours":"Mo-Fr 08:00 - 18:00 | Sa 08:00 - 15:00 | Su Closed","utc_offset":"","gplace_id":0,"gplace_url":"","dealerID":61237,"trusted":false,"image_id":"v1597283967/ford_RM.png","phone":"5807723319","cityStateSlug":"weatherford.ok","slug":"Weatherford.OK/cummins+ford","location":"35.533901,-98.658232","brandsList":["ford"]},{"id":15964,"crm_id":999,"name":"Bill Knight Ford of Stillwater","dealerSlug":"bill+knight+ford+of+stillwater","city_state_slug":"Stillwater.OK","brand":"Ford","website":"www.Billknightfordofstillwater.com","address":"4405 W. 6th Avenue","city":"Stillwater","state":"OK","zip":74074,"latitude":36.115525,"longitude":-97.116754,"phone_number_service":"4053727144","phone_number_main":"","service_hours":"Mo-Fr 08:30 - 19:00 | Sa 08:30 - 17:00 | Su Closed","utc_offset":"","gplace_id":0,"gplace_url":"","dealerID":61303,"trusted":false,"image_id":"v1597283967/ford_RM.png","phone":"4053727144","cityStateSlug":"stillwater.ok","slug":"Stillwater.OK/bill+knight+ford+of+stillwater","location":"36.115525,-97.116754","brandsList":["ford"]},{"id":16019,"crm_id":999,"name":"Bob Moore Chrysler Dodge Jeep RAM of Tulsa","dealerSlug":"bob+moore+chrysler+dodge+jeep+ram+of+tulsa","city_state_slug":"Tulsa.OK","brand":"Chrysler,Dodge,Jeep,RAM","website":"www.chryslerdodgejeepramoftulsa.com","address":"4627 S Memorial Dr","city":"Tulsa","state":"OK","zip":74145,"latitude":36.096774,"longitude":-95.885312,"phone_number_service":"9186636343","phone_number_main":"","service_hours":"Mo-Sa 10:00 - 18:00 | Su Closed","utc_offset":"","gplace_id":0,"gplace_url":"","dealerID":61316,"trusted":false,"image_id":"v1597283975/chrysler_RM.png","phone":"9186636343","cityStateSlug":"tulsa.ok","slug":"Tulsa.OK/bob+moore+chrysler+dodge+jeep+ram+of+tulsa","location":"36.096774,-95.885312","brandsList":["chrysler","dodge","jeep","ram"]},{"id":15972,"crm_id":999,"name":"Billingsley Ford of Duncan","dealerSlug":"billingsley+ford+of+duncan","city_state_slug":"Duncan.OK","brand":"Ford","website":"www.billingsleyfordduncan.com","address":"4645 N 81 Hwy","city":"Duncan","state":"OK","zip":73533,"latitude":34.546047,"longitude":-97.966974,"phone_number_service":"8008505501","phone_number_main":"","service_hours":"Mo-Fr 08:00 - 18:00 | Sa 09:00 - 17:00 | Su Closed","utc_offset":"","gplace_id":0,"gplace_url":"","dealerID":61318,"trusted":false,"image_id":"v1597283967/ford_RM.png","phone":"8008505501","cityStateSlug":"duncan.ok","slug":"Duncan.OK/billingsley+ford+of+duncan","location":"34.546047,-97.966974","brandsList":["ford"]},{"id":15822,"crm_id":999,"name":"Allen Samuels Volkswagen","dealerSlug":"allen+samuels+volkswagen","city_state_slug":"Oklahoma-City.OK","brand":"Volkswagen","website":"allensamuelsvw.com","address":"5 E Memorial Rd","city":"Oklahoma City","state":"OK","zip":73114,"latitude":35.6096,"longitude":-97.5143,"phone_number_service":"8149444517","phone_number_main":"","service_hours":"Mo-Fr 08:30 - 20:00 | Sa 08:30 - 19:00 | Su Closed","utc_offset":"","gplace_id":0,"gplace_url":"","dealerID":61340,"trusted":false,"image_id":"v1597283902/volkswagen.png","phone":"8149444517","cityStateSlug":"oklahoma-city.ok","slug":"Oklahoma-City.OK/allen+samuels+volkswagen","location":"35.6096,-97.5143","brandsList":["volkswagen"]},{"id":17514,"crm_id":999,"name":"Seth Wadley Ford Perry","dealerSlug":"seth+wadley+ford+perry","city_state_slug":"Perry.OK","brand":"Ford","website":"www.sethwadleyfordperry.net","address":"520 Delaware","city":"Perry","state":"OK","zip":73077,"latitude":36.287247,"longitude":-97.28482,"phone_number_service":"5807103090","phone_number_main":"","service_hours":"Mo-Fr 08:00 - 17:00 | Sa-Su Closed","utc_offset":"","gplace_id":0,"gplace_url":"","dealerID":61376,"trusted":false,"image_id":"v1597283967/ford_RM.png","phone":"5807103090","cityStateSlug":"perry.ok","slug":"Perry.OK/seth+wadley+ford+perry","location":"36.287247,-97.28482","brandsList":["ford"]},{"id":16778,"crm_id":999,"name":"John Vance Motors","dealerSlug":"john+vance+motors","city_state_slug":"Guthrie.OK","brand":"Chrysler,Dodge,Jeep,RAM","website":"www.johnvancemotors.net","address":"5302 S Division St","city":"Guthrie","state":"OK","zip":73044,"latitude":35.82344,"longitude":-97.420392,"phone_number_service":"4052822113","phone_number_main":"","service_hours":"Mo-Fr 08:00 - 20:00 | Sa 08:00 - 19:00 | Su Closed","utc_offset":"","gplace_id":0,"gplace_url":"","dealerID":61387,"trusted":false,"image_id":"v1597283975/chrysler_RM.png","phone":"4052822113","cityStateSlug":"guthrie.ok","slug":"Guthrie.OK/john+vance+motors","location":"35.82344,-97.420392","brandsList":["chrysler","dodge","jeep","ram"]},{"id":16434,"crm_id":999,"name":"Fowler's I-240 Chrysler Jeep Dodge","dealerSlug":"fowlers+i+240+chrysler+jeep+dodge","city_state_slug":"Oklahoma-City.OK","brand":"Chrysler,Dodge,Jeep,RAM","website":"www.fowlerdodge.net","address":"55 West Interstate 240","city":"Oklahoma City","state":"OK","zip":73139,"latitude":35.392186,"longitude":-97.512512,"phone_number_service":"4056163634","phone_number_main":"","service_hours":"Mo-Sa 08:30 - 21:00 | Su Closed","utc_offset":"","gplace_id":0,"gplace_url":"","dealerID":61398,"trusted":false,"image_id":"v1597283975/chrysler_RM.png","phone":"4056163634","cityStateSlug":"oklahoma-city.ok","slug":"Oklahoma-City.OK/fowlers+i+240+chrysler+jeep+dodge","location":"35.392186,-97.512512","brandsList":["chrysler","dodge","jeep","ram"]},{"id":16016,"crm_id":999,"name":"Bob Howard Hyundai","dealerSlug":"bob+howard+hyundai","city_state_slug":"Oklahoma-City.OK","brand":"Hyundai","website":"www.bobhowardhyundai.com","address":"613 Sw 74Th Street","city":"Oklahoma City","state":"OK","zip":73139,"latitude":35.3926068,"longitude":-97.5245705,"phone_number_service":"4056348900","phone_number_main":"","service_hours":"Mo-Sa 07:00 - 18:00","utc_offset":"","gplace_id":0,"gplace_url":"","dealerID":61451,"trusted":false,"image_id":"v1597283959/hyundai_RM.png","phone":"4056348900","cityStateSlug":"oklahoma-city.ok","slug":"Oklahoma-City.OK/bob+howard+hyundai","location":"35.3926068,-97.5245705","brandsList":["hyundai"]},{"id":16108,"crm_id":999,"name":"Carter County Hyundai","dealerSlug":"carter+county+hyundai","city_state_slug":"Ardmore.OK","brand":"Hyundai","website":"www.cartercountyhyundai.com","address":"616 Holiday Drive","city":"Ardmore","state":"OK","zip":73401,"latitude":34.1823487,"longitude":-97.1657378,"phone_number_service":"5803194949","phone_number_main":"","service_hours":"Mo-Fr 07:30 - 17:00 | Sa 08:00 - 15:00","utc_offset":"","gplace_id":0,"gplace_url":"","dealerID":61455,"trusted":false,"image_id":"v1597283959/hyundai_RM.png","phone":"5803194949","cityStateSlug":"ardmore.ok","slug":"Ardmore.OK/carter+county+hyundai","location":"34.1823487,-97.1657378","brandsList":["hyundai"]},{"id":16381,"crm_id":999,"name":"Eufaula Ford","dealerSlug":"eufaula+ford","city_state_slug":"Eufaula.OK","brand":"Ford","website":"www.eufaulafordinc.com","address":"6th And Selmon Road","city":"Eufaula","state":"OK","zip":74432,"latitude":35.292257,"longitude":-95.589974,"phone_number_service":"9186897767","phone_number_main":"","service_hours":"Mo-Fr 08:00 - 18:00 | Sa 08:00 - 16:00 | Su Closed","utc_offset":"","gplace_id":0,"gplace_url":"","dealerID":61512,"trusted":false,"image_id":"v1597283967/ford_RM.png","phone":"9186897767","cityStateSlug":"eufaula.ok","slug":"Eufaula.OK/eufaula+ford","location":"35.292257,-95.589974","brandsList":["ford"]},{"id":17388,"crm_id":999,"name":"Reynolds Ford of OKC","dealerSlug":"reynolds+ford+of+okc","city_state_slug":"Oklahoma-City.OK","brand":"Ford","website":"www.myreynoldsfordofokc.com","address":"7320 NW Expressway","city":"Oklahoma City","state":"OK","zip":73132,"latitude":35.559913,"longitude":-97.643325,"phone_number_service":"8777282411","phone_number_main":"","service_hours":"Mo-Fr 08:00 - 21:00 | Sa 08:30 - 20:00 | Su Closed","utc_offset":"","gplace_id":0,"gplace_url":"","dealerID":61541,"trusted":false,"image_id":"v1597283967/ford_RM.png","phone":"8777282411","cityStateSlug":"oklahoma-city.ok","slug":"Oklahoma-City.OK/reynolds+ford+of+okc","location":"35.559913,-97.643325","brandsList":["ford"]},{"id":16318,"crm_id":999,"name":"Doug Gray Ford","dealerSlug":"doug+gray+ford","city_state_slug":"Sayre.OK","brand":"Ford","website":"www.douggrayford.com","address":"800 N.E. Highway 66","city":"Sayre","state":"OK","zip":73662,"latitude":35.310971,"longitude":-99.628481,"phone_number_service":"5809283369","phone_number_main":"","service_hours":"Mo-Fr 08:00 - 18:00 | Sa 08:00 - 16:00 | Su Closed","utc_offset":"","gplace_id":0,"gplace_url":"","dealerID":61580,"trusted":false,"image_id":"v1597283967/ford_RM.png","phone":"5809283369","cityStateSlug":"sayre.ok","slug":"Sayre.OK/doug+gray+ford","location":"35.310971,-99.628481","brandsList":["ford"]},{"id":15973,"crm_id":999,"name":"Billingsley Ford of Lawton","dealerSlug":"billingsley+ford+of+lawton","city_state_slug":"Lawton.OK","brand":"Ford","website":"www.billingsleyfordoflawton.net","address":"8209 NW Quanah Parker Trailway","city":"Lawton","state":"OK","zip":73505,"latitude":34.631434,"longitude":-98.493148,"phone_number_service":"5805363325","phone_number_main":"","service_hours":"Mo-Fr 09:00 - 19:00 | Sa 09:00 - 18:00 | Su Closed","utc_offset":"","gplace_id":0,"gplace_url":"","dealerID":61614,"trusted":false,"image_id":"v1597283967/ford_RM.png","phone":"5805363325","cityStateSlug":"lawton.ok","slug":"Lawton.OK/billingsley+ford+of+lawton","location":"34.631434,-98.493148","brandsList":["ford"]},{"id":17192,"crm_id":999,"name":"Nissan Of Muskogee","dealerSlug":"nissan+of+muskogee","city_state_slug":"Muskogee.OK","brand":"Nissan","website":"www.nissanofmuskogee.com","address":"841 N MAIN ST","city":"Muskogee","state":"OK","zip":74401,"latitude":35.7579981,"longitude":-95.3640211,"phone_number_service":"9186836605","phone_number_main":"","service_hours":"Mo-Fr 08:30 - 20:00\n | Sa 08:30 - 19:00\n | Su Closed","utc_offset":"","gplace_id":0,"gplace_url":"","dealerID":61624,"trusted":false,"image_id":"v1597283926/nissan_RM.png","phone":"9186836605","cityStateSlug":"muskogee.ok","slug":"Muskogee.OK/nissan+of+muskogee","location":"35.7579981,-95.3640211","brandsList":["nissan"]},{"id":16228,"crm_id":999,"name":"Crown Auto World Bristow","dealerSlug":"crown+auto+world+bristow","city_state_slug":"Bristow.OK","brand":"Chrysler,Dodge,Jeep,RAM","website":"www.crownautoworldbristow.com","address":"901 S Roland St","city":"Bristow","state":"OK","zip":74010,"latitude":35.825481,"longitude":-96.400941,"phone_number_service":"9183673423","phone_number_main":"","service_hours":"Mo-Fr 08:00 - 19:00 | Sa 08:00 - 17:00 | Su Closed","utc_offset":"","gplace_id":0,"gplace_url":"","dealerID":61666,"trusted":false,"image_id":"v1597283975/chrysler_RM.png","phone":"9183673423","cityStateSlug":"bristow.ok","slug":"Bristow.OK/crown+auto+world+bristow","location":"35.825481,-96.400941","brandsList":["chrysler","dodge","jeep","ram"]},{"id":16702,"crm_id":999,"name":"Jackie Cooper Imports","dealerSlug":"jackie+cooper+imports","city_state_slug":"Tulsa.OK","brand":"Mercedes-Benz","website":"www.cooper.mercedesdealer.com","address":"9393 S. Memorial","city":"Tulsa","state":"OK","zip":73013,"latitude":36.02445,"longitude":-95.886399,"phone_number_service":"9182499393","phone_number_main":"8888704024","service_hours":"","utc_offset":"","gplace_id":0,"gplace_url":"","dealerID":61690,"trusted":false,"image_id":"v1597283934/mercedes_RM.png","phone":"9182499393","cityStateSlug":"tulsa.ok","slug":"Tulsa.OK/jackie+cooper+imports","location":"36.02445,-95.886399","brandsList":["mercedes-benz"]},{"id":17077,"crm_id":999,"name":"Mike Bailey Motors Incorporated","dealerSlug":"mike+bailey+motors+incorporated","city_state_slug":"Henryetta.OK","brand":"Chrysler,Dodge,Jeep,RAM","website":"www.mikebaileymotors.net","address":"Industry And Highway 75","city":"Henryetta","state":"OK","zip":74437,"latitude":35.442932,"longitude":-95.973416,"phone_number_service":"9186529637","phone_number_main":"","service_hours":"Mo-Fr 08:00 - 18:00 | Sa 08:00 - 14:00 | Su Closed","utc_offset":"","gplace_id":0,"gplace_url":"","dealerID":61734,"trusted":false,"image_id":"v1597283975/chrysler_RM.png","phone":"9186529637","cityStateSlug":"henryetta.ok","slug":"Henryetta.OK/mike+bailey+motors+incorporated","location":"35.442932,-95.973416","brandsList":["chrysler","dodge","jeep","ram"]},{"id":15882,"crm_id":999,"name":"Audi Oklahoma City","dealerSlug":"audi+oklahoma+city","city_state_slug":"Oklahoma-City.OK","brand":"Audi","website":"www.audioklahomacity.com","address":"North Broadway Extension 13000","city":"Oklahoma City","state":"OK","zip":73114,"latitude":35.6016,"longitude":-97.5007,"phone_number_service":"6129612834","phone_number_main":"","service_hours":"Mo-Sa 10:00 - 18:00","utc_offset":"","gplace_id":0,"gplace_url":"","dealerID":61745,"trusted":false,"image_id":"v1597283985/audi_RM.png","phone":"6129612834","cityStateSlug":"oklahoma-city.ok","slug":"Oklahoma-City.OK/audi+oklahoma+city","location":"35.6016,-97.5007","brandsList":["audi"]},{"id":4569,"crm_id":50460931,"name":"Eskridge Honda","dealerSlug":"eskridge+honda","city_state_slug":"Oklahoma-City.OK","brand":"Honda","website":"www.eskridgehonda.com","address":"1030 SW 74TH ST","city":"Oklahoma City","state":"OK","zip":73139,"latitude":35.390597,"longitude":-97.534624,"phone_number_service":"4056314444","phone_number_main":"4056314444","service_hours":"Mo-Fr 07:00 - 18:00 | Sa 07:30-13:00","utc_offset":"-300","gplace_id":null,"gplace_url":"https://maps.google.com/?cid=12653049964658572316","dealerID":61803,"trusted":false,"image_id":"v1597284047/honda_ms.png","phone":"4056314444","cityStateSlug":"oklahoma-city.ok","slug":"Oklahoma-City.OK/eskridge+honda","location":"35.390597,-97.534624","brandsList":["honda"]},{"id":13811,"crm_id":51925426,"name":"Suburban Chevrolet","dealerSlug":"suburban+chevrolet","city_state_slug":"Claremore.OK","brand":"Chevrolet","website":"www.claremorechevy.com","address":"1300 S Lynn Riggs Blvd","city":"Claremore","state":"OK","zip":74017,"latitude":36.297289,"longitude":-95.6268202,"phone_number_service":"9189230125","phone_number_main":"8888633082","service_hours":"Mo-Fr 07:00 - 18:00 | Sa 08:30 - 14:00","utc_offset":"-300","gplace_id":null,"gplace_url":"https://maps.google.com/?cid=1181517610541661043","dealerID":61961,"trusted":false,"image_id":"v1597284079/chevy_ms.png","phone":"9189230125","cityStateSlug":"claremore.ok","slug":"Claremore.OK/suburban+chevrolet","location":"36.297289,-95.6268202","brandsList":["chevrolet"]},{"id":3011,"crm_id":51925636,"name":"Classic Chevrolet Owasso","dealerSlug":"classic+chevrolet+owasso","city_state_slug":"Owasso.OK","brand":"Chevrolet","website":"www.classicchevrolet.net","address":"8501 N Owasso Expy","city":"Owasso","state":"OK","zip":74055,"latitude":36.2767463,"longitude":-95.8468687,"phone_number_service":"9189289192","phone_number_main":"8889816002","service_hours":"Mo-Fr 07:00 - 18:00 | Sa 07:00 - 16:00","utc_offset":"-300","gplace_id":null,"gplace_url":"https://maps.google.com/?cid=9014704036783329055","dealerID":62005,"trusted":false,"image_id":"v1597284079/chevy_ms.png","phone":"9189289192","cityStateSlug":"owasso.ok","slug":"Owasso.OK/classic+chevrolet+owasso","location":"36.2767463,-95.8468687","brandsList":["chevrolet"]},{"id":7416,"crm_id":51927343,"name":"Jim Norton Toyota","dealerSlug":"jim+norton+toyota","city_state_slug":"Tulsa.OK","brand":"Toyota","website":"www.jimnortontoyota.com","address":"9809 South Memorial","city":"Tulsa","state":"OK","zip":74133,"latitude":36.0211719,"longitude":-95.8855312,"phone_number_service":"9182153820","phone_number_main":"9182153786","service_hours":"Mo-Fr 07:00 - 18:00 | Sa 07:00 - 17:30","utc_offset":"-300","gplace_id":null,"gplace_url":"https://maps.google.com/?cid=2338879938376082067","dealerID":62197,"trusted":false,"image_id":"v1597284039/toyota_ms.png","phone":"9182153820","cityStateSlug":"tulsa.ok","slug":"Tulsa.OK/jim+norton+toyota","location":"36.0211719,-95.8855312","brandsList":["toyota"]},{"id":6585,"crm_id":67032052,"name":"Honda of Bartlesville","dealerSlug":"honda+of+bartlesville","city_state_slug":"Bartlesville.OK","brand":"Honda","website":"www.bartlesvillehonda.com","address":"3210 SE Washington Blvd","city":"Bartlesville","state":"OK","zip":74006,"latitude":36.701106,"longitude":-95.9339499,"phone_number_service":"9182130558","phone_number_main":"9183333333","service_hours":"Mo-Fr 07:00 - 18:00 | Sa 07:00 - 15:00","utc_offset":"-300","gplace_id":null,"gplace_url":"https://maps.google.com/?cid=15946622063611786628","dealerID":62769,"trusted":false,"image_id":"v1597284047/honda_ms.png","phone":"9182130558","cityStateSlug":"bartlesville.ok","slug":"Bartlesville.OK/honda+of+bartlesville","location":"36.701106,-95.9339499","brandsList":["honda"]},{"id":9918,"crm_id":67032367,"name":"Miami Chevy Buick GMC","dealerSlug":"miami+chevy+buick+gmc","city_state_slug":"Miami.OK","brand":"Buick,GMC","website":"www.miamichevybuickgmc.com","address":"1601 N Main St","city":"Miami","state":"OK","zip":74354,"latitude":36.8925945,"longitude":-94.8784692,"phone_number_service":"9182382981","phone_number_main":"9186154581","service_hours":"Mo-Fr 07:00 - 18:00 | Sa 07:00 - 17:00","utc_offset":"-300","gplace_id":null,"gplace_url":"https://maps.google.com/?cid=7634662685315976451","dealerID":62859,"trusted":false,"image_id":"v1597283981/buick_RM.png","phone":"9182382981","cityStateSlug":"miami.ok","slug":"Miami.OK/miami+chevy+buick+gmc","location":"36.8925945,-94.8784692","brandsList":["buick","gmc"]},{"id":1073,"crm_id":67032505,"name":"Battison Honda","dealerSlug":"battison+honda","city_state_slug":"Oklahoma-City.OK","brand":"Honda","website":"www.battisonhonda.com","address":"8700 Northwest Expy","city":"Oklahoma City","state":"OK","zip":73162,"latitude":35.5697849,"longitude":-97.6685975,"phone_number_service":"4054955800","phone_number_main":"4054955800","service_hours":"Mo-Fr 07:00 - 19:00 | Sa 08:00 - 16:00","utc_offset":"-300","gplace_id":null,"gplace_url":"https://maps.google.com/?cid=6047344059623746260","dealerID":50975,"trusted":true,"image_id":"v1597284047/honda_ms.png","phone":"4054955800","cityStateSlug":"oklahoma-city.ok","slug":"Oklahoma-City.OK/battison+honda","location":"35.5697849,-97.6685975","brandsList":["honda"]},{"id":10770,"crm_id":67032751,"name":"Nix Auto Center","dealerSlug":"nix+auto+center","city_state_slug":"McAlester.OK","brand":"Buick,Chevrolet,GMC","website":"www.nixauto-center.com","address":"700 S George Nigh Expy","city":"McAlester","state":"OK","zip":74501,"latitude":34.9122653,"longitude":-95.7440623,"phone_number_service":"9183029462","phone_number_main":"9183234382","service_hours":"Mo-Fr 07:30 - 17:00 | Sa 07:30 - 12:00","utc_offset":"-300","gplace_id":null,"gplace_url":"https://maps.google.com/?cid=3000943355677968856","dealerID":62967,"trusted":false,"image_id":"v1597283981/buick_RM.png","phone":"9183029462","cityStateSlug":"mcalester.ok","slug":"McAlester.OK/nix+auto+center","location":"34.9122653,-95.7440623","brandsList":["buick","chevrolet","gmc"]},{"id":1960,"crm_id":67033204,"name":"Boeckman Ford","dealerSlug":"boeckman+ford","city_state_slug":"Kingfisher.OK","brand":"Ford","website":"www.boeckmanford.net","address":"2200 US-81","city":"Kingfisher","state":"OK","zip":73750,"latitude":35.823409,"longitude":-97.9359565,"phone_number_service":"8779578398","phone_number_main":"4053754134","service_hours":"Mo-Fr 07:30 - 17:30 | Sa 08:00 - 12:00","utc_offset":"-300","gplace_id":null,"gplace_url":"https://maps.google.com/?cid=14097854452135076977","dealerID":63093,"trusted":false,"image_id":"v1597283967/ford_RM.png","phone":"8779578398","cityStateSlug":"kingfisher.ok","slug":"Kingfisher.OK/boeckman+ford","location":"35.823409,-97.9359565","brandsList":["ford"]},{"id":13025,"crm_id":67033447,"name":"Seminole Chevrolet Buick GMC","dealerSlug":"seminole+chevrolet+buick+gmc","city_state_slug":"Seminole.OK","brand":"Buick,Chevrolet,GMC","website":"www.seminolegm.com/","address":"1405 N Milt Phillips Ave","city":"Seminole","state":"OK","zip":74868,"latitude":35.236945,"longitude":-96.672233,"phone_number_service":"4052548475","phone_number_main":"4053826130","service_hours":"Mo-Fr 08:00 - 17:00 | Sa 08:00 - 12:00","utc_offset":"-300","gplace_id":null,"gplace_url":"https://maps.google.com/?cid=5092506271733438620","dealerID":63161,"trusted":false,"image_id":"v1597283981/buick_RM.png","phone":"4052548475","cityStateSlug":"seminole.ok","slug":"Seminole.OK/seminole+chevrolet+buick+gmc","location":"35.236945,-96.672233","brandsList":["buick","chevrolet","gmc"]},{"id":1875,"crm_id":67034125,"name":"Bob Moore Cadillac of Norman","dealerSlug":"bob+moore+cadillac+of+norman","city_state_slug":"Norman.OK","brand":"Cadillac","website":"www.bobmoorecadillacnorman.com","address":"6400 N Interstate Dr","city":"Norman","state":"OK","zip":73072,"latitude":35.2957095,"longitude":-97.4906246,"phone_number_service":"8006955853","phone_number_main":"4053292222","service_hours":"Mo-Fr 07:30 - 18:00 | Sa 07:30 - 16:00","utc_offset":"-300","gplace_id":null,"gplace_url":"https://maps.google.com/?cid=16167621217935070587","dealerID":63348,"trusted":false,"image_id":"v1597283980/cadillac.png","phone":"8006955853","cityStateSlug":"norman.ok","slug":"Norman.OK/bob+moore+cadillac+of+norman","location":"35.2957095,-97.4906246","brandsList":["cadillac"]},{"id":14429,"crm_id":67034257,"name":"Toyota of Ardmore","dealerSlug":"toyota+of+ardmore","city_state_slug":"Ardmore.OK","brand":"Toyota","website":"www.toyotaofardmore.com","address":"402 Holiday Dr","city":"Ardmore","state":"OK","zip":73401,"latitude":34.1806486,"longitude":-97.1655158,"phone_number_service":"8448467611","phone_number_main":"5802261313","service_hours":"Mo-Fr 07:30 - 17:30 | Sa 08:00-17:30","utc_offset":"-300","gplace_id":null,"gplace_url":"https://maps.google.com/?cid=7032335711538582079","dealerID":63383,"trusted":false,"image_id":"v1597284039/toyota_ms.png","phone":"8448467611","cityStateSlug":"ardmore.ok","slug":"Ardmore.OK/toyota+of+ardmore","location":"34.1806486,-97.1655158","brandsList":["toyota"]},{"id":8321,"crm_id":67034317,"name":"Land Rover of Oklahoma City","dealerSlug":"land+rover+of+oklahoma+city","city_state_slug":"Oklahoma-City.OK","brand":"Land Rover","website":"www.landroveroklahomacity.com","address":"13010 Broadway Ext Ste B","city":"Oklahoma City","state":"OK","zip":73114,"latitude":35.6019953,"longitude":-97.5004345,"phone_number_service":"8889604501","phone_number_main":"4057757080","service_hours":"Mo-Fr 07:00 - 18:00 | Sa 08:00 - 16:00","utc_offset":"-300","gplace_id":null,"gplace_url":"https://maps.google.com/?cid=13170863723596983220","dealerID":63400,"trusted":false,"image_id":"v1597283945/landrover_RM.png","phone":"8889604501","cityStateSlug":"oklahoma-city.ok","slug":"Oklahoma-City.OK/land+rover+of+oklahoma+city","location":"35.6019953,-97.5004345","brandsList":["land rover"]},{"id":10720,"crm_id":67035091,"name":"Nissan of Lawton","dealerSlug":"nissan+of+lawton","city_state_slug":"Lawton.OK","brand":"Nissan","website":"www.nissanoflawton.com","address":"201 W Gore Blvd","city":"Lawton","state":"OK","zip":73501,"latitude":34.6096654,"longitude":-98.3907957,"phone_number_service":"8772078278","phone_number_main":"5803532244","service_hours":"Mo-Fr 07:30 - 17:30 | Sa 08:00 - 12:00","utc_offset":"-300","gplace_id":null,"gplace_url":"https://maps.google.com/?cid=2775203541912158738","dealerID":63610,"trusted":false,"image_id":"v1597283926/nissan_RM.png","phone":"8772078278","cityStateSlug":"lawton.ok","slug":"Lawton.OK/nissan+of+lawton","location":"34.6096654,-98.3907957","brandsList":["nissan"]},{"id":8578,"crm_id":67035490,"name":"Legend Driven Mazda","dealerSlug":"legend+driven+mazda","city_state_slug":"Lawton.OK","brand":"Mazda","website":"www.legenddrivenmazdalawton.com","address":"5221 NW Cache Rd","city":"Lawton","state":"OK","zip":73505,"latitude":34.6237877,"longitude":-98.4591481,"phone_number_service":"5803047213","phone_number_main":"5803551801","service_hours":"Mo-Fr 07:30 - 17:30","utc_offset":"-300","gplace_id":null,"gplace_url":"https://maps.google.com/?cid=18020032349928425089","dealerID":63722,"trusted":false,"image_id":"v1597283937/mazda.png","phone":"5803047213","cityStateSlug":"lawton.ok","slug":"Lawton.OK/legend+driven+mazda","location":"34.6237877,-98.4591481","brandsList":["mazda"]},{"id":13749,"crm_id":67036306,"name":"Stuteville Ford Lincoln of Ponca City","dealerSlug":"stuteville+ford+lincoln+of+ponca+city","city_state_slug":"Ponca-City.OK","brand":"Ford,Lincoln","website":"www.jackbowkerford.com","address":"2415 N 14th St","city":"Ponca City","state":"OK","zip":74601,"latitude":36.7337265,"longitude":-97.0662656,"phone_number_service":"8007655534","phone_number_main":"8007655534","service_hours":"Mo-Fr 07:30-17:30","utc_offset":"-300","gplace_id":null,"gplace_url":"https://maps.google.com/?cid=17368818398565429034","dealerID":63943,"trusted":false,"image_id":"v1597283967/ford_RM.png","phone":"8007655534","cityStateSlug":"ponca-city.ok","slug":"Ponca-City.OK/stuteville+ford+lincoln+of+ponca+city","location":"36.7337265,-97.0662656","brandsList":["ford","lincoln"]},{"id":12383,"crm_id":67036420,"name":"Riverside Ford of Tulsa","dealerSlug":"riverside+ford+of+tulsa","city_state_slug":"Tulsa.OK","brand":"Ford","website":"www.riversidefordoftulsa.com/","address":"745 West 51st","city":"Tulsa","state":"OK","zip":74107,"latitude":36.073943,"longitude":-96.054074,"phone_number_service":"9182332466","phone_number_main":"9184452700","service_hours":"Mo-Fr 07:00 - 18:00","utc_offset":"-300","gplace_id":null,"gplace_url":"https://maps.google.com/?cid=9666009190463770399","dealerID":63974,"trusted":false,"image_id":"v1597283967/ford_RM.png","phone":"9182332466","cityStateSlug":"tulsa.ok","slug":"Tulsa.OK/riverside+ford+of+tulsa","location":"36.073943,-96.054074","brandsList":["ford"]},{"id":7478,"crm_id":67036540,"name":"Joe Cooper Dodge Jeep","dealerSlug":"joe+cooper+dodge+jeep","city_state_slug":"Shawnee.OK","brand":"Chrysler,Dodge,Jeep,RAM","website":"www.joecooperdodgejeep.com","address":"4141 N Harrison St","city":"Shawnee","state":"OK","zip":74804,"latitude":35.3719172,"longitude":-96.9110096,"phone_number_service":"4053225398","phone_number_main":"4052751104","service_hours":"Mo-Fr 07:00 - 18:00 | Sa 08:00 - 16:00","utc_offset":"-300","gplace_id":null,"gplace_url":"https://maps.google.com/?cid=13878160376589142784","dealerID":64008,"trusted":false,"image_id":"v1597283975/chrysler_RM.png","phone":"4053225398","cityStateSlug":"shawnee.ok","slug":"Shawnee.OK/joe+cooper+dodge+jeep","location":"35.3719172,-96.9110096","brandsList":["chrysler","dodge","jeep","ram"]},{"id":12253,"crm_id":67036546,"name":"Reynolds Ford of Norman","dealerSlug":"reynolds+ford+of+norman","city_state_slug":"Norman.OK","brand":"Ford","website":"reynoldsfordnorman.com","address":"825 N Interstate Dr","city":"Norman","state":"OK","zip":73069,"latitude":35.228896,"longitude":-97.484236,"phone_number_service":"8776721755","phone_number_main":"8776722681","service_hours":"Mo-Fr 07:00 - 18:00 | Sa 08:00 - 12:00","utc_offset":"-300","gplace_id":null,"gplace_url":"https://maps.google.com/?cid=15666562389323774320","dealerID":64010,"trusted":false,"image_id":"v1597283967/ford_RM.png","phone":"8776721755","cityStateSlug":"norman.ok","slug":"Norman.OK/reynolds+ford+of+norman","location":"35.228896,-97.484236","brandsList":["ford"]},{"id":6731,"crm_id":67036924,"name":"Hudiburg Subaru","dealerSlug":"hudiburg+subaru","city_state_slug":"Oklahoma-City.OK","brand":"Subaru","website":"www.hudiburgsubaru.com","address":"210 E Interstate 240 Service Rd","city":"Oklahoma City","state":"OK","zip":73149,"latitude":35.3910853,"longitude":-97.5078941,"phone_number_service":"8886760533","phone_number_main":"4056443100","service_hours":"Mo-Fr 07:00 - 18:00 | Sa 08:00 - 13:00","utc_offset":"-300","gplace_id":null,"gplace_url":"https://maps.google.com/?cid=10167918938146521436","dealerID":64117,"trusted":false,"image_id":"v1597283982/subaru_ms.png","phone":"8886760533","cityStateSlug":"oklahoma-city.ok","slug":"Oklahoma-City.OK/hudiburg+subaru","location":"35.3910853,-97.5078941","brandsList":["subaru"]},{"id":751,"crm_id":67037671,"name":"AutoMax Hyundai Norman","dealerSlug":"automax+hyundai+norman","city_state_slug":"Norman.OK","brand":"Hyundai","website":"www.automaxhyundainorman.com","address":"551 N Interstate Dr","city":"Norman","state":"OK","zip":73069,"latitude":35.2246104,"longitude":-97.4847376,"phone_number_service":"8889748805","phone_number_main":"8889748805","service_hours":"Mo-Fr 07:30 - 18:00 | Sa 08:00 - 15:00","utc_offset":"-300","gplace_id":null,"gplace_url":"https://maps.google.com/?cid=2955794788238575907","dealerID":64326,"trusted":false,"image_id":"v1597283959/hyundai_RM.png","phone":"8889748805","cityStateSlug":"norman.ok","slug":"Norman.OK/automax+hyundai+norman","location":"35.2246104,-97.4847376","brandsList":["hyundai"]},{"id":4141,"crm_id":67038199,"name":"Don Thornton Cadillac","dealerSlug":"don+thornton+cadillac","city_state_slug":"Tulsa.OK","brand":"Cadillac","website":"www.donthorntoncadillac.com","address":"3939 S Memorial Dr","city":"Tulsa","state":"OK","zip":74145,"latitude":36.1057394,"longitude":-95.8856796,"phone_number_service":"5397770258","phone_number_main":"9182054022","service_hours":"Mo-Fr 07:30 - 18:00 | Sa 08:00 - 14:00","utc_offset":"-300","gplace_id":null,"gplace_url":"https://maps.google.com/?cid=2004807578836535000","dealerID":64471,"trusted":false,"image_id":"v1597283980/cadillac.png","phone":"5397770258","cityStateSlug":"tulsa.ok","slug":"Tulsa.OK/don+thornton+cadillac","location":"36.1057394,-95.8856796","brandsList":["cadillac"]},{"id":8035,"crm_id":67038241,"name":"Knippelmier Chevrolet","dealerSlug":"knippelmier+chevrolet","city_state_slug":"Blanchard.OK","brand":"Chevrolet","website":"www.knippelmierchevrolet.com","address":"1811 US HWY 62 E","city":"Blanchard","state":"OK","zip":73010,"latitude":35.1497306,"longitude":-97.6377526,"phone_number_service":"8776520041","phone_number_main":"4055823892","service_hours":"Mo-Fr 07:30 - 17:30","utc_offset":"-300","gplace_id":null,"gplace_url":"https://maps.google.com/?cid=13138712495143321488","dealerID":64485,"trusted":false,"image_id":"v1597284079/chevy_ms.png","phone":"8776520041","cityStateSlug":"blanchard.ok","slug":"Blanchard.OK/knippelmier+chevrolet","location":"35.1497306,-97.6377526","brandsList":["chevrolet"]},{"id":1842,"crm_id":67039222,"name":"Bob Howard Acura","dealerSlug":"bob+howard+acura","city_state_slug":"Oklahoma-City.OK","brand":"Acura","website":"www.bobhowardacura.com","address":"13101 N Kelley Ave","city":"Oklahoma City","state":"OK","zip":73131,"latitude":35.6030999,"longitude":-97.4968699,"phone_number_service":"4057538779","phone_number_main":"4057538779","service_hours":"Mo-Sa 07:00 - 19:00","utc_offset":"-300","gplace_id":null,"gplace_url":"https://maps.google.com/?cid=5358735562883150479","dealerID":64753,"trusted":false,"image_id":"v1597283988/acura.png","phone":"4057538779","cityStateSlug":"oklahoma-city.ok","slug":"Oklahoma-City.OK/bob+howard+acura","location":"35.6030999,-97.4968699","brandsList":["acura"]},{"id":6136,"crm_id":67039528,"name":"Harry Robinson Sallisaw Ford","dealerSlug":"harry+robinson+sallisaw+ford","city_state_slug":"Sallisaw.OK","brand":"Ford","website":"harryrobinsonsallisawford.com","address":"2300 South Kerr Blvd. Hwy 59 South","city":"Sallisaw","state":"OK","zip":74955,"latitude":35.4315968,"longitude":-94.8049119,"phone_number_service":"9182130748","phone_number_main":"9187754401","service_hours":"Mo-Fr 07:30 - 17:00","utc_offset":"-300","gplace_id":null,"gplace_url":"https://maps.google.com/?cid=7451367908991385445","dealerID":64837,"trusted":false,"image_id":"v1597283967/ford_RM.png","phone":"9182130748","cityStateSlug":"sallisaw.ok","slug":"Sallisaw.OK/harry+robinson+sallisaw+ford","location":"35.4315968,-94.8049119","brandsList":["ford"]},{"id":7230,"crm_id":67040077,"name":"Jay Hodge Chevrolet","dealerSlug":"jay+hodge+chevrolet","city_state_slug":"Muskogee.OK","brand":"Chevrolet","website":"www.jayhodgechevroletmuskogee.com/","address":"144 W Shawnee St","city":"Muskogee","state":"OK","zip":74401,"latitude":35.7711771,"longitude":-95.3611672,"phone_number_service":"9182892305","phone_number_main":"9186830311","service_hours":"Mo-Fr 07:30 - 18:00 | Sa 08:00 - 14:00","utc_offset":"-300","gplace_id":null,"gplace_url":"https://maps.google.com/?cid=5422827791157937694","dealerID":64992,"trusted":false,"image_id":"v1597284079/chevy_ms.png","phone":"9182892305","cityStateSlug":"muskogee.ok","slug":"Muskogee.OK/jay+hodge+chevrolet","location":"35.7711771,-95.3611672","brandsList":["chevrolet"]},{"id":6221,"crm_id":67040428,"name":"Heather Cannon Honda","dealerSlug":"heather+cannon+honda","city_state_slug":"Ponca-City.OK","brand":"Honda","website":"www.cannonhonda.com","address":"3415 N 14th St","city":"Ponca City","state":"OK","zip":74601,"latitude":36.7461977,"longitude":-97.0665017,"phone_number_service":"5807626636","phone_number_main":"5807626636","service_hours":"Mo-Fr 07:30 - 17:30 | Sa 08:00 - 14:00","utc_offset":"-300","gplace_id":null,"gplace_url":"https://maps.google.com/?cid=7827126422885500183","dealerID":65084,"trusted":false,"image_id":"v1597284047/honda_ms.png","phone":"5807626636","cityStateSlug":"ponca-city.ok","slug":"Ponca-City.OK/heather+cannon+honda","location":"36.7461977,-97.0665017","brandsList":["honda"]},{"id":15436,"crm_id":67041253,"name":"Wheeler Chevrolet","dealerSlug":"wheeler+chevrolet","city_state_slug":"Hinton.OK","brand":"Chevrolet","website":"www.wheelerchevy.com","address":"5415 N Broadway","city":"Hinton","state":"OK","zip":73047,"latitude":35.5247054,"longitude":-98.3500219,"phone_number_service":"8772671503","phone_number_main":"4052530919","service_hours":"Mo-Fr 08:00 - 17:30 | Sa 08:00 - 12:00","utc_offset":"-300","gplace_id":null,"gplace_url":"https://maps.google.com/?cid=7172311603151462746","dealerID":65290,"trusted":false,"image_id":"v1597284079/chevy_ms.png","phone":"8772671503","cityStateSlug":"hinton.ok","slug":"Hinton.OK/wheeler+chevrolet","location":"35.5247054,-98.3500219","brandsList":["chevrolet"]},{"id":1880,"crm_id":67041520,"name":"Bob Moore Mazda","dealerSlug":"bob+moore+mazda","city_state_slug":"Oklahoma-City.OK","brand":"Mazda","website":"www.bobmooremazda.com","address":"13045 N Kelley Ave","city":"Oklahoma City","state":"OK","zip":73131,"latitude":35.602244,"longitude":-97.4963448,"phone_number_service":"8772514846","phone_number_main":"4057757000","service_hours":"Mo-Fr 07:00 - 18:00 | Sa 08:00 - 16:00","utc_offset":"-300","gplace_id":null,"gplace_url":"https://maps.google.com/?cid=4570779673484156240","dealerID":65358,"trusted":false,"image_id":"v1597283937/mazda.png","phone":"8772514846","cityStateSlug":"oklahoma-city.ok","slug":"Oklahoma-City.OK/bob+moore+mazda","location":"35.602244,-97.4963448","brandsList":["mazda"]},{"id":1531,"crm_id":67041550,"name":"Billingsley Hyundai of Lawton","dealerSlug":"billingsley+hyundai+of+lawton","city_state_slug":"Lawton.OK","brand":"Hyundai","website":"www.billingsleyhyundai.com","address":"2502 NW 82nd St","city":"Lawton","state":"OK","zip":73505,"latitude":34.6336046,"longitude":-98.4930854,"phone_number_service":"8777399190","phone_number_main":"5805363326","service_hours":"Mo-Fr 07:00 - 17:30 | Sa 08:00 - 14:00","utc_offset":"-300","gplace_id":null,"gplace_url":"https://maps.google.com/?cid=15110398677298003424","dealerID":65365,"trusted":false,"image_id":"v1597283959/hyundai_RM.png","phone":"8777399190","cityStateSlug":"lawton.ok","slug":"Lawton.OK/billingsley+hyundai+of+lawton","location":"34.6336046,-98.4930854","brandsList":["hyundai"]},{"id":1874,"crm_id":67042162,"name":"Bob Moore Cadillac of Edmond","dealerSlug":"bob+moore+cadillac+of+edmond","city_state_slug":"Oklahoma-City.OK","brand":"Cadillac","website":"www.bobmoorecadillacokc.com","address":"13020 Broadway Ext","city":"Oklahoma City","state":"OK","zip":73114,"latitude":35.6025251,"longitude":-97.5002383,"phone_number_service":"8667015390","phone_number_main":"4052548735","service_hours":"Mo-Fr 07:00 - 18:00 | Sa 08:00 - 15:00","utc_offset":"-300","gplace_id":null,"gplace_url":"https://maps.google.com/?cid=5489152390042939615","dealerID":65526,"trusted":false,"image_id":"v1597283980/cadillac.png","phone":"8667015390","cityStateSlug":"oklahoma-city.ok","slug":"Oklahoma-City.OK/bob+moore+cadillac+of+edmond","location":"35.6025251,-97.5002383","brandsList":["cadillac"]},{"id":7262,"crm_id":67042384,"name":"Jeff Lungren Chevrolet","dealerSlug":"jeff+lungren+chevrolet","city_state_slug":"Grove.OK","brand":"Chevrolet","website":"www.jefflungrenchevrolet.com","address":"801 E. 3rd Street PO Box 452467","city":"Grove","state":"OK","zip":74344,"latitude":36.5955139,"longitude":-94.7593693,"phone_number_service":"8665999043","phone_number_main":"9187864477","service_hours":"Mo-Fr 07:30 - 17:30 | Sa 08:00 - 12:00","utc_offset":"-300","gplace_id":null,"gplace_url":"https://maps.google.com/?cid=8953056293794611516","dealerID":65588,"trusted":false,"image_id":"v1597284079/chevy_ms.png","phone":"8665999043","cityStateSlug":"grove.ok","slug":"Grove.OK/jeff+lungren+chevrolet","location":"36.5955139,-94.7593693","brandsList":["chevrolet"]},{"id":1054,"crm_id":67042861,"name":"Barry Sanders Supercenter","dealerSlug":"barry+sanders+supercenter","city_state_slug":"Stillwater.OK","brand":"Chrysler,Dodge,Jeep,RAM","website":"www.barrysanderssupercenter.com","address":"4120 W 6th Ave","city":"Stillwater","state":"OK","zip":74074,"latitude":36.1168506,"longitude":-97.112769,"phone_number_service":"4055710262","phone_number_main":"4055710555","service_hours":"Mo-Fr 07:30 - 18:00 | 08:00 - 14:00","utc_offset":"-300","gplace_id":null,"gplace_url":"https://maps.google.com/?cid=9559829392794229633","dealerID":65724,"trusted":false,"image_id":"v1597283975/chrysler_RM.png","phone":"4055710262","cityStateSlug":"stillwater.ok","slug":"Stillwater.OK/barry+sanders+supercenter","location":"36.1168506,-97.112769","brandsList":["chrysler","dodge","jeep","ram"]},{"id":1053,"crm_id":67042867,"name":"Barry Sanders Hyundai","dealerSlug":"barry+sanders+hyundai","city_state_slug":"Stillwater.OK","brand":"Hyundai","website":"www.barrysandershyundai.com","address":"4120 W 6th Ave","city":"Stillwater","state":"OK","zip":74074,"latitude":36.1168506,"longitude":-97.112769,"phone_number_service":"8884790879","phone_number_main":"4055710555","service_hours":"Mo-Fr 07:00 - 17:00 | 08:00 - 14:00","utc_offset":"-300","gplace_id":null,"gplace_url":"https://maps.google.com/?cid=9559829392794229633","dealerID":65726,"trusted":false,"image_id":"v1597283959/hyundai_RM.png","phone":"8884790879","cityStateSlug":"stillwater.ok","slug":"Stillwater.OK/barry+sanders+hyundai","location":"36.1168506,-97.112769","brandsList":["hyundai"]},{"id":4735,"crm_id":67043059,"name":"Ferguson Kia","dealerSlug":"ferguson+kia","city_state_slug":"Broken-Arrow.OK","brand":"Kia","website":"www.fergusonkia.com","address":"1501 N Elm Pl","city":"Broken Arrow","state":"OK","zip":74012,"latitude":36.0683012,"longitude":-95.7966186,"phone_number_service":"9184387660","phone_number_main":"9184387667","service_hours":"Mo-Fr 07:00 - 18:00 | Sa 08:00 - 14:00","utc_offset":"-300","gplace_id":null,"gplace_url":"https://maps.google.com/?cid=13968447306150642929","dealerID":65781,"trusted":false,"image_id":"v1597283948/kia_RM.png","phone":"9184387660","cityStateSlug":"broken-arrow.ok","slug":"Broken-Arrow.OK/ferguson+kia","location":"36.0683012,-95.7966186","brandsList":["kia"]},{"id":12437,"crm_id":67043794,"name":"Roberts Ford Lincoln","dealerSlug":"roberts+ford+lincoln","city_state_slug":"Pryor.OK","brand":"Ford,Lincoln","website":"www.robertsfordpryor.com","address":"4501 S Mill St","city":"Pryor","state":"OK","zip":74361,"latitude":36.2676247,"longitude":-95.3310339,"phone_number_service":"9189812621","phone_number_main":"9189812620","service_hours":"Mo-Fr 07:30 - 17:30 | Sa 08:00-14:30","utc_offset":"-300","gplace_id":null,"gplace_url":"https://maps.google.com/?cid=15296209828709420135","dealerID":65985,"trusted":false,"image_id":"v1597283967/ford_RM.png","phone":"9189812621","cityStateSlug":"pryor.ok","slug":"Pryor.OK/roberts+ford+lincoln","location":"36.2676247,-95.3310339","brandsList":["ford","lincoln"]},{"id":11781,"crm_id":67044136,"name":"Post Oak Toyota","dealerSlug":"post+oak+toyota","city_state_slug":"Midwest-City.OK","brand":"Toyota","website":"www.postoaktoyota.com","address":"5800 Tinker Diagonal","city":"Midwest City","state":"OK","zip":73110,"latitude":35.4419868,"longitude":-97.420307,"phone_number_service":"4055846520","phone_number_main":"4055846174","service_hours":"Mo-Fr 07:00 - 19:00 | Sa 08:00 - 17:00","utc_offset":"-300","gplace_id":null,"gplace_url":"https://maps.google.com/?cid=6236306191622562887","dealerID":66076,"trusted":false,"image_id":"v1597284039/toyota_ms.png","phone":"4055846520","cityStateSlug":"midwest-city.ok","slug":"Midwest-City.OK/post+oak+toyota","location":"35.4419868,-97.420307","brandsList":["toyota"]},{"id":3793,"crm_id":67044145,"name":"David Stanley Chevrolet","dealerSlug":"david+stanley+chevrolet","city_state_slug":"Oklahoma-City.OK","brand":"Chevrolet","website":"www.davidstanleychevrolet.com","address":"614 SW 74th St","city":"Oklahoma City","state":"OK","zip":73139,"latitude":35.390001,"longitude":-97.5264871,"phone_number_service":"4052535410","phone_number_main":"8005737963","service_hours":"Mo-Fr 07:00 - 18:00 | Sa 08:00 - 13:00","utc_offset":"-300","gplace_id":null,"gplace_url":"https://maps.google.com/?cid=3577741137550369418","dealerID":66079,"trusted":false,"image_id":"v1597284079/chevy_ms.png","phone":"4052535410","cityStateSlug":"oklahoma-city.ok","slug":"Oklahoma-City.OK/david+stanley+chevrolet","location":"35.390001,-97.5264871","brandsList":["chevrolet"]},{"id":4734,"crm_id":67044247,"name":"Ferguson Buick GMC Superstore","dealerSlug":"ferguson+buick+gmc+superstore","city_state_slug":"Broken-Arrow.OK","brand":"Buick,GMC","website":"www.fergusonbuickgmc.com/","address":"1601 N Elm Pl","city":"Broken Arrow","state":"OK","zip":74012,"latitude":36.0690842,"longitude":-95.7956972,"phone_number_service":"9186152797","phone_number_main":"9182581800","service_hours":"Mo-Fr 07:00 - 18:00 | Sa 08:00 - 14:00","utc_offset":"-300","gplace_id":null,"gplace_url":"https://maps.google.com/?cid=12997468748582413267","dealerID":66103,"trusted":false,"image_id":"v1597283981/buick_RM.png","phone":"9186152797","cityStateSlug":"broken-arrow.ok","slug":"Broken-Arrow.OK/ferguson+buick+gmc+superstore","location":"36.0690842,-95.7956972","brandsList":["buick","gmc"]},{"id":5786,"crm_id":67045249,"name":"Green Country Ford","dealerSlug":"green+country+ford","city_state_slug":"Vinita.OK","brand":"Ford","website":"www.green-country-ford.com","address":"225 W Dwain Willis Ave","city":"Vinita","state":"OK","zip":74301,"latitude":36.6259255,"longitude":-95.163105,"phone_number_service":"8443390547","phone_number_main":"9182567525","service_hours":"Mo-Fr 08:00 - 17:00","utc_offset":"-300","gplace_id":null,"gplace_url":"https://maps.google.com/?cid=1937817578641701846","dealerID":66377,"trusted":false,"image_id":"v1597283967/ford_RM.png","phone":"8443390547","cityStateSlug":"vinita.ok","slug":"Vinita.OK/green+country+ford","location":"36.6259255,-95.163105","brandsList":["ford"]},{"id":1879,"crm_id":67045627,"name":"Bob Moore Kia Northwest","dealerSlug":"bob+moore+kia+northwest","city_state_slug":"Oklahoma-City.OK","brand":"Kia","website":"bobmoorekiaokc.com","address":"7340 Northwest Expy","city":"Oklahoma City","state":"OK","zip":73132,"latitude":35.5593105,"longitude":-97.6449347,"phone_number_service":"8778131219","phone_number_main":"4057203800","service_hours":"Mo-Fr 07:00 - 18:00 | Sa 08:00 - 16:00","utc_offset":"-300","gplace_id":null,"gplace_url":"https://maps.google.com/?cid=12458626417007938321","dealerID":66484,"trusted":false,"image_id":"v1597283948/kia_RM.png","phone":"8778131219","cityStateSlug":"oklahoma-city.ok","slug":"Oklahoma-City.OK/bob+moore+kia+northwest","location":"35.5593105,-97.6449347","brandsList":["kia"]},{"id":1058,"crm_id":67046377,"name":"Bartlesville Chrysler Dodge RAM Jeep","dealerSlug":"bartlesville+chrysler+dodge+ram+jeep","city_state_slug":"Bartlesville.OK","brand":"Chrysler,Dodge,Jeep,RAM","website":"www.bartlesvillechryslerdodgejeep.com","address":"3250 SE Washington Blvd","city":"Bartlesville","state":"OK","zip":74006,"latitude":36.700097,"longitude":-95.933731,"phone_number_service":"8667832397","phone_number_main":"8886624718","service_hours":"Mo-Fr 07:00 - 18:00 | Sa 08:00 - 14:45","utc_offset":"-300","gplace_id":null,"gplace_url":"https://maps.google.com/?cid=4525482846292026620","dealerID":66665,"trusted":false,"image_id":"v1597283975/chrysler_RM.png","phone":"8667832397","cityStateSlug":"bartlesville.ok","slug":"Bartlesville.OK/bartlesville+chrysler+dodge+ram+jeep","location":"36.700097,-95.933731","brandsList":["chrysler","dodge","jeep","ram"]},{"id":1483,"crm_id":67047130,"name":"Bill Knight Ford","dealerSlug":"bill+knight+ford","city_state_slug":"Tulsa.OK","brand":"Ford","website":"www.billknightford.net","address":"9607 S Memorial Dr","city":"Tulsa","state":"OK","zip":74133,"latitude":36.0236398,"longitude":-95.8851847,"phone_number_service":"9185262408","phone_number_main":"9185262400","service_hours":"Mo-Fr 07:00 - 19:00 | Sa 08:00 - 16:00","utc_offset":"-300","gplace_id":null,"gplace_url":"https://maps.google.com/?cid=4531745224907494183","dealerID":66864,"trusted":false,"image_id":"v1597283967/ford_RM.png","phone":"9185262408","cityStateSlug":"tulsa.ok","slug":"Tulsa.OK/bill+knight+ford","location":"36.0236398,-95.8851847","brandsList":["ford"]},{"id":4732,"crm_id":67047217,"name":"Fenton Ford of Ada","dealerSlug":"fenton+ford+of+ada","city_state_slug":"Ada.OK","brand":"Ford","website":"www.fentonford.com/","address":"1600 Lonnie Abbott Blvd","city":"Ada","state":"OK","zip":74820,"latitude":34.791808,"longitude":-96.654845,"phone_number_service":"5803326161","phone_number_main":"5803326161","service_hours":"Mo-Fr 07:30 - 18:00 | Sa 08:00 - 12:00","utc_offset":"-300","gplace_id":null,"gplace_url":"https://maps.google.com/?cid=16469939769237215286","dealerID":66888,"trusted":false,"image_id":"v1597283967/ford_RM.png","phone":"5803326161","cityStateSlug":"ada.ok","slug":"Ada.OK/fenton+ford+of+ada","location":"34.791808,-96.654845","brandsList":["ford"]},{"id":12648,"crm_id":67047403,"name":"Route 66 Nissan of Tulsa","dealerSlug":"route+66+nissan+of+tulsa","city_state_slug":"Tulsa.OK","brand":"Nissan","website":"www.route66nissan.com","address":"8190 E Skelly Dr","city":"Tulsa","state":"OK","zip":74129,"latitude":36.1213533,"longitude":-95.883502,"phone_number_service":"8333959980","phone_number_main":"8333959980","service_hours":"Temporarily Closed","utc_offset":"-300","gplace_id":null,"gplace_url":"https://maps.google.com/?cid=13545913466100805595","dealerID":66943,"trusted":false,"image_id":"v1597283926/nissan_RM.png","phone":"8333959980","cityStateSlug":"tulsa.ok","slug":"Tulsa.OK/route+66+nissan+of+tulsa","location":"36.1213533,-95.883502","brandsList":["nissan"]},{"id":3616,"crm_id":67047628,"name":"Curttright Honda","dealerSlug":"curttright+honda","city_state_slug":"Enid.OK","brand":"Honda","website":"www.curttrighthonda.com","address":"4618 W Owen K Garriott Rd","city":"Enid","state":"OK","zip":73703,"latitude":36.391579,"longitude":-97.935498,"phone_number_service":"5802381054","phone_number_main":"5802338670","service_hours":"","utc_offset":"-300","gplace_id":null,"gplace_url":"https://maps.google.com/?cid=4073070615507331920","dealerID":67006,"trusted":false,"image_id":"v1597284047/honda_ms.png","phone":"5802381054","cityStateSlug":"enid.ok","slug":"Enid.OK/curttright+honda","location":"36.391579,-97.935498","brandsList":["honda"]},{"id":7082,"crm_id":67048015,"name":"Jacksons Chevrolet Buick GMC","dealerSlug":"jacksons+chevrolet+buick+gmc","city_state_slug":"Kingfisher.OK","brand":"Buick,Chevrolet,GMC","website":"www.jacksonsofkingfisher.com","address":"2600 Frontage Rd","city":"Kingfisher","state":"OK","zip":73750,"latitude":35.8304295,"longitude":-97.9342865,"phone_number_service":"8665609314","phone_number_main":"4052619481","service_hours":"Mo-Fr 07:30 - 18:00 | Sa 07:30 - 12:00","utc_offset":"-300","gplace_id":null,"gplace_url":"https://maps.google.com/?cid=5846011614385991488","dealerID":67107,"trusted":false,"image_id":"v1597283981/buick_RM.png","phone":"8665609314","cityStateSlug":"kingfisher.ok","slug":"Kingfisher.OK/jacksons+chevrolet+buick+gmc","location":"35.8304295,-97.9342865","brandsList":["buick","chevrolet","gmc"]},{"id":8138,"crm_id":67048198,"name":"Kyle Edwards Buick GMC","dealerSlug":"kyle+edwards+buick+gmc","city_state_slug":"Muskogee.OK","brand":"Buick,GMC","website":"www.kyleedwardsbuickgmc.com","address":"1600 N Main St","city":"Muskogee","state":"OK","zip":74401,"latitude":35.7672391,"longitude":-95.3571002,"phone_number_service":"9189134516","phone_number_main":"9189134506","service_hours":"Mo-Fr 07:30 - 17:30","utc_offset":"-300","gplace_id":null,"gplace_url":"https://maps.google.com/?cid=7353661649370950769","dealerID":67159,"trusted":false,"image_id":"v1597283981/buick_RM.png","phone":"9189134516","cityStateSlug":"muskogee.ok","slug":"Muskogee.OK/kyle+edwards+buick+gmc","location":"35.7672391,-95.3571002","brandsList":["buick","gmc"]},{"id":7480,"crm_id":67048294,"name":"Joe Cooper Ford of Shawnee","dealerSlug":"joe+cooper+ford+of+shawnee","city_state_slug":"Shawnee.OK","brand":"Ford","website":"www.joecooperfordshawnee.com","address":"2600 N. Harrison","city":"Shawnee","state":"OK","zip":74804,"latitude":35.3607343,"longitude":-96.9136548,"phone_number_service":"4054000305","phone_number_main":"4052737701","service_hours":"Mo-Fr 07:00 - 18:00 | Sa 08:00 - 16:00","utc_offset":"-300","gplace_id":null,"gplace_url":"https://maps.google.com/?cid=377686314380693572","dealerID":67188,"trusted":false,"image_id":"v1597283967/ford_RM.png","phone":"4054000305","cityStateSlug":"shawnee.ok","slug":"Shawnee.OK/joe+cooper+ford+of+shawnee","location":"35.3607343,-96.9136548","brandsList":["ford"]},{"id":104,"crm_id":67048411,"name":"Ada Nissan","dealerSlug":"ada+nissan","city_state_slug":"Ada.OK","brand":"Nissan","website":"www.adanissan.com","address":"420 Lonnie Abbott Blvd","city":"Ada","state":"OK","zip":74820,"latitude":34.7904261,"longitude":-96.67219,"phone_number_service":"5803073188","phone_number_main":"5803322233","service_hours":"Mo-Fr 07:30 - 18:00 | Sa 08:00 - 16:00","utc_offset":"-300","gplace_id":null,"gplace_url":"https://maps.google.com/?cid=9185594620147006545","dealerID":67214,"trusted":false,"image_id":"v1597283926/nissan_RM.png","phone":"5803073188","cityStateSlug":"ada.ok","slug":"Ada.OK/ada+nissan","location":"34.7904261,-96.67219","brandsList":["nissan"]},{"id":7479,"crm_id":67052287,"name":"Joe Cooper Ford of Edmond","dealerSlug":"joe+cooper+ford+of+edmond","city_state_slug":"Oklahoma-City.OK","brand":"Ford","website":"www.joecooperfordedmond.com","address":"600 W Memorial Rd","city":"Oklahoma City","state":"OK","zip":73114,"latitude":35.608265,"longitude":-97.52378,"phone_number_service":"4057749795","phone_number_main":"4054759000","service_hours":"Mo-Fr 07:00 - 18:00 | Sa 08:00 - 16:00","utc_offset":"-300","gplace_id":null,"gplace_url":"https://maps.google.com/?cid=15379774331645656322","dealerID":68273,"trusted":false,"image_id":"v1597283967/ford_RM.png","phone":"4057749795","cityStateSlug":"oklahoma-city.ok","slug":"Oklahoma-City.OK/joe+cooper+ford+of+edmond","location":"35.608265,-97.52378","brandsList":["ford"]},{"id":8577,"crm_id":67052416,"name":"Legend Driven Honda","dealerSlug":"legend+driven+honda","city_state_slug":"Lawton.OK","brand":"Honda","website":"www.legenddrivenhondalawton.com","address":"5010 NW Cache Rd","city":"Lawton","state":"OK","zip":73505,"latitude":34.6224505,"longitude":-98.4554533,"phone_number_service":"5803525125","phone_number_main":"5803551801","service_hours":"Mo-Fr 07:30 - 17:30 | Sa 08:00 - 14:00","utc_offset":"-300","gplace_id":null,"gplace_url":"https://maps.google.com/?cid=18020032349928425089","dealerID":68308,"trusted":false,"image_id":"v1597284047/honda_ms.png","phone":"5803525125","cityStateSlug":"lawton.ok","slug":"Lawton.OK/legend+driven+honda","location":"34.6224505,-98.4554533","brandsList":["honda"]},{"id":1530,"crm_id":67052515,"name":"Billingsley Ford of Ardmore","dealerSlug":"billingsley+ford+of+ardmore","city_state_slug":"Ardmore.OK","brand":"Ford","website":"www.fordok.com","address":"3804 West Broadway","city":"Ardmore","state":"OK","zip":73401,"latitude":34.1716637,"longitude":-97.1788577,"phone_number_service":"8885399654","phone_number_main":"5802263300","service_hours":"Mo-Fr 07:30 - 17:30 | Sa 08:00 - 14:00","utc_offset":"-300","gplace_id":null,"gplace_url":"https://maps.google.com/?cid=11837219690560130980","dealerID":68337,"trusted":false,"image_id":"v1597283967/ford_RM.png","phone":"8885399654","cityStateSlug":"ardmore.ok","slug":"Ardmore.OK/billingsley+ford+of+ardmore","location":"34.1716637,-97.1788577","brandsList":["ford"]},{"id":11274,"crm_id":67052890,"name":"Patriot Honda","dealerSlug":"patriot+honda","city_state_slug":"Ardmore.OK","brand":"Honda","website":"www.ardmorehonda.com","address":"1655 N Rockford Rd","city":"Ardmore","state":"OK","zip":73401,"latitude":34.1925427,"longitude":-97.1619125,"phone_number_service":"5802261000","phone_number_main":"5802261000","service_hours":"Mo-Fr 07:30 - 17:30 | Sa 08:00 - 14:00","utc_offset":"-300","gplace_id":null,"gplace_url":"https://maps.google.com/?cid=13660568702497284180","dealerID":68438,"trusted":false,"image_id":"v1597284047/honda_ms.png","phone":"5802261000","cityStateSlug":"ardmore.ok","slug":"Ardmore.OK/patriot+honda","location":"34.1925427,-97.1619125","brandsList":["honda"]},{"id":4079,"crm_id":67053073,"name":"Don Carlton Acura of Tulsa","dealerSlug":"don+carlton+acura+of+tulsa","city_state_slug":"Tulsa.OK","brand":"Acura","website":"www.doncarltonacura.com","address":"4905 S Memorial Dr","city":"Tulsa","state":"OK","zip":74145,"latitude":36.0921817,"longitude":-95.8854175,"phone_number_service":"8887187472","phone_number_main":"9186642300","service_hours":"Mo-Sa 07:00 - 18:00","utc_offset":"-300","gplace_id":null,"gplace_url":"https://maps.google.com/?cid=6306673221373672479","dealerID":68493,"trusted":false,"image_id":"v1597283988/acura.png","phone":"8887187472","cityStateSlug":"tulsa.ok","slug":"Tulsa.OK/don+carlton+acura+of+tulsa","location":"36.0921817,-95.8854175","brandsList":["acura"]},{"id":5260,"crm_id":67053997,"name":"Frontier Chevrolet","dealerSlug":"frontier+chevrolet","city_state_slug":"El-Reno.OK","brand":"Chevrolet","website":"www.frontierchev.com","address":"1640 East Highway 66 Route 66 and Highway 81","city":"El Reno","state":"OK","zip":73036,"latitude":35.5076946,"longitude":-97.9405424,"phone_number_service":"4052623355","phone_number_main":"4052623355","service_hours":"Mo-Fr 07:30 - 17:30 | Sa 08:00-13:00","utc_offset":"-300","gplace_id":null,"gplace_url":"https://maps.google.com/?cid=17518608858939010025","dealerID":68752,"trusted":false,"image_id":"v1597284079/chevy_ms.png","phone":"4052623355","cityStateSlug":"el-reno.ok","slug":"El-Reno.OK/frontier+chevrolet","location":"35.5076946,-97.9405424","brandsList":["chevrolet"]},{"id":7867,"crm_id":67054201,"name":"Kevin Grover Buick GMC","dealerSlug":"kevin+grover+buick+gmc","city_state_slug":"Wagoner.OK","brand":"Buick,GMC","website":"www.grovergm.com","address":"1440 S Dewey Ave","city":"Wagoner","state":"OK","zip":74467,"latitude":35.9461876,"longitude":-95.3962047,"phone_number_service":"8884507542","phone_number_main":"9189194030","service_hours":"Mo-Fr 07:30 - 17:00","utc_offset":"-300","gplace_id":null,"gplace_url":"https://maps.google.com/?cid=15522567368552722718","dealerID":68805,"trusted":false,"image_id":"v1597283981/buick_RM.png","phone":"8884507542","cityStateSlug":"wagoner.ok","slug":"Wagoner.OK/kevin+grover+buick+gmc","location":"35.9461876,-95.3962047","brandsList":["buick","gmc"]},{"id":13667,"crm_id":67054225,"name":"Stevens Ford","dealerSlug":"stevens+ford","city_state_slug":"Enid.OK","brand":"Ford","website":"www.stevensfordenid.com/","address":"3101 West Garriott Road","city":"Enid","state":"OK","zip":73703,"latitude":36.3900127,"longitude":-97.9178029,"phone_number_service":"8886905539","phone_number_main":"5802373040","service_hours":"Mo-Fr 07:30 - 18:00 | Sa 08:00 - 14:00","utc_offset":"-300","gplace_id":null,"gplace_url":"https://maps.google.com/?cid=12920087871360683322","dealerID":68811,"trusted":false,"image_id":"v1597283967/ford_RM.png","phone":"8886905539","cityStateSlug":"enid.ok","slug":"Enid.OK/stevens+ford","location":"36.3900127,-97.9178029","brandsList":["ford"]},{"id":7073,"crm_id":67054468,"name":"Jackie Cooper BMW","dealerSlug":"jackie+cooper+bmw","city_state_slug":"Edmond.OK","brand":"BMW","website":"www.cooperbmw.com","address":"14145 N Broadway Ext","city":"Edmond","state":"OK","zip":73013,"latitude":35.6141873,"longitude":-97.494881,"phone_number_service":"4053001172","phone_number_main":"4057553600","service_hours":"Mo-Fr 07:00 - 17:00 | Sa 08:00 - 17:00","utc_offset":"-300","gplace_id":null,"gplace_url":"https://maps.google.com/?cid=16249932605977130018","dealerID":68878,"trusted":false,"image_id":"v1597283982/bmw_RM.png","phone":"4053001172","cityStateSlug":"edmond.ok","slug":"Edmond.OK/jackie+cooper+bmw","location":"35.6141873,-97.494881","brandsList":["bmw"]},{"id":2625,"crm_id":67055920,"name":"Carter County Dodge Chrysler Jeep","dealerSlug":"carter+county+dodge+chrysler+jeep","city_state_slug":"Ardmore.OK","brand":"Chrysler,Dodge,Jeep,RAM","website":"www.cartercountydodgechryslerjeep.com","address":"3600 W Broadway St","city":"Ardmore","state":"OK","zip":73401,"latitude":34.1720783,"longitude":-97.1771068,"phone_number_service":"5802261210","phone_number_main":"5802261210","service_hours":"Mo-Fr 08:00 - 18:00 | Sa 08:00 - 15:00","utc_offset":"-300","gplace_id":null,"gplace_url":"https://maps.google.com/?cid=7927895376665202128","dealerID":69280,"trusted":false,"image_id":"v1597283975/chrysler_RM.png","phone":"5802261210","cityStateSlug":"ardmore.ok","slug":"Ardmore.OK/carter+county+dodge+chrysler+jeep","location":"34.1720783,-97.1771068","brandsList":["chrysler","dodge","jeep","ram"]},{"id":10606,"crm_id":67056079,"name":"Nelson Nissan","dealerSlug":"nelson+nissan","city_state_slug":"Broken-Arrow.OK","brand":"Nissan","website":"www.nelsonnissan.com","address":"800 W Queens St","city":"Broken Arrow","state":"OK","zip":74012,"latitude":36.0713938,"longitude":-95.8007203,"phone_number_service":"9182597065","phone_number_main":"9182589901","service_hours":"","utc_offset":"-300","gplace_id":null,"gplace_url":"https://maps.google.com/?cid=11911637236002705454","dealerID":69316,"trusted":false,"image_id":"v1597283926/nissan_RM.png","phone":"9182597065","cityStateSlug":"broken-arrow.ok","slug":"Broken-Arrow.OK/nelson+nissan","location":"36.0713938,-95.8007203","brandsList":["nissan"]},{"id":750,"crm_id":67056427,"name":"AutoMax Hyundai Del City","dealerSlug":"automax+hyundai+del+city","city_state_slug":"Del-City.OK","brand":"Hyundai","website":"www.automaxhyundai.net","address":"4401 Tinker Diagonal St","city":"Del City","state":"OK","zip":73115,"latitude":35.4545755,"longitude":-97.4391444,"phone_number_service":"8889748803","phone_number_main":"4056064000","service_hours":"Mo-Fr 07:30 - 18:00 | Sa 08:00 - 15:00","utc_offset":"-300","gplace_id":null,"gplace_url":"https://maps.google.com/?cid=10614862502123741370","dealerID":69406,"trusted":false,"image_id":"v1597283959/hyundai_RM.png","phone":"8889748803","cityStateSlug":"del-city.ok","slug":"Del-City.OK/automax+hyundai+del+city","location":"35.4545755,-97.4391444","brandsList":["hyundai"]},{"id":10016,"crm_id":67056592,"name":"Mike Hellack Chevrolet","dealerSlug":"mike+hellack+chevrolet","city_state_slug":"Davis.OK","brand":"Chevrolet","website":"www.mikehellackchevrolet.com","address":"1630 E Main St","city":"Davis","state":"OK","zip":73030,"latitude":34.5054205,"longitude":-97.1049685,"phone_number_service":"5803687181","phone_number_main":"5803687184","service_hours":"Mo-Fr 08:00 - 17:30 | Sa 08:00 - 12:00","utc_offset":"-300","gplace_id":null,"gplace_url":"https://maps.google.com/?cid=12608764526543883986","dealerID":69449,"trusted":false,"image_id":"v1597284079/chevy_ms.png","phone":"5803687181","cityStateSlug":"davis.ok","slug":"Davis.OK/mike+hellack+chevrolet","location":"34.5054205,-97.1049685","brandsList":["chevrolet"]},{"id":5259,"crm_id":67057174,"name":"Frontier CDJR","dealerSlug":"frontier+cdjr","city_state_slug":"El-Reno.OK","brand":"Chrysler,Dodge,Jeep,RAM","website":"www.frontiermotor.net","address":"1645 E US Highway 66","city":"El Reno","state":"OK","zip":73036,"latitude":35.5086873,"longitude":-97.9392411,"phone_number_service":"4054284115","phone_number_main":"4052626433","service_hours":"Mo-Fr 07:30 - 17:30 | Sa 08:00-17:00","utc_offset":"-300","gplace_id":null,"gplace_url":"https://maps.google.com/?cid=15523988838683851967","dealerID":69611,"trusted":false,"image_id":"v1597283975/chrysler_RM.png","phone":"4054284115","cityStateSlug":"el-reno.ok","slug":"El-Reno.OK/frontier+cdjr","location":"35.5086873,-97.9392411","brandsList":["chrysler","dodge","jeep","ram"]},{"id":12434,"crm_id":67057231,"name":"Roberts Auto Center","dealerSlug":"roberts+auto+center","city_state_slug":"Pryor.OK","brand":"Buick,Chevrolet,GMC","website":"www.robertsautocenter.com","address":"3301 S Mill St","city":"Pryor","state":"OK","zip":74361,"latitude":36.2739726,"longitude":-95.3297744,"phone_number_service":"8446411971","phone_number_main":"9188030387","service_hours":"Mo-Fr 07:30 - 17:30 | Sa 07:30-14:00","utc_offset":"-300","gplace_id":null,"gplace_url":"https://maps.google.com/?cid=13848944584297483742","dealerID":69628,"trusted":false,"image_id":"v1597283981/buick_RM.png","phone":"8446411971","cityStateSlug":"pryor.ok","slug":"Pryor.OK/roberts+auto+center","location":"36.2739726,-95.3297744","brandsList":["buick","chevrolet","gmc"]},{"id":2392,"crm_id":67057591,"name":"Byford Chrysler Dodge Jeep RAM of Chickasha","dealerSlug":"byford+chrysler+dodge+jeep+ram+of+chickasha","city_state_slug":"Chickasha.OK","brand":"Chrysler,Dodge,Jeep,RAM","website":"www.byfordcdjrofchickasha.com","address":"3121 S 4th St","city":"Chickasha","state":"OK","zip":73018,"latitude":35.0164677,"longitude":-97.9339683,"phone_number_service":"4053107845","phone_number_main":"4056224116","service_hours":"Mo-Fr 07:30 - 18:00 | Sa 08:00 - 12:00","utc_offset":"-300","gplace_id":null,"gplace_url":"https://maps.google.com/?cid=5148539047122761285","dealerID":69726,"trusted":false,"image_id":"v1597283975/chrysler_RM.png","phone":"4053107845","cityStateSlug":"chickasha.ok","slug":"Chickasha.OK/byford+chrysler+dodge+jeep+ram+of+chickasha","location":"35.0164677,-97.9339683","brandsList":["chrysler","dodge","jeep","ram"]},{"id":1878,"crm_id":67057957,"name":"Bob Moore INFINITI","dealerSlug":"bob+moore+infiniti","city_state_slug":"Oklahoma-City.OK","brand":"INFINITI","website":"www.bobmooreinfiniti.com","address":"13000 N Kelley Ave","city":"Oklahoma City","state":"OK","zip":73131,"latitude":35.6007931,"longitude":-97.4942493,"phone_number_service":"8667970554","phone_number_main":"4054631168","service_hours":"Mo-Fr 07:00 - 18:00 | Sa 08:00 - 16:00","utc_offset":"-300","gplace_id":null,"gplace_url":"https://maps.google.com/?cid=18368211285083104463","dealerID":69820,"trusted":false,"image_id":"v1597283957/infiniti_RM.png","phone":"8667970554","cityStateSlug":"oklahoma-city.ok","slug":"Oklahoma-City.OK/bob+moore+infiniti","location":"35.6007931,-97.4942493","brandsList":["infiniti"]},{"id":1877,"crm_id":67058026,"name":"Bob Moore Ford","dealerSlug":"bob+moore+ford","city_state_slug":"Oklahoma-City.OK","brand":"Ford","website":"www.bobmooreford.com","address":"8948 S I-35 Service Rd","city":"Oklahoma City","state":"OK","zip":73149,"latitude":35.3782276,"longitude":-97.4931434,"phone_number_service":"8884840883","phone_number_main":"4057086489","service_hours":"Mo-Fr 07:00 - 18:00 | Sa 08:00 - 16:00","utc_offset":"-300","gplace_id":null,"gplace_url":"https://maps.google.com/?cid=288149831791303364","dealerID":69842,"trusted":false,"image_id":"v1597283967/ford_RM.png","phone":"8884840883","cityStateSlug":"oklahoma-city.ok","slug":"Oklahoma-City.OK/bob+moore+ford","location":"35.3782276,-97.4931434","brandsList":["ford"]},{"id":7052,"crm_id":67058083,"name":"Jack Kissee Ford","dealerSlug":"jack+kissee+ford","city_state_slug":"Claremore.OK","brand":"Ford","website":"www.kisseeford.com","address":"760 S Lynn Riggs","city":"Claremore","state":"OK","zip":74017,"latitude":36.3038889,"longitude":-95.6227778,"phone_number_service":"9183410101","phone_number_main":"9183410101","service_hours":"Mo-Fr 07:30 - 17:30","utc_offset":"-300","gplace_id":null,"gplace_url":"https://maps.google.com/?cid=16461998282839769082","dealerID":69859,"trusted":false,"image_id":"v1597283967/ford_RM.png","phone":"9183410101","cityStateSlug":"claremore.ok","slug":"Claremore.OK/jack+kissee+ford","location":"36.3038889,-95.6227778","brandsList":["ford"]},{"id":9231,"crm_id":67058632,"name":"Marc Miller Buick-GMC","dealerSlug":"marc+miller+buick+gmc","city_state_slug":"Tulsa.OK","brand":"Buick,GMC","website":"www.marcmillerbuickgmc.com","address":"4700 S Memorial Dr","city":"Tulsa","state":"OK","zip":74145,"latitude":36.0954662,"longitude":-95.8883278,"phone_number_service":"9187704364","phone_number_main":"9187704364","service_hours":"Mo-Fr 07:00 - 18:00","utc_offset":"-300","gplace_id":null,"gplace_url":"https://maps.google.com/?cid=667406525609339023","dealerID":70021,"trusted":false,"image_id":"v1597283981/buick_RM.png","phone":"9187704364","cityStateSlug":"tulsa.ok","slug":"Tulsa.OK/marc+miller+buick+gmc","location":"36.0954662,-95.8883278","brandsList":["buick","gmc"]},{"id":7398,"crm_id":67058647,"name":"Jim Glover On The River","dealerSlug":"jim+glover+on+the+river","city_state_slug":"Tulsa.OK","brand":"Chevrolet","website":"www.jimgloverchevy.com","address":"707 W 51st St","city":"Tulsa","state":"OK","zip":74107,"latitude":36.091402,"longitude":-95.997371,"phone_number_service":"9189018925","phone_number_main":"9182366946","service_hours":"Mo-Fr 07:00-18:00 | Sa 07:00-16:00","utc_offset":"-300","gplace_id":null,"gplace_url":"https://maps.google.com/?cid=2241348776531554887","dealerID":70026,"trusted":false,"image_id":"v1597284079/chevy_ms.png","phone":"9189018925","cityStateSlug":"tulsa.ok","slug":"Tulsa.OK/jim+glover+on+the+river","location":"36.091402,-95.997371","brandsList":["chevrolet"]},{"id":5048,"crm_id":67058785,"name":"Fowler Toyota of Tulsa","dealerSlug":"fowler+toyota+of+tulsa","city_state_slug":"Tulsa.OK","brand":"Toyota","website":"www.fowlertoyotatulsa.com","address":"6868 East Broken Arrow Frontage Road","city":"Tulsa","state":"OK","zip":74145,"latitude":36.1147025,"longitude":-95.9005124,"phone_number_service":"9188772100","phone_number_main":"9188772100","service_hours":"Mo-Fr 07:00 - 21:00 | Sa 07:00 - 17:30","utc_offset":"-300","gplace_id":null,"gplace_url":"https://maps.google.com/?cid=12724456200670248540","dealerID":70067,"trusted":false,"image_id":"v1597284039/toyota_ms.png","phone":"9188772100","cityStateSlug":"tulsa.ok","slug":"Tulsa.OK/fowler+toyota+of+tulsa","location":"36.1147025,-95.9005124","brandsList":["toyota"]},{"id":8756,"crm_id":67058890,"name":"Lexus of Tulsa","dealerSlug":"lexus+of+tulsa","city_state_slug":"Tulsa.OK","brand":"Lexus","website":"www.lexusoftulsa.com","address":"4210 S Memorial Dr","city":"Tulsa","state":"OK","zip":74145,"latitude":36.1005487,"longitude":-95.8879892,"phone_number_service":"8886320928","phone_number_main":"9186653987","service_hours":"Mo-Fr 07:00 - 18:00 | Sa 08:00 - 17:00","utc_offset":"-300","gplace_id":null,"gplace_url":"https://maps.google.com/?cid=1922629914044445403","dealerID":70100,"trusted":false,"image_id":"v1597284042/lexus_ms.png","phone":"8886320928","cityStateSlug":"tulsa.ok","slug":"Tulsa.OK/lexus+of+tulsa","location":"36.1005487,-95.8879892","brandsList":["lexus"]},{"id":7147,"crm_id":67059598,"name":"Jaguar of Oklahoma City","dealerSlug":"jaguar+of+oklahoma+city","city_state_slug":"Oklahoma-City.OK","brand":"Jaguar","website":"www.jaguaroklahomacity.com","address":"13010 Broadway Ext","city":"Oklahoma City","state":"OK","zip":73114,"latitude":35.6020182,"longitude":-97.5004174,"phone_number_service":"8889604501","phone_number_main":"4057757080","service_hours":"Mo-Fr 07:00 - 18:00 | Sa 08:00 - 16:00","utc_offset":"-300","gplace_id":null,"gplace_url":"https://maps.google.com/?cid=6076891242610226752","dealerID":70285,"trusted":false,"image_id":"v1597283954/jaguar_RM.png","phone":"8889604501","cityStateSlug":"oklahoma-city.ok","slug":"Oklahoma-City.OK/jaguar+of+oklahoma+city","location":"35.6020182,-97.5004174","brandsList":["jaguar"]},{"id":7317,"crm_id":67059781,"name":"Jensen's Buick-GMC","dealerSlug":"jensens+buick+gmc","city_state_slug":"Fairview.OK","brand":"Buick,GMC","website":"www.jensensinc.com","address":"218 S Main Street","city":"Fairview","state":"OK","zip":73737,"latitude":36.2670987,"longitude":-98.4800823,"phone_number_service":"5802274455","phone_number_main":"5802274455","service_hours":"Mo-Fri : 08:00 - 17:30","utc_offset":"-300","gplace_id":null,"gplace_url":"https://maps.google.com/?cid=7557446891916212590","dealerID":70334,"trusted":false,"image_id":"v1597283981/buick_RM.png","phone":"5802274455","cityStateSlug":"fairview.ok","slug":"Fairview.OK/jensens+buick+gmc","location":"36.2670987,-98.4800823","brandsList":["buick","gmc"]},{"id":4425,"crm_id":67060330,"name":"Ed Wallace Ford","dealerSlug":"ed+wallace+ford","city_state_slug":"Hugo.OK","brand":"Ford","website":"www.edwallaceford.com","address":"1700 E Jackson St","city":"Hugo","state":"OK","zip":74743,"latitude":34.0061573,"longitude":-95.4915044,"phone_number_service":"8772907237","phone_number_main":"5803266448","service_hours":"Mo-Fr 08:00 - 17:00","utc_offset":"-300","gplace_id":null,"gplace_url":"https://maps.google.com/?cid=13281347439941021260","dealerID":70490,"trusted":false,"image_id":"v1597283967/ford_RM.png","phone":"8772907237","cityStateSlug":"hugo.ok","slug":"Hugo.OK/ed+wallace+ford","location":"34.0061573,-95.4915044","brandsList":["ford"]},{"id":7417,"crm_id":67060648,"name":"Jim Norton Toyota of Oklahoma City","dealerSlug":"jim+norton+toyota+of+oklahoma+city","city_state_slug":"Oklahoma-City.OK","brand":"Toyota","website":"www.jimnortontoyotaokc.com","address":"8401 NW Expressway","city":"Oklahoma City","state":"OK","zip":73162,"latitude":35.5702825,"longitude":-97.6634464,"phone_number_service":"4056037856","phone_number_main":"4057211911","service_hours":"Mo-Fr 07:00 - 19:00 | Sa 08:00 - 17:00","utc_offset":"-300","gplace_id":null,"gplace_url":"https://maps.google.com/?cid=2623747632654095710","dealerID":70575,"trusted":false,"image_id":"v1597284039/toyota_ms.png","phone":"4056037856","cityStateSlug":"oklahoma-city.ok","slug":"Oklahoma-City.OK/jim+norton+toyota+of+oklahoma+city","location":"35.5702825,-97.6634464","brandsList":["toyota"]},{"id":12215,"crm_id":67061134,"name":"Regional Hyundai","dealerSlug":"regional+hyundai","city_state_slug":"Broken-Arrow.OK","brand":"Hyundai","website":"www.regionalhyundai.com","address":"2380 W Kenosha St #8977","city":"Broken Arrow","state":"OK","zip":74012,"latitude":36.062134,"longitude":-95.819555,"phone_number_service":"8882914269","phone_number_main":"8887183394","service_hours":"Mo-Fr 07:30 - 18:00 | Sa 07:30 - 18:00","utc_offset":"-300","gplace_id":null,"gplace_url":"https://maps.google.com/?cid=7156785237446288034","dealerID":70715,"trusted":false,"image_id":"v1597283959/hyundai_RM.png","phone":"8882914269","cityStateSlug":"broken-arrow.ok","slug":"Broken-Arrow.OK/regional+hyundai","location":"36.062134,-95.819555","brandsList":["hyundai"]},{"id":4446,"crm_id":67074460,"name":"Edmond Hyundai","dealerSlug":"edmond+hyundai","city_state_slug":"Oklahoma-City.OK","brand":"Hyundai","website":"edmondhyundai.com","address":"14137 Broadway Ext","city":"Oklahoma City","state":"OK","zip":73013,"latitude":35.6135518,"longitude":-97.4951581,"phone_number_service":"8779687803","phone_number_main":"4056964950","service_hours":"Mo-Fr 07:00 - 18:00 | Sa 08:00 - 16:00","utc_offset":"-300","gplace_id":null,"gplace_url":"https://maps.google.com/?cid=304217398120472245","dealerID":73514,"trusted":false,"image_id":"v1597283959/hyundai_RM.png","phone":"8779687803","cityStateSlug":"oklahoma-city.ok","slug":"Oklahoma-City.OK/edmond+hyundai","location":"35.6135518,-97.4951581","brandsList":["hyundai"]},{"id":7547,"crm_id":67074463,"name":"John Holt Auto Group","dealerSlug":"john+holt+auto+group","city_state_slug":"Chickasha.OK","brand":"Chrysler,Dodge,Jeep,RAM","website":"www.johnholtok.com","address":"2501 US-81","city":"Chickasha","state":"OK","zip":73018,"latitude":35.022618,"longitude":-97.933403,"phone_number_service":"8664128718","phone_number_main":"4052242132","service_hours":"Mo-Fr 07:00 - 17:30","utc_offset":"-300","gplace_id":null,"gplace_url":"https://maps.google.com/?cid=9953347974853928710","dealerID":73515,"trusted":false,"image_id":"v1597283975/chrysler_RM.png","phone":"8664128718","cityStateSlug":"chickasha.ok","slug":"Chickasha.OK/john+holt+auto+group","location":"35.022618,-97.933403","brandsList":["chrysler","dodge","jeep","ram"]},{"id":2390,"crm_id":67074466,"name":"Byford Buick GMC","dealerSlug":"byford+buick+gmc","city_state_slug":"Chickasha.OK","brand":"Buick,GMC","website":"www.byfordauto.com","address":"2900 US-81","city":"Chickasha","state":"OK","zip":73018,"latitude":35.018202,"longitude":-97.936052,"phone_number_service":"8664567188","phone_number_main":"4052240475","service_hours":"Mo-Fr 07:30 - 18:00 | Sa 08:00 - 16:00","utc_offset":"-300","gplace_id":null,"gplace_url":"https://maps.google.com/?cid=11110605517698943487","dealerID":73516,"trusted":false,"image_id":"v1597283981/buick_RM.png","phone":"8664567188","cityStateSlug":"chickasha.ok","slug":"Chickasha.OK/byford+buick+gmc","location":"35.018202,-97.936052","brandsList":["buick","gmc"]},{"id":4042,"crm_id":67074469,"name":"Diffee Ford","dealerSlug":"diffee+ford","city_state_slug":"El-Reno.OK","brand":"Ford","website":"www.diffeeford.net","address":"1681 East I-40","city":"El Reno","state":"OK","zip":73036,"latitude":35.5028255,"longitude":-97.9402958,"phone_number_service":"8665493327","phone_number_main":"4052624546","service_hours":"Mo-Fr 07:30 - 18:00 | Sa 07:30 - 12:00","utc_offset":"-300","gplace_id":null,"gplace_url":"https://maps.google.com/?cid=6759674811671292703","dealerID":73517,"trusted":false,"image_id":"v1597283967/ford_RM.png","phone":"8665493327","cityStateSlug":"el-reno.ok","slug":"El-Reno.OK/diffee+ford","location":"35.5028255,-97.9402958","brandsList":["ford"]},{"id":12332,"crm_id":67074472,"name":"Rick Jones Buick GMC","dealerSlug":"rick+jones+buick+gmc","city_state_slug":"El-Reno.OK","brand":"Buick,GMC","website":"www.rickjonesmotors.com","address":"2830 S Hwy 81 Srv Rd","city":"El Reno","state":"OK","zip":73036,"latitude":35.5041713,"longitude":-97.9384656,"phone_number_service":"4052954686","phone_number_main":"4052954675","service_hours":"Mo-Fr 07:30 - 17:30","utc_offset":"-300","gplace_id":null,"gplace_url":"https://maps.google.com/?cid=1462347765360612707","dealerID":73518,"trusted":false,"image_id":"v1597283981/buick_RM.png","phone":"4052954686","cityStateSlug":"el-reno.ok","slug":"El-Reno.OK/rick+jones+buick+gmc","location":"35.5041713,-97.9384656","brandsList":["buick","gmc"]},{"id":4568,"crm_id":67074478,"name":"Eskridge Chevrolet","dealerSlug":"eskridge+chevrolet","city_state_slug":"Guthrie.OK","brand":"Chevrolet","website":"www.eskridgechevy.com","address":"5307 South Division","city":"Guthrie","state":"OK","zip":73044,"latitude":35.8232482,"longitude":-97.420307,"phone_number_service":"4052934217","phone_number_main":"4052930100","service_hours":"Mo-Fr 07:30 - 18:00 | Sa 08:00 - 13:00","utc_offset":"-300","gplace_id":null,"gplace_url":"https://maps.google.com/?cid=11254498681128691304","dealerID":73519,"trusted":false,"image_id":"v1597284079/chevy_ms.png","phone":"4052934217","cityStateSlug":"guthrie.ok","slug":"Guthrie.OK/eskridge+chevrolet","location":"35.8232482,-97.420307","brandsList":["chevrolet"]},{"id":14847,"crm_id":67074481,"name":"Vance Country Ford","dealerSlug":"vance+country+ford","city_state_slug":"Guthrie.OK","brand":"Ford","website":"www.vancecountryford.net","address":"5400 S Division","city":"Guthrie","state":"OK","zip":73044,"latitude":35.8230186,"longitude":-97.4171534,"phone_number_service":"4052950071","phone_number_main":"4052822727","service_hours":"Mo-Fr 07:00 - 18:00 | Sa 08:00 - 14:00","utc_offset":"-300","gplace_id":null,"gplace_url":"https://maps.google.com/?cid=11452810108807271511","dealerID":73520,"trusted":false,"image_id":"v1597283967/ford_RM.png","phone":"4052950071","cityStateSlug":"guthrie.ok","slug":"Guthrie.OK/vance+country+ford","location":"35.8230186,-97.4171534","brandsList":["ford"]},{"id":4543,"crm_id":67074484,"name":"England Ford","dealerSlug":"england+ford","city_state_slug":"Hinton.OK","brand":"Ford","website":"www.englandford.net","address":"119 N Broadway","city":"Hinton","state":"OK","zip":73047,"latitude":35.4711089,"longitude":-98.3561247,"phone_number_service":"4055423242","phone_number_main":"4055423242","service_hours":"Mo-Sa 08:00 - 18:00","utc_offset":"-300","gplace_id":null,"gplace_url":"https://maps.google.com/?cid=413003233824752904","dealerID":73521,"trusted":false,"image_id":"v1597283967/ford_RM.png","phone":"4055423242","cityStateSlug":"hinton.ok","slug":"Hinton.OK/england+ford","location":"35.4711089,-98.3561247","brandsList":["ford"]},{"id":5049,"crm_id":67074490,"name":"Fowler Volkswagen of Norman","dealerSlug":"fowler+volkswagen+of+norman","city_state_slug":"Norman.OK","brand":"Volkswagen","website":"www.fowlervw.com","address":"617 N Interstate Dr","city":"Norman","state":"OK","zip":73069,"latitude":35.2268155,"longitude":-97.484025,"phone_number_service":"4052530075","phone_number_main":"4052171800","service_hours":"Mo-Fr 07:00 - 19:00 | Sa 08:00 - 16:00","utc_offset":"-300","gplace_id":null,"gplace_url":"https://maps.google.com/?cid=14957473516298206208","dealerID":73522,"trusted":false,"image_id":"v1597283902/volkswagen.png","phone":"4052530075","cityStateSlug":"norman.ok","slug":"Norman.OK/fowler+volkswagen+of+norman","location":"35.2268155,-97.484025","brandsList":["volkswagen"]},{"id":5046,"crm_id":67074493,"name":"Fowler Honda","dealerSlug":"fowler+honda","city_state_slug":"Norman.OK","brand":"Honda","website":"www.fowlerhonda.com","address":"955 N Interstate Dr","city":"Norman","state":"OK","zip":73069,"latitude":35.2300849,"longitude":-97.4844605,"phone_number_service":"4053893774","phone_number_main":"4053291077","service_hours":"Mo-Fr 07:00 - 21:00 | Sa 08:00 - 16:00","utc_offset":"-300","gplace_id":null,"gplace_url":"https://maps.google.com/?cid=4057885982766379856","dealerID":73523,"trusted":false,"image_id":"v1597284047/honda_ms.png","phone":"4053893774","cityStateSlug":"norman.ok","slug":"Norman.OK/fowler+honda","location":"35.2300849,-97.4844605","brandsList":["honda"]},{"id":1881,"crm_id":67074496,"name":"Bob Moore Nissan","dealerSlug":"bob+moore+nissan","city_state_slug":"Norman.OK","brand":"Nissan","website":"bobmoorenissannorman.com","address":"3901 Journey Pkwy","city":"Norman","state":"OK","zip":73072,"latitude":35.2664068,"longitude":-97.4872397,"phone_number_service":"8884518481","phone_number_main":"8888561542","service_hours":"Mo-Fr 07:00 - 18:00 | Sa 08:00 - 16:00","utc_offset":"-300","gplace_id":null,"gplace_url":"https://maps.google.com/?cid=2763563456097594316","dealerID":73524,"trusted":false,"image_id":"v1597283926/nissan_RM.png","phone":"8884518481","cityStateSlug":"norman.ok","slug":"Norman.OK/bob+moore+nissan","location":"35.2664068,-97.4872397","brandsList":["nissan"]},{"id":5047,"crm_id":67074499,"name":"Fowler Toyota of Norman","dealerSlug":"fowler+toyota+of+norman","city_state_slug":"Norman.OK","brand":"Toyota","website":"www.fowlertoyota.com","address":"4050 N Interstate Dr","city":"Norman","state":"OK","zip":73072,"latitude":35.2682843,"longitude":-97.4872426,"phone_number_service":"4053225799","phone_number_main":"4053225799","service_hours":"Mo-Fr 07:00 - 21:00 | Sa 08:00 - 17:00","utc_offset":"-300","gplace_id":null,"gplace_url":"https://maps.google.com/?cid=13564760138094744041","dealerID":73525,"trusted":false,"image_id":"v1597284039/toyota_ms.png","phone":"4053225799","cityStateSlug":"norman.ok","slug":"Norman.OK/fowler+toyota+of+norman","location":"35.2682843,-97.4872426","brandsList":["toyota"]},{"id":13071,"crm_id":67074505,"name":"Seth Wadley Chevrolet","dealerSlug":"seth+wadley+chevrolet","city_state_slug":"Pauls-Valley.OK","brand":"Chevrolet","website":"sethwadleychevrolet.com","address":"200 Ballard Rd","city":"Pauls Valley","state":"OK","zip":73075,"latitude":34.7426981,"longitude":-97.2635989,"phone_number_service":"8559846397","phone_number_main":"8559846596","service_hours":"Mo-Fr 07:30 - 17:30 | Sa 08:00 - 16:00","utc_offset":"-300","gplace_id":null,"gplace_url":"https://maps.google.com/?cid=13115580180206965617","dealerID":73526,"trusted":false,"image_id":"v1597284079/chevy_ms.png","phone":"8559846397","cityStateSlug":"pauls-valley.ok","slug":"Pauls-Valley.OK/seth+wadley+chevrolet","location":"34.7426981,-97.2635989","brandsList":["chevrolet"]},{"id":13073,"crm_id":67074508,"name":"Seth Wadley Ford","dealerSlug":"seth+wadley+ford","city_state_slug":"Pauls-Valley.OK","brand":"Ford","website":"sethwadleyford.com","address":"333 N Butler Rd","city":"Pauls Valley","state":"OK","zip":73075,"latitude":34.742578,"longitude":-97.26877,"phone_number_service":"8777102709","phone_number_main":"8777102709","service_hours":"Mo-Fr 07:30 - 17:30 | Sa 08:00 - 16:00","utc_offset":"-300","gplace_id":null,"gplace_url":"https://maps.google.com/?cid=3245006342305472130","dealerID":73527,"trusted":false,"image_id":"v1597283967/ford_RM.png","phone":"8777102709","cityStateSlug":"pauls-valley.ok","slug":"Pauls-Valley.OK/seth+wadley+ford","location":"34.742578,-97.26877","brandsList":["ford"]},{"id":14846,"crm_id":67074511,"name":"Vance Chevrolet Buick GMC","dealerSlug":"vance+chevrolet+buick+gmc","city_state_slug":"Perry.OK","brand":"Buick,Chevrolet,GMC","website":"www.vancechevrolet.net","address":"300 Charles R.","city":"Perry","state":"OK","zip":73077,"latitude":36.2869163,"longitude":-97.3284455,"phone_number_service":"5803362273","phone_number_main":"5803362273","service_hours":"Mo-Fr 07:30 - 18:00 | Sa 08:00-14:00","utc_offset":"-300","gplace_id":null,"gplace_url":"https://maps.google.com/?cid=16480818190473691272","dealerID":73528,"trusted":false,"image_id":"v1597283981/buick_RM.png","phone":"5803362273","cityStateSlug":"perry.ok","slug":"Perry.OK/vance+chevrolet+buick+gmc","location":"36.2869163,-97.3284455","brandsList":["buick","chevrolet","gmc"]},{"id":15751,"crm_id":67074517,"name":"Zeck Chevrolet","dealerSlug":"zeck+chevrolet","city_state_slug":"Purcell.OK","brand":"Chevrolet","website":"www.zeckchevrolet.com","address":"1601 N Green Ave","city":"Purcell","state":"OK","zip":73080,"latitude":35.0301809,"longitude":-97.3673398,"phone_number_service":"8333946831","phone_number_main":"4052532700","service_hours":"Mo-Fr  08:00 - 17:00","utc_offset":"-300","gplace_id":null,"gplace_url":"https://maps.google.com/?cid=8795752705138488508","dealerID":73529,"trusted":false,"image_id":"v1597284079/chevy_ms.png","phone":"8333946831","cityStateSlug":"purcell.ok","slug":"Purcell.OK/zeck+chevrolet","location":"35.0301809,-97.3673398","brandsList":["chevrolet"]},{"id":15752,"crm_id":67074520,"name":"Zeck Ford","dealerSlug":"zeck+ford","city_state_slug":"Purcell.OK","brand":"Ford","website":"www.zeckfordokc.com","address":"2311 N 9th Ave","city":"Purcell","state":"OK","zip":73080,"latitude":35.04096,"longitude":-97.373849,"phone_number_service":"4052534108","phone_number_main":"4052532900","service_hours":"Mo-Fr 08:00 - 17:00","utc_offset":"-300","gplace_id":null,"gplace_url":"https://maps.google.com/?cid=7054853509679246076","dealerID":73530,"trusted":false,"image_id":"v1597283967/ford_RM.png","phone":"4052534108","cityStateSlug":"purcell.ok","slug":"Purcell.OK/zeck+ford","location":"35.04096,-97.373849","brandsList":["ford"]},{"id":3595,"crm_id":67074523,"name":"Cummins Chevrolet Buick GMC Cadillac","dealerSlug":"cummins+chevrolet+buick+gmc+cadillac","city_state_slug":"Weatherford.OK","brand":"Buick,Chevrolet,GMC","website":"www.cumminsbpg.com","address":"1300 N Airport Rd","city":"Weatherford","state":"OK","zip":73096,"latitude":35.5384624,"longitude":-98.6570505,"phone_number_service":"8552639462","phone_number_main":"5807725521","service_hours":"Mo-Fr 08:00 - 17:30 | Sa 08:00 - 15:00","utc_offset":"-300","gplace_id":null,"gplace_url":"https://maps.google.com/?cid=8570804424688188356","dealerID":73531,"trusted":false,"image_id":"v1597283981/buick_RM.png","phone":"8552639462","cityStateSlug":"weatherford.ok","slug":"Weatherford.OK/cummins+chevrolet+buick+gmc+cadillac","location":"35.5384624,-98.6570505","brandsList":["buick","chevrolet","gmc"]},{"id":3596,"crm_id":67074526,"name":"Cummins Chrysler","dealerSlug":"cummins+chrysler","city_state_slug":"Weatherford.OK","brand":"Chrysler,Dodge,Jeep,RAM","website":"www.cumminschrysler.com","address":"4100 Carriage Way","city":"Weatherford","state":"OK","zip":73096,"latitude":35.5343621,"longitude":-98.6558023,"phone_number_service":"8442808154","phone_number_main":"8443017227","service_hours":"Mo-Fr 07:45 - 18:00 | Sa 07:30 - 15:00","utc_offset":"-300","gplace_id":null,"gplace_url":"https://maps.google.com/?cid=2484886430234885508","dealerID":73532,"trusted":false,"image_id":"v1597283975/chrysler_RM.png","phone":"8442808154","cityStateSlug":"weatherford.ok","slug":"Weatherford.OK/cummins+chrysler","location":"35.5343621,-98.6558023","brandsList":["chrysler","dodge","jeep","ram"]},{"id":15421,"crm_id":67074529,"name":"Westpointe Chrysler Jeep Dodge","dealerSlug":"westpointe+chrysler+jeep+dodge","city_state_slug":"Yukon.OK","brand":"Chrysler,Dodge,Jeep,RAM","website":"www.westpointechryslerjeepdodge.com","address":"11001 W Reno Ave","city":"Yukon","state":"OK","zip":73099,"latitude":35.4661111,"longitude":-97.7152778,"phone_number_service":"4052651400","phone_number_main":"4052651400","service_hours":"Mo-Fr 07:00 - 18:00 | Sa 08:00 - 15:00","utc_offset":"-300","gplace_id":null,"gplace_url":"https://maps.google.com/?cid=15349472619015505904","dealerID":73533,"trusted":false,"image_id":"v1597283975/chrysler_RM.png","phone":"4052651400","cityStateSlug":"yukon.ok","slug":"Yukon.OK/westpointe+chrysler+jeep+dodge","location":"35.4661111,-97.7152778","brandsList":["chrysler","dodge","jeep","ram"]},{"id":7481,"crm_id":67074532,"name":"Joe Cooper Ford Of Yukon","dealerSlug":"joe+cooper+ford+of+yukon","city_state_slug":"Yukon.OK","brand":"Ford","website":"www.joecooperfordyukon.com","address":"1780 Garth Brooks Blvd","city":"Yukon","state":"OK","zip":73099,"latitude":35.479587,"longitude":-97.761843,"phone_number_service":"4053584632","phone_number_main":"4053541111","service_hours":"Mo-Fr 07:00 - 18:00 | Sa 08:00 16:00","utc_offset":"-300","gplace_id":null,"gplace_url":"https://maps.google.com/?cid=14947440800542585758","dealerID":73534,"trusted":false,"image_id":"v1597283967/ford_RM.png","phone":"4053584632","cityStateSlug":"yukon.ok","slug":"Yukon.OK/joe+cooper+ford+of+yukon","location":"35.479587,-97.761843","brandsList":["ford"]},{"id":9802,"crm_id":67074535,"name":"Mercedes-Benz of Oklahoma City","dealerSlug":"mercedes+benz+of+oklahoma+city","city_state_slug":"Edmond.OK","brand":"Mercedes-Benz","website":"www.mercedesbenzofokc.com","address":"14240 Broadway Extension Hwy","city":"Edmond","state":"OK","zip":73013,"latitude":35.6151954,"longitude":-97.4907422,"phone_number_service":"8885897965","phone_number_main":"4052361224","service_hours":"Mo-Fr 07:30 - 18:00 | Sa 08:30 - 16:00","utc_offset":"-300","gplace_id":null,"gplace_url":"https://maps.google.com/?cid=11445884800854546855","dealerID":73535,"trusted":false,"image_id":"v1597283934/mercedes_RM.png","phone":"8885897965","cityStateSlug":"edmond.ok","slug":"Edmond.OK/mercedes+benz+of+oklahoma+city","location":"35.6151954,-97.4907422","brandsList":["mercedes-benz"]},{"id":6729,"crm_id":67074538,"name":"Hudiburg Chevrolet Buick GMC","dealerSlug":"hudiburg+chevrolet+buick+gmc","city_state_slug":"Midwest-City.OK","brand":"Buick,Chevrolet,GMC","website":"www.hudiburggm.com","address":"6000 Tinker Diagonal","city":"Midwest City","state":"OK","zip":73110,"latitude":35.440247,"longitude":-97.4187301,"phone_number_service":"4058554111","phone_number_main":"8443623330","service_hours":"Mo-Fr 07:00-19:00 | Sa 08:00-16:00","utc_offset":"-300","gplace_id":null,"gplace_url":"https://maps.google.com/?cid=13336110241450238145","dealerID":73536,"trusted":false,"image_id":"v1597283981/buick_RM.png","phone":"4058554111","cityStateSlug":"midwest-city.ok","slug":"Midwest-City.OK/hudiburg+chevrolet+buick+gmc","location":"35.440247,-97.4187301","brandsList":["buick","chevrolet","gmc"]},{"id":5839,"crm_id":67074541,"name":"Greg Darnell Ford","dealerSlug":"greg+darnell+ford","city_state_slug":"Midwest-City.OK","brand":"Ford","website":"www.gregdarnellford.com/","address":"6601 S.E. 29th","city":"Midwest City","state":"OK","zip":73110,"latitude":35.4360111,"longitude":-97.4123349,"phone_number_service":"4057331611","phone_number_main":"4058137098","service_hours":"Mo-Fr 07:00 - 18:00 | Sa 08:00 - 13:00","utc_offset":"-300","gplace_id":null,"gplace_url":"https://maps.google.com/?cid=7379522895482523520","dealerID":73537,"trusted":false,"image_id":"v1597283967/ford_RM.png","phone":"4057331611","cityStateSlug":"midwest-city.ok","slug":"Midwest-City.OK/greg+darnell+ford","location":"35.4360111,-97.4123349","brandsList":["ford"]},{"id":3794,"crm_id":67074544,"name":"David Stanley Chrysler Jeep Dodge RAM","dealerSlug":"david+stanley+chrysler+jeep+dodge+ram","city_state_slug":"Midwest-City.OK","brand":"Chrysler,Dodge,Jeep,RAM","website":"www.davidstanleydodge.com","address":"7609 SE 29th St","city":"Midwest City","state":"OK","zip":73110,"latitude":35.2234434,"longitude":-97.4841371,"phone_number_service":"8667144315","phone_number_main":"4053218228","service_hours":"Mo-Fr 07:00 - 17:00 | Sa 07:00 - 16:00","utc_offset":"-300","gplace_id":null,"gplace_url":"https://maps.google.com/?cid=13206838972455511856","dealerID":73538,"trusted":false,"image_id":"v1597283975/chrysler_RM.png","phone":"8667144315","cityStateSlug":"midwest-city.ok","slug":"Midwest-City.OK/david+stanley+chrysler+jeep+dodge+ram","location":"35.2234434,-97.4841371","brandsList":["chrysler","dodge","jeep","ram"]},{"id":11724,"crm_id":67074547,"name":"Porsche Oklahoma City","dealerSlug":"porsche+oklahoma+city","city_state_slug":"Oklahoma-City.OK","brand":"Porsche","website":"www.porscheoklahomacity.com","address":"12910 Broadway Ext","city":"Oklahoma City","state":"OK","zip":73114,"latitude":35.6006568,"longitude":-97.5006867,"phone_number_service":"8883194118","phone_number_main":"4057488080","service_hours":"Mo-Fr 07:00 - 18:00 | Sa 08:00 - 16:00","utc_offset":"-300","gplace_id":null,"gplace_url":"https://maps.google.com/?cid=12125100927476213905","dealerID":73539,"trusted":false,"image_id":"v1597283919/porsche.jpg","phone":"8883194118","cityStateSlug":"oklahoma-city.ok","slug":"Oklahoma-City.OK/porsche+oklahoma+city","location":"35.6006568,-97.5006867","brandsList":["porsche"]},{"id":1882,"crm_id":67074550,"name":"Bob Moore Subaru","dealerSlug":"bob+moore+subaru","city_state_slug":"Oklahoma-City.OK","brand":"Subaru","website":"bobmooresubaru.com","address":"13010 N Kelley Ave","city":"Oklahoma City","state":"OK","zip":73131,"latitude":35.6014831,"longitude":-97.4943444,"phone_number_service":"8669066919","phone_number_main":"4057499049","service_hours":"Mo-Fr 07:00 - 18:00 | Sa 08:00 - 16:00","utc_offset":"-300","gplace_id":null,"gplace_url":"https://maps.google.com/?cid=1566813987937072284","dealerID":73540,"trusted":false,"image_id":"v1597283982/subaru_ms.png","phone":"8669066919","cityStateSlug":"oklahoma-city.ok","slug":"Oklahoma-City.OK/bob+moore+subaru","location":"35.6014831,-97.4943444","brandsList":["subaru"]},{"id":1843,"crm_id":67074553,"name":"Bob Howard Chevrolet","dealerSlug":"bob+howard+chevrolet","city_state_slug":"Oklahoma-City.OK","brand":"Chevrolet","website":"www.bobhowardchevrolet.com","address":"13130 Broadway Ext","city":"Oklahoma City","state":"OK","zip":73114,"latitude":35.5945226,"longitude":-97.5061098,"phone_number_service":"4054632528","phone_number_main":"","service_hours":"Mo-Sa 07:00 - 19:00","utc_offset":"-300","gplace_id":null,"gplace_url":"https://maps.google.com/?cid=16041392363484475821","dealerID":73541,"trusted":false,"image_id":"v1597284079/chevy_ms.png","phone":"4054632528","cityStateSlug":"oklahoma-city.ok","slug":"Oklahoma-City.OK/bob+howard+chevrolet","location":"35.5945226,-97.5061098","brandsList":["chevrolet"]},{"id":1846,"crm_id":67074556,"name":"Bob Howard Nissan","dealerSlug":"bob+howard+nissan","city_state_slug":"Oklahoma-City.OK","brand":"Nissan","website":"www.bobhowardnissan.com","address":"13200 Broadway Ext","city":"Oklahoma City","state":"OK","zip":73114,"latitude":35.6042708,"longitude":-97.4987797,"phone_number_service":"4053023455","phone_number_main":"4054785380","service_hours":"Mo-Sa 07:00 - 19:00","utc_offset":"-300","gplace_id":null,"gplace_url":"https://maps.google.com/?cid=9774446709152369831","dealerID":73542,"trusted":false,"image_id":"v1597283926/nissan_RM.png","phone":"4053023455","cityStateSlug":"oklahoma-city.ok","slug":"Oklahoma-City.OK/bob+howard+nissan","location":"35.6042708,-97.4987797","brandsList":["nissan"]},{"id":1844,"crm_id":67074559,"name":"Bob Howard Chrysler Jeep Dodge RAM","dealerSlug":"bob+howard+chrysler+jeep+dodge+ram","city_state_slug":"Oklahoma-City.OK","brand":"Chrysler,Dodge,Jeep,RAM","website":"www.bobhowardcjd.com","address":"13250 Broadway Ext","city":"Oklahoma City","state":"OK","zip":73114,"latitude":35.605576,"longitude":-97.497829,"phone_number_service":"4053025861","phone_number_main":"4053025888","service_hours":"Mo-Sa 07:00 - 19:00","utc_offset":"-300","gplace_id":null,"gplace_url":"https://maps.google.com/?cid=17131527145583897389","dealerID":73543,"trusted":false,"image_id":"v1597283975/chrysler_RM.png","phone":"4053025861","cityStateSlug":"oklahoma-city.ok","slug":"Oklahoma-City.OK/bob+howard+chrysler+jeep+dodge+ram","location":"35.605576,-97.497829","brandsList":["chrysler","dodge","jeep","ram"]},{"id":4570,"crm_id":67074565,"name":"Eskridge Lexus of Oklahoma City","dealerSlug":"eskridge+lexus+of+oklahoma+city","city_state_slug":"Oklahoma-City.OK","brand":"Lexus","website":"www.eskridgelexus.com","address":"700 W Memorial Rd","city":"Oklahoma City","state":"OK","zip":73114,"latitude":35.608042,"longitude":-97.526723,"phone_number_service":"4057559000","phone_number_main":"4057559000","service_hours":"Mo-Fr 07:30 - 18:00 | Sa 08:00-16:00","utc_offset":"-300","gplace_id":null,"gplace_url":"https://maps.google.com/?cid=3049691350440674031","dealerID":73544,"trusted":false,"image_id":"v1597284042/lexus_ms.png","phone":"4057559000","cityStateSlug":"oklahoma-city.ok","slug":"Oklahoma-City.OK/eskridge+lexus+of+oklahoma+city","location":"35.608042,-97.526723","brandsList":["lexus"]},{"id":11043,"crm_id":67074568,"name":"Orr Nissan East","dealerSlug":"orr+nissan+east","city_state_slug":"Oklahoma-City.OK","brand":"Nissan","website":"www.orrnissaneast.com","address":"5108 SE 15th St","city":"Oklahoma City","state":"OK","zip":73115,"latitude":35.4488293,"longitude":-97.4277213,"phone_number_service":"4056007900","phone_number_main":"4056007900","service_hours":"Mo-Fr 07:30 - 18:00 | Sa 07:30 - 16:00","utc_offset":"-300","gplace_id":null,"gplace_url":"https://maps.google.com/?cid=7354066432160145421","dealerID":73545,"trusted":false,"image_id":"v1597283926/nissan_RM.png","phone":"4056007900","cityStateSlug":"oklahoma-city.ok","slug":"Oklahoma-City.OK/orr+nissan+east","location":"35.4488293,-97.4277213","brandsList":["nissan"]},{"id":10974,"crm_id":67074571,"name":"Oklahoma City Volkswagen","dealerSlug":"oklahoma+city+volkswagen","city_state_slug":"Oklahoma-City.OK","brand":"Volkswagen","website":"www.okcvw.com","address":"4710 NW 39th St","city":"Oklahoma City","state":"OK","zip":73122,"latitude":35.5105273,"longitude":-97.6065451,"phone_number_service":"4057870433","phone_number_main":"4057870433","service_hours":"Mo-Fr 07:30 - 18:00 | Sa 08:00 - 15:00","utc_offset":"-300","gplace_id":null,"gplace_url":"https://maps.google.com/?cid=6392047326432788084","dealerID":73546,"trusted":false,"image_id":"v1597283902/volkswagen.png","phone":"4057870433","cityStateSlug":"oklahoma-city.ok","slug":"Oklahoma-City.OK/oklahoma+city+volkswagen","location":"35.5105273,-97.6065451","brandsList":["volkswagen"]},{"id":1847,"crm_id":67074580,"name":"Bob Howard Toyota","dealerSlug":"bob+howard+toyota","city_state_slug":"Oklahoma-City.OK","brand":"Toyota","website":"www.bobhowardtoyota.com","address":"12929 N Kelley Ave","city":"Oklahoma City","state":"OK","zip":73131,"latitude":35.6014034,"longitude":-97.497169,"phone_number_service":"4059368666","phone_number_main":"4059368666","service_hours":"Mo-Sa 06:30 - 19:00","utc_offset":"-300","gplace_id":null,"gplace_url":"https://maps.google.com/?cid=15729313156976075627","dealerID":73547,"trusted":false,"image_id":"v1597284039/toyota_ms.png","phone":"4059368666","cityStateSlug":"oklahoma-city.ok","slug":"Oklahoma-City.OK/bob+howard+toyota","location":"35.6014034,-97.497169","brandsList":["toyota"]},{"id":1845,"crm_id":67074583,"name":"Bob Howard Honda","dealerSlug":"bob+howard+honda","city_state_slug":"Oklahoma-City.OK","brand":"Honda","website":"www.bobhowardhonda.com","address":"13201 N Kelley Ave","city":"Oklahoma City","state":"OK","zip":73131,"latitude":35.603972,"longitude":-97.4968497,"phone_number_service":"4057538778","phone_number_main":"4057538700","service_hours":"Mo-Fr 06:30 - 19:00 | Sa 07:00- 19:00","utc_offset":"-300","gplace_id":null,"gplace_url":"https://maps.google.com/?cid=2854724921517337197","dealerID":73548,"trusted":false,"image_id":"v1597284047/honda_ms.png","phone":"4057538778","cityStateSlug":"oklahoma-city.ok","slug":"Oklahoma-City.OK/bob+howard+honda","location":"35.603972,-97.4968497","brandsList":["honda"]},{"id":1876,"crm_id":67074589,"name":"Bob Moore Chrysler Dodge Jeep RAM","dealerSlug":"bob+moore+chrysler+dodge+jeep+ram","city_state_slug":"Oklahoma-City.OK","brand":"Chrysler,Dodge,Jeep,RAM","website":"bobmoorechryslerdodgejeepramokc.com","address":"7420 Northwest Expy","city":"Oklahoma City","state":"OK","zip":73132,"latitude":35.5597962,"longitude":-97.646345,"phone_number_service":"4057204000","phone_number_main":"4053670389","service_hours":"Mo-Fr 07:00 - 18:00 | Sa 07:00 - 16:00","utc_offset":"-300","gplace_id":null,"gplace_url":"https://maps.google.com/?cid=6079240463682961275","dealerID":73549,"trusted":false,"image_id":"v1597283975/chrysler_RM.png","phone":"4057204000","cityStateSlug":"oklahoma-city.ok","slug":"Oklahoma-City.OK/bob+moore+chrysler+dodge+jeep+ram","location":"35.5597962,-97.646345","brandsList":["chrysler","dodge","jeep","ram"]},{"id":5045,"crm_id":67074595,"name":"Fowler Dodge Chrysler Jeep and RAM","dealerSlug":"fowler+dodge+chrysler+jeep+and+ram","city_state_slug":"Oklahoma-City.OK","brand":"Chrysler,Dodge,Jeep,RAM","website":"www.fowlerdodge.com","address":"55 W Interstate 240 Service Rd","city":"Oklahoma City","state":"OK","zip":73139,"latitude":35.3930892,"longitude":-97.5143737,"phone_number_service":"4058968844","phone_number_main":"4054383346","service_hours":"Mo-Fr 07:00 - 21:00 | Sa 08:00 - 17:00","utc_offset":"-300","gplace_id":null,"gplace_url":"https://maps.google.com/?cid=13708657526881798310","dealerID":73550,"trusted":false,"image_id":"v1597283975/chrysler_RM.png","phone":"4058968844","cityStateSlug":"oklahoma-city.ok","slug":"Oklahoma-City.OK/fowler+dodge+chrysler+jeep+and+ram","location":"35.3930892,-97.5143737","brandsList":["chrysler","dodge","jeep","ram"]},{"id":11042,"crm_id":67074598,"name":"Orr Nissan Central","dealerSlug":"orr+nissan+central","city_state_slug":"Oklahoma-City.OK","brand":"Nissan","website":"orrnissancentral.com","address":"200 E Interstate 240 Service Rd","city":"Oklahoma City","state":"OK","zip":73149,"latitude":35.3910126,"longitude":-97.5088374,"phone_number_service":"8885180257","phone_number_main":"4056317771","service_hours":"Mo-Fr 07:00 - 18:00 | Sa 08:00 - 16:00","utc_offset":"-300","gplace_id":null,"gplace_url":"https://maps.google.com/?cid=3619121445755414803","dealerID":73551,"trusted":false,"image_id":"v1597283926/nissan_RM.png","phone":"8885180257","cityStateSlug":"oklahoma-city.ok","slug":"Oklahoma-City.OK/orr+nissan+central","location":"35.3910126,-97.5088374","brandsList":["nissan"]},{"id":11049,"crm_id":67074601,"name":"Orr Nissan West","dealerSlug":"orr+nissan+west","city_state_slug":"Oklahoma-City.OK","brand":"Nissan","website":"www.orrnissanwest.com","address":"8800 Northwest Expy","city":"Oklahoma City","state":"OK","zip":73162,"latitude":35.5709503,"longitude":-97.6705541,"phone_number_service":"8887032016","phone_number_main":"4054954700","service_hours":"Mo-Fr 07:00 - 18:00 | Sa 08:00 - 16:00","utc_offset":"-300","gplace_id":null,"gplace_url":"https://maps.google.com/?cid=690839932380842484","dealerID":73552,"trusted":false,"image_id":"v1597283926/nissan_RM.png","phone":"8887032016","cityStateSlug":"oklahoma-city.ok","slug":"Oklahoma-City.OK/orr+nissan+west","location":"35.5709503,-97.6705541","brandsList":["nissan"]},{"id":13295,"crm_id":67074604,"name":"Smicklas Chevrolet","dealerSlug":"smicklas+chevrolet","city_state_slug":"Oklahoma-City.OK","brand":"Chevrolet","website":"www.smicklaschevrolet.com","address":"8900 Northwest Expy","city":"Oklahoma City","state":"OK","zip":73162,"latitude":35.5716574,"longitude":-97.672421,"phone_number_service":"4054454182","phone_number_main":"4059435721","service_hours":"Mo-Sa 7:00-19:00","utc_offset":"-300","gplace_id":null,"gplace_url":"https://maps.google.com/?cid=1201446773114726125","dealerID":73553,"trusted":false,"image_id":"v1597284079/chevy_ms.png","phone":"4054454182","cityStateSlug":"oklahoma-city.ok","slug":"Oklahoma-City.OK/smicklas+chevrolet","location":"35.5716574,-97.672421","brandsList":["chevrolet"]},{"id":15638,"crm_id":67074610,"name":"Woody Ford","dealerSlug":"woody+ford","city_state_slug":"Madill.OK","brand":"Ford","website":"www.woodyfordmadill.com","address":"201 S 2nd St","city":"Madill","state":"OK","zip":73446,"latitude":34.089536,"longitude":-96.769742,"phone_number_service":"8664175650","phone_number_main":"5807953323","service_hours":"Mo-Fr 08:00-17:00","utc_offset":"-300","gplace_id":null,"gplace_url":"https://maps.google.com/?cid=9603283035115229939","dealerID":73554,"trusted":false,"image_id":"v1597283967/ford_RM.png","phone":"8664175650","cityStateSlug":"madill.ok","slug":"Madill.OK/woody+ford","location":"34.089536,-96.769742","brandsList":["ford"]},{"id":8524,"crm_id":67074613,"name":"Lawton Chrysler Jeep Dodge RAM","dealerSlug":"lawton+chrysler+jeep+dodge+ram","city_state_slug":"Lawton.OK","brand":"Chrysler,Dodge,Jeep,RAM","website":"www.lawtonchryslerjeepdodge.com","address":"215 SE Interstate Dr","city":"Lawton","state":"OK","zip":73501,"latitude":34.6035333,"longitude":-98.3779795,"phone_number_service":"5807136965","phone_number_main":"5803506000","service_hours":"Mo-Fr 07:00 - 18:00 | Sa 08:00 - 14:00","utc_offset":"-300","gplace_id":null,"gplace_url":"https://maps.google.com/?cid=7552188218516450841","dealerID":73555,"trusted":false,"image_id":"v1597283975/chrysler_RM.png","phone":"5807136965","cityStateSlug":"lawton.ok","slug":"Lawton.OK/lawton+chrysler+jeep+dodge+ram","location":"34.6035333,-98.3779795","brandsList":["chrysler","dodge","jeep","ram"]},{"id":8576,"crm_id":67074619,"name":"Legend Driven Buick GMC of Lawton","dealerSlug":"legend+driven+buick+gmc+of+lawton","city_state_slug":"Lawton.OK","brand":"Buick,Cadillac,GMC","website":"legenddrivenbuickgmccadillac.com","address":"5002 NW Cache Rd","city":"Lawton","state":"OK","zip":73505,"latitude":34.6225063,"longitude":-98.4551153,"phone_number_service":"5802624628","phone_number_main":"5802624516","service_hours":"Mo-Fr 07:30 - 17:30 | Sa 08:00 - 14:00","utc_offset":"-300","gplace_id":null,"gplace_url":"https://maps.google.com/?cid=12172459668488899198","dealerID":73556,"trusted":false,"image_id":"v1597283981/buick_RM.png","phone":"5802624628","cityStateSlug":"lawton.ok","slug":"Lawton.OK/legend+driven+buick+gmc+of+lawton","location":"34.6225063,-98.4551153","brandsList":["buick","cadillac","gmc"]},{"id":15543,"crm_id":67074622,"name":"Wilmes Ford-Lincoln","dealerSlug":"wilmes+ford+lincoln","city_state_slug":"Altus.OK","brand":"Ford,Lincoln","website":"www.wilmesford.com","address":"108 N Veterans Dr","city":"Altus","state":"OK","zip":73521,"latitude":34.6384456,"longitude":-99.2976711,"phone_number_service":"8662635153","phone_number_main":"5804820617","service_hours":"Mo-Fr 07:30 - 18:00","utc_offset":"-300","gplace_id":null,"gplace_url":"https://maps.google.com/?cid=7963292340183999759","dealerID":73557,"trusted":false,"image_id":"v1597283967/ford_RM.png","phone":"8662635153","cityStateSlug":"altus.ok","slug":"Altus.OK/wilmes+ford+lincoln","location":"34.6384456,-99.2976711","brandsList":["ford","lincoln"]},{"id":7586,"crm_id":67074625,"name":"Johnny Roberts Motors","dealerSlug":"johnny+roberts+motors","city_state_slug":"Altus.OK","brand":"Chrysler,Dodge,Jeep,RAM","website":"www.johnnyrobertsmotors.net","address":"1706 E Broadway","city":"Altus","state":"OK","zip":73521,"latitude":34.637307,"longitude":-99.309449,"phone_number_service":"5803647374","phone_number_main":"5804821901","service_hours":"Mo-Fr 08:30 - 18:00","utc_offset":"-300","gplace_id":null,"gplace_url":"https://maps.google.com/?cid=17205536433943453159","dealerID":73558,"trusted":false,"image_id":"v1597283975/chrysler_RM.png","phone":"5803647374","cityStateSlug":"altus.ok","slug":"Altus.OK/johnny+roberts+motors","location":"34.637307,-99.309449","brandsList":["chrysler","dodge","jeep","ram"]},{"id":15542,"crm_id":67074628,"name":"Wilmes Chevrolet Buick GMC","dealerSlug":"wilmes+chevrolet+buick+gmc","city_state_slug":"Altus.OK","brand":"Buick,Chevrolet,GMC","website":"wilmeschevrolet.net","address":"2215 E Broadway St","city":"Altus","state":"OK","zip":73521,"latitude":34.638507,"longitude":-99.303769,"phone_number_service":"8773948034","phone_number_main":"5803017169","service_hours":"Mo-Fr 08:00 - 18:00","utc_offset":"-300","gplace_id":null,"gplace_url":"https://maps.google.com/?cid=17933351280569701348","dealerID":73559,"trusted":false,"image_id":"v1597283981/buick_RM.png","phone":"8773948034","cityStateSlug":"altus.ok","slug":"Altus.OK/wilmes+chevrolet+buick+gmc","location":"34.638507,-99.303769","brandsList":["buick","chevrolet","gmc"]},{"id":2391,"crm_id":67074631,"name":"Byford Chrysler Dodge Jeep RAM","dealerSlug":"byford+chrysler+dodge+jeep+ram","city_state_slug":"Duncan.OK","brand":"Chrysler,Dodge,Jeep,RAM","website":"www.byfordcdjr.com","address":"8703 US-81","city":"Duncan","state":"OK","zip":73533,"latitude":34.5926463,"longitude":-97.9680691,"phone_number_service":"5803016325","phone_number_main":"5802552067","service_hours":"Mo-Fr 07:30 - 18:00 | Sa 07:30 - 16:00","utc_offset":"-300","gplace_id":null,"gplace_url":"https://maps.google.com/?cid=13174392932945172321","dealerID":73560,"trusted":false,"image_id":"v1597283975/chrysler_RM.png","phone":"5803016325","cityStateSlug":"duncan.ok","slug":"Duncan.OK/byford+chrysler+dodge+jeep+ram","location":"34.5926463,-97.9680691","brandsList":["chrysler","dodge","jeep","ram"]},{"id":9578,"crm_id":67074634,"name":"McKinsey Motors","dealerSlug":"mckinsey+motors","city_state_slug":"Clinton.OK","brand":"Ford","website":"www.mckinseymotors.com","address":"1415 Highway 183 S.","city":"Clinton","state":"OK","zip":73601,"latitude":35.4973473,"longitude":-98.9632478,"phone_number_service":"8448951103","phone_number_main":"5803230259","service_hours":"Mo-Fr 08:00 - 17:30 | Sa 08:00 - 12:00","utc_offset":"-300","gplace_id":null,"gplace_url":"https://maps.google.com/?cid=9139474712641089145","dealerID":73561,"trusted":false,"image_id":"v1597283967/ford_RM.png","phone":"8448951103","cityStateSlug":"clinton.ok","slug":"Clinton.OK/mckinsey+motors","location":"35.4973473,-98.9632478","brandsList":["ford"]},{"id":15438,"crm_id":67074637,"name":"Wheeler Ford","dealerSlug":"wheeler+ford","city_state_slug":"Cordell.OK","brand":"Ford","website":"www.wheelerford.com","address":"700 N. Glenn English","city":"Cordell","state":"OK","zip":73632,"latitude":35.2982468,"longitude":-98.988085,"phone_number_service":"8443837940","phone_number_main":"5808323313","service_hours":"Mo-Fr 08:00 - 17:30 | Sa 08:00 - 12:00","utc_offset":"-300","gplace_id":null,"gplace_url":"https://maps.google.com/?cid=1708125344970082415","dealerID":73562,"trusted":false,"image_id":"v1597283967/ford_RM.png","phone":"8443837940","cityStateSlug":"cordell.ok","slug":"Cordell.OK/wheeler+ford","location":"35.2982468,-98.988085","brandsList":["ford"]},{"id":4192,"crm_id":67074640,"name":"Doug Gray Chevrolet Buick GMC","dealerSlug":"doug+gray+chevrolet+buick+gmc","city_state_slug":"Elk-City.OK","brand":"Buick,Chevrolet,GMC","website":"www.douggraymotors.com/","address":"110 Access Rd","city":"Elk City","state":"OK","zip":73644,"latitude":35.4212602,"longitude":-99.3960571,"phone_number_service":"5808237571","phone_number_main":"5802250132","service_hours":"Mo-Fr 08:00 - 18:00 | Sa 08:00 - 16:00","utc_offset":"-300","gplace_id":null,"gplace_url":"https://maps.google.com/?cid=16375503547850143807","dealerID":73563,"trusted":false,"image_id":"v1597283981/buick_RM.png","phone":"5808237571","cityStateSlug":"elk-city.ok","slug":"Elk-City.OK/doug+gray+chevrolet+buick+gmc","location":"35.4212602,-99.3960571","brandsList":["buick","chevrolet","gmc"]},{"id":4193,"crm_id":67074643,"name":"Doug Gray Chrysler Dodge Jeep RAM","dealerSlug":"doug+gray+chrysler+dodge+jeep+ram","city_state_slug":"Elk-City.OK","brand":"Chrysler,Dodge,Jeep,RAM","website":"douggraychryslerdodgejeep.com","address":"2300 E 3rd St","city":"Elk City","state":"OK","zip":73644,"latitude":35.4137175,"longitude":-99.3789158,"phone_number_service":"5803771190","phone_number_main":"5802253005","service_hours":"Mo-Fr 07:30 - 18:00 | Sa 07:30 - 16:00","utc_offset":"-300","gplace_id":null,"gplace_url":"https://maps.google.com/?cid=3760984186398540342","dealerID":73564,"trusted":false,"image_id":"v1597283975/chrysler_RM.png","phone":"5803771190","cityStateSlug":"elk-city.ok","slug":"Elk-City.OK/doug+gray+chrysler+dodge+jeep+ram","location":"35.4137175,-99.3789158","brandsList":["chrysler","dodge","jeep","ram"]},{"id":1027,"crm_id":67074646,"name":"Barber-Dyson Ford Lincoln","dealerSlug":"barber+dyson+ford+lincoln","city_state_slug":"Elk-City.OK","brand":"Ford,Lincoln","website":"www.barberdysonford.net","address":"501 E Rte 66","city":"Elk City","state":"OK","zip":73644,"latitude":35.4224803,"longitude":-99.3982522,"phone_number_service":"5802978193","phone_number_main":"5802250450","service_hours":"Mo-Fr 07:30 - 18:00 | Sa 07:30 - 12:00","utc_offset":"-300","gplace_id":null,"gplace_url":"https://maps.google.com/?cid=18424781938391059212","dealerID":73565,"trusted":false,"image_id":"v1597283967/ford_RM.png","phone":"5802978193","cityStateSlug":"elk-city.ok","slug":"Elk-City.OK/barber+dyson+ford+lincoln","location":"35.4224803,-99.3982522","brandsList":["ford","lincoln"]},{"id":7218,"crm_id":67074652,"name":"Janzen GMC Truck Co.","dealerSlug":"janzen+gmc+truck+co","city_state_slug":"Enid.OK","brand":"GMC","website":"www.janzengmc.com","address":"2602 N Van Buren St","city":"Enid","state":"OK","zip":73703,"latitude":36.4222942,"longitude":-97.8912606,"phone_number_service":"5807014392","phone_number_main":"5807014392","service_hours":"Mo-Fr 08:00 - 17:30","utc_offset":"-300","gplace_id":null,"gplace_url":"https://maps.google.com/?cid=16633946934154363917","dealerID":73566,"trusted":false,"image_id":"v1597283963/gmc_RM.png","phone":"5807014392","cityStateSlug":"enid.ok","slug":"Enid.OK/janzen+gmc+truck+co","location":"36.4222942,-97.8912606","brandsList":["gmc"]},{"id":7083,"crm_id":67074661,"name":"Jacksons of Enid Chrysler Dodge Jeep RAM","dealerSlug":"jacksons+of+enid+chrysler+dodge+jeep+ram","city_state_slug":"Enid.OK","brand":"Chrysler,Dodge,Jeep,RAM","website":"www.jacksonchryslerdodgejeep.com","address":"4405 W Owen K Garriott Rd","city":"Enid","state":"OK","zip":73703,"latitude":36.3898558,"longitude":-97.933116,"phone_number_service":"8888928404","phone_number_main":"8888928404","service_hours":"Mo-Fr 07:30 - 17:30 | Sat 09:00 - 15:00","utc_offset":"-300","gplace_id":null,"gplace_url":"https://maps.google.com/?cid=7907317665018936315","dealerID":73567,"trusted":false,"image_id":"v1597283975/chrysler_RM.png","phone":"8888928404","cityStateSlug":"enid.ok","slug":"Enid.OK/jacksons+of+enid+chrysler+dodge+jeep+ram","location":"36.3898558,-97.933116","brandsList":["chrysler","dodge","jeep","ram"]},{"id":15265,"crm_id":67074664,"name":"Washburn Ford Lincoln","dealerSlug":"washburn+ford+lincoln","city_state_slug":"Alva.OK","brand":"Ford,Lincoln","website":"www.washburnford.com","address":"1819 Oklahoma Blvd","city":"Alva","state":"OK","zip":73717,"latitude":36.7972838,"longitude":-98.686445,"phone_number_service":"5803271296","phone_number_main":"5803271296","service_hours":"Mo-Fr  08:00 - 18:00","utc_offset":"-300","gplace_id":null,"gplace_url":"https://maps.google.com/?cid=12251161203355082300","dealerID":73568,"trusted":false,"image_id":"v1597283967/ford_RM.png","phone":"5803271296","cityStateSlug":"alva.ok","slug":"Alva.OK/washburn+ford+lincoln","location":"36.7972838,-98.686445","brandsList":["ford","lincoln"]},{"id":3499,"crm_id":67074667,"name":"Croft Country Chevrolet Buick GMC","dealerSlug":"croft+country+chevrolet+buick+gmc","city_state_slug":"Alva.OK","brand":"Buick,Chevrolet,GMC","website":"www.croftchevrolet.com/","address":"401 Oklahoma Blvd","city":"Alva","state":"OK","zip":73717,"latitude":36.7970614,"longitude":-98.6523629,"phone_number_service":"8886712780","phone_number_main":"8003754921","service_hours":"Mo-Fr 08:00 - 17:30","utc_offset":"-300","gplace_id":null,"gplace_url":"https://maps.google.com/?cid=2494326733575933497","dealerID":73569,"trusted":false,"image_id":"v1597283981/buick_RM.png","phone":"8886712780","cityStateSlug":"alva.ok","slug":"Alva.OK/croft+country+chevrolet+buick+gmc","location":"36.7970614,-98.6523629","brandsList":["buick","chevrolet","gmc"]},{"id":2393,"crm_id":67074670,"name":"Byford Ford of Fairview","dealerSlug":"byford+ford+of+fairview","city_state_slug":"Fairview.OK","brand":"Ford","website":"www.byfordfordoffairview.com","address":"205 S Main St","city":"Fairview","state":"OK","zip":73737,"latitude":36.2676544,"longitude":-98.4794878,"phone_number_service":"8886397608","phone_number_main":"5802274405","service_hours":"Mo-Fr 08:00 - 17:00","utc_offset":"-300","gplace_id":null,"gplace_url":"https://maps.google.com/?cid=8956949719497830411","dealerID":73570,"trusted":false,"image_id":"v1597283967/ford_RM.png","phone":"8886397608","cityStateSlug":"fairview.ok","slug":"Fairview.OK/byford+ford+of+fairview","location":"36.2676544,-98.4794878","brandsList":["ford"]},{"id":7609,"crm_id":67074673,"name":"Johnsons Of Kingfisher","dealerSlug":"johnsons+of+kingfisher","city_state_slug":"Kingfisher.OK","brand":"Chrysler,Dodge,Jeep,RAM","website":"www.johnsonsofkingfisher.com","address":"1801 S Main St","city":"Kingfisher","state":"OK","zip":73750,"latitude":35.839383,"longitude":-97.93189,"phone_number_service":"4052374589","phone_number_main":"4053755718","service_hours":"Mo-Fr 07:00 - 17:30 | Sa 07:00 - 12:00","utc_offset":"-300","gplace_id":null,"gplace_url":"https://maps.google.com/?cid=6550799458520146202","dealerID":73571,"trusted":false,"image_id":"v1597283975/chrysler_RM.png","phone":"4052374589","cityStateSlug":"kingfisher.ok","slug":"Kingfisher.OK/johnsons+of+kingfisher","location":"35.839383,-97.93189","brandsList":["chrysler","dodge","jeep","ram"]},{"id":9169,"crm_id":67074676,"name":"Mainer Ford","dealerSlug":"mainer+ford","city_state_slug":"Okarche.OK","brand":"Ford","website":"www.mainerfordofokarche.com","address":"1724 234th St NW","city":"Okarche","state":"OK","zip":73762,"latitude":35.7116326,"longitude":-97.9754472,"phone_number_service":"4053001079","phone_number_main":"4052637271","service_hours":"Mo-Fr 08:00 - 17:00","utc_offset":"-300","gplace_id":null,"gplace_url":"https://maps.google.com/?cid=10738889928006050218","dealerID":73572,"trusted":false,"image_id":"v1597283967/ford_RM.png","phone":"4053001079","cityStateSlug":"okarche.ok","slug":"Okarche.OK/mainer+ford","location":"35.7116326,-97.9754472","brandsList":["ford"]},{"id":2623,"crm_id":67074679,"name":"Carter Chevrolet","dealerSlug":"carter+chevrolet","city_state_slug":"Okarche.OK","brand":"Chevrolet","website":"www.carterchevroletok.com","address":"214 W Oklahoma Ave","city":"Okarche","state":"OK","zip":73762,"latitude":35.7260157,"longitude":-97.9760902,"phone_number_service":"4054000435","phone_number_main":"4052637252","service_hours":"Mo-Fr 09:00 - 17:00","utc_offset":"-300","gplace_id":null,"gplace_url":"https://maps.google.com/?cid=18039782217977466688","dealerID":73573,"trusted":false,"image_id":"v1597284079/chevy_ms.png","phone":"4054000435","cityStateSlug":"okarche.ok","slug":"Okarche.OK/carter+chevrolet","location":"35.7260157,-97.9760902","brandsList":["chevrolet"]},{"id":6995,"crm_id":67074685,"name":"Irwin Auto Co.","dealerSlug":"irwin+auto+co","city_state_slug":"Woodward.OK","brand":"Buick,Chevrolet,GMC","website":"www.irwinautoco.com","address":"3425 Williams Ave","city":"Woodward","state":"OK","zip":73801,"latitude":36.4104824,"longitude":-99.3783396,"phone_number_service":"8666471024","phone_number_main":"8666471024","service_hours":"Mo-Fr 07:30 - 18:00","utc_offset":"-300","gplace_id":null,"gplace_url":"https://maps.google.com/?cid=16305713449496106351","dealerID":73574,"trusted":false,"image_id":"v1597283981/buick_RM.png","phone":"8666471024","cityStateSlug":"woodward.ok","slug":"Woodward.OK/irwin+auto+co","location":"36.4104824,-99.3783396","brandsList":["buick","chevrolet","gmc"]},{"id":4060,"crm_id":67074688,"name":"Doenges Ford","dealerSlug":"doenges+ford","city_state_slug":"Bartlesville.OK","brand":"Ford","website":"www.doengesfordonline.com/","address":"1901 SE Washington Blvd","city":"Bartlesville","state":"OK","zip":74006,"latitude":36.7235204,"longitude":-95.9362812,"phone_number_service":"8884609042","phone_number_main":"9183330900","service_hours":"Mo-Fr 07:30 - 17:30 | Sa 07:30 - 13:00","utc_offset":"-300","gplace_id":null,"gplace_url":"https://maps.google.com/?cid=17962548212883625284","dealerID":73575,"trusted":false,"image_id":"v1597283967/ford_RM.png","phone":"8884609042","cityStateSlug":"bartlesville.ok","slug":"Bartlesville.OK/doenges+ford","location":"36.7235204,-95.9362812","brandsList":["ford"]},{"id":4061,"crm_id":67074691,"name":"Doenges Toyota","dealerSlug":"doenges+toyota","city_state_slug":"Bartlesville.OK","brand":"Toyota","website":"www.doengestoyota.com","address":"1911 SE Washington Blvd","city":"Bartlesville","state":"OK","zip":74006,"latitude":36.7229293,"longitude":-95.9361,"phone_number_service":"9182130664","phone_number_main":"9183330900","service_hours":"Mo-Fr 07:30 - 17:30 | Sa 07:30 - 13:00","utc_offset":"-300","gplace_id":null,"gplace_url":"https://maps.google.com/?cid=5239244865008888124","dealerID":73576,"trusted":false,"image_id":"v1597284039/toyota_ms.png","phone":"9182130664","cityStateSlug":"bartlesville.ok","slug":"Bartlesville.OK/doenges+toyota","location":"36.7229293,-95.9361","brandsList":["toyota"]},{"id":11265,"crm_id":67074694,"name":"Patriot Buick GMC","dealerSlug":"patriot+buick+gmc","city_state_slug":"Bartlesville.OK","brand":"Buick,GMC","website":"www.patriotbuickgmc.com/","address":"2001 SE Washington Blvd","city":"Bartlesville","state":"OK","zip":74006,"latitude":36.72199,"longitude":-95.936456,"phone_number_service":"9186089117","phone_number_main":"9183474045","service_hours":"Mo-Fr 07:30 - 18:00 | Sa 08:00 - 14:00","utc_offset":"-300","gplace_id":null,"gplace_url":"https://maps.google.com/?cid=3513079553629316556","dealerID":73577,"trusted":false,"image_id":"v1597283981/buick_RM.png","phone":"9186089117","cityStateSlug":"bartlesville.ok","slug":"Bartlesville.OK/patriot+buick+gmc","location":"36.72199,-95.936456","brandsList":["buick","gmc"]},{"id":11266,"crm_id":67074697,"name":"Patriot Chevrolet","dealerSlug":"patriot+chevrolet","city_state_slug":"Bartlesville.OK","brand":"Chevrolet","website":"www.bartlesvillechevy.com","address":"3800 SE Adams Rd","city":"Bartlesville","state":"OK","zip":74006,"latitude":36.7456581,"longitude":-95.9339298,"phone_number_service":"9188760798","phone_number_main":"9182011872","service_hours":"Mo-Fr 07:00 - 19:00 | Sa 08:00 - 14:00","utc_offset":"-300","gplace_id":null,"gplace_url":"https://maps.google.com/?cid=12798081359327768311","dealerID":73578,"trusted":false,"image_id":"v1597284079/chevy_ms.png","phone":"9188760798","cityStateSlug":"bartlesville.ok","slug":"Bartlesville.OK/patriot+chevrolet","location":"36.7456581,-95.9339298","brandsList":["chevrolet"]},{"id":9170,"crm_id":67074700,"name":"Mainer Ford of Bristow","dealerSlug":"mainer+ford+of+bristow","city_state_slug":"Bristow.OK","brand":"Ford","website":"www.mainerfordofbristow.com","address":"512 N Main St","city":"Bristow","state":"OK","zip":74010,"latitude":35.837112,"longitude":-96.3913495,"phone_number_service":"9188405596","phone_number_main":"9183673373","service_hours":"Mo-Fr 08:00 - 17:00","utc_offset":"-300","gplace_id":null,"gplace_url":"https://maps.google.com/?cid=1353371117773956692","dealerID":73579,"trusted":false,"image_id":"v1597283967/ford_RM.png","phone":"9188405596","cityStateSlug":"bristow.ok","slug":"Bristow.OK/mainer+ford+of+bristow","location":"35.837112,-96.3913495","brandsList":["ford"]},{"id":2913,"crm_id":67074706,"name":"Chris Nikel Chrysler Jeep Dodge RAM Fiat","dealerSlug":"chris+nikel+chrysler+jeep+dodge+ram+fiat","city_state_slug":"Broken-Arrow.OK","brand":"Chrysler,Dodge,Jeep,RAM,Fiat","website":"www.chrisnikel.com","address":"2920 N Aspen Ave","city":"Broken Arrow","state":"OK","zip":74012,"latitude":36.0822576,"longitude":-95.8163226,"phone_number_service":"9183046152","phone_number_main":"9183555000","service_hours":"Mo-Fr 07:00 - 20:00 | Sa 07:00 - 15:00","utc_offset":"-300","gplace_id":null,"gplace_url":"https://maps.google.com/?cid=13358984635551845228","dealerID":73580,"trusted":false,"image_id":"v1597283975/chrysler_RM.png","phone":"9183046152","cityStateSlug":"broken-arrow.ok","slug":"Broken-Arrow.OK/chris+nikel+chrysler+jeep+dodge+ram+fiat","location":"36.0822576,-95.8163226","brandsList":["chrysler","dodge","jeep","ram","fiat"]},{"id":7415,"crm_id":67074709,"name":"Jim Norton Chevrolet","dealerSlug":"jim+norton+chevrolet","city_state_slug":"Broken-Arrow.OK","brand":"Chevrolet","website":"www.jimnortonchevy.com","address":"3131 N ASPEN AVE.","city":"Broken Arrow","state":"OK","zip":74012,"latitude":36.0826626,"longitude":-95.8138805,"phone_number_service":"9186152184","phone_number_main":"9182516809","service_hours":"Mo-Fr 07:00 - 19:00 | Sa 08:00 - 17:00","utc_offset":"-300","gplace_id":null,"gplace_url":"https://maps.google.com/?cid=13727191463068383088","dealerID":73581,"trusted":false,"image_id":"v1597284079/chevy_ms.png","phone":"9186152184","cityStateSlug":"broken-arrow.ok","slug":"Broken-Arrow.OK/jim+norton+chevrolet","location":"36.0826626,-95.8138805","brandsList":["chevrolet"]},{"id":9640,"crm_id":67074712,"name":"Melton Sales","dealerSlug":"melton+sales","city_state_slug":"Claremore.OK","brand":"Chrysler,Dodge,Jeep,RAM","website":"www.meltonsales.com","address":"200 N Lynn Riggs Blvd","city":"Claremore","state":"OK","zip":74017,"latitude":36.3135009,"longitude":-95.6150208,"phone_number_service":"9189289010","phone_number_main":"9183411512","service_hours":"Mo-Fr 07:30 - 18:00 | Sa 08:00  - 13:00","utc_offset":"-300","gplace_id":null,"gplace_url":"https://maps.google.com/?cid=11738021931085779117","dealerID":73582,"trusted":false,"image_id":"v1597283975/chrysler_RM.png","phone":"9189289010","cityStateSlug":"claremore.ok","slug":"Claremore.OK/melton+sales","location":"36.3135009,-95.6150208","brandsList":["chrysler","dodge","jeep","ram"]},{"id":7894,"crm_id":67074715,"name":"Keystone Chevrolet","dealerSlug":"keystone+chevrolet","city_state_slug":"Sand-Springs.OK","brand":"Chevrolet","website":"www.keystonechevrolet.com","address":"8700 Charles Page Blvd","city":"Sand Springs","state":"OK","zip":74063,"latitude":36.1378726,"longitude":-96.094152,"phone_number_service":"9189321708","phone_number_main":"9189321706","service_hours":"Mo-Fr 07:00-18:00 | Sa 08:00-13:00","utc_offset":"-300","gplace_id":null,"gplace_url":"https://maps.google.com/?cid=6421275823150742838","dealerID":73583,"trusted":false,"image_id":"v1597284079/chevy_ms.png","phone":"9189321708","cityStateSlug":"sand-springs.ok","slug":"Sand-Springs.OK/keystone+chevrolet","location":"36.1378726,-96.094152","brandsList":["chevrolet"]},{"id":15544,"crm_id":67074718,"name":"Wilson Chevrolet","dealerSlug":"wilson+chevrolet","city_state_slug":"Stillwater.OK","brand":"Chevrolet","website":"www.wilsonchevyok.com","address":"4850 W 6th Ave","city":"Stillwater","state":"OK","zip":74074,"latitude":36.1171766,"longitude":-97.1247493,"phone_number_service":"8666020843","phone_number_main":"4053345134","service_hours":"Mo-Fr 07:30 - 17:30","utc_offset":"-300","gplace_id":null,"gplace_url":"https://maps.google.com/?cid=13379183839186401716","dealerID":73584,"trusted":false,"image_id":"v1597284079/chevy_ms.png","phone":"8666020843","cityStateSlug":"stillwater.ok","slug":"Stillwater.OK/wilson+chevrolet","location":"36.1171766,-97.1247493","brandsList":["chevrolet"]},{"id":7219,"crm_id":67074721,"name":"Janzen Toyota","dealerSlug":"janzen+toyota","city_state_slug":"Stillwater.OK","brand":"Toyota,Scion","website":"janzentoyota.com","address":"4900 W 6th Ave","city":"Stillwater","state":"OK","zip":74074,"latitude":36.1169316,"longitude":-97.1256415,"phone_number_service":"8882636052","phone_number_main":"4053724550","service_hours":"Mo-Fr 07:00 - 18:00| Sa 07:00 - 13:00","utc_offset":"-300","gplace_id":null,"gplace_url":"https://maps.google.com/?cid=8729740628672296225","dealerID":73585,"trusted":false,"image_id":"v1597284039/toyota_ms.png","phone":"8882636052","cityStateSlug":"stillwater.ok","slug":"Stillwater.OK/janzen+toyota","location":"36.1169316,-97.1256415","brandsList":["toyota","scion"]},{"id":9253,"crm_id":67074727,"name":"Mark Allen Buick GMC","dealerSlug":"mark+allen+buick+gmc","city_state_slug":"Tulsa.OK","brand":"Buick,GMC","website":"www.markallenbuickgmc.com","address":"6363 State Highway 66","city":"Tulsa","state":"OK","zip":74131,"latitude":36.0709561,"longitude":-96.0585111,"phone_number_service":"9187704377","phone_number_main":"9182366934","service_hours":"Mo-Fr 07:00 - 18:00 | Sa 08:00 - 12:00","utc_offset":"-300","gplace_id":null,"gplace_url":"https://maps.google.com/?cid=13029203465865673761","dealerID":73586,"trusted":false,"image_id":"v1597283981/buick_RM.png","phone":"9187704377","cityStateSlug":"tulsa.ok","slug":"Tulsa.OK/mark+allen+buick+gmc","location":"36.0709561,-96.0585111","brandsList":["buick","gmc"]},{"id":9254,"crm_id":67074730,"name":"Mark Allen Chevrolet","dealerSlug":"mark+allen+chevrolet","city_state_slug":"Glenpool.OK","brand":"Chevrolet","website":"www.markallenchevytulsa.com","address":"16837 US-75","city":"Glenpool","state":"OK","zip":74033,"latitude":35.9202047,"longitude":-96.010967,"phone_number_service":"9182368424","phone_number_main":"9182271070","service_hours":"Mo-Fr 07:00 - 18:00 | Sa 08:00 - 14:00","utc_offset":"-300","gplace_id":null,"gplace_url":"https://maps.google.com/?cid=3320969275426500124","dealerID":73587,"trusted":false,"image_id":"v1597284079/chevy_ms.png","phone":"9182368424","cityStateSlug":"glenpool.ok","slug":"Glenpool.OK/mark+allen+chevrolet","location":"35.9202047,-96.010967","brandsList":["chevrolet"]},{"id":13385,"crm_id":67074733,"name":"South Pointe Honda","dealerSlug":"south+pointe+honda","city_state_slug":"Tulsa.OK","brand":"Honda","website":"www.southpointehonda.com","address":"9124 S Memorial Dr","city":"Tulsa","state":"OK","zip":74133,"latitude":36.0308106,"longitude":-95.8874866,"phone_number_service":"9184910199","phone_number_main":"9184910100","service_hours":"Mo-Sa 07:00 - 19:00","utc_offset":"-300","gplace_id":null,"gplace_url":"https://maps.google.com/?cid=10995401655312107189","dealerID":73588,"trusted":false,"image_id":"v1597284047/honda_ms.png","phone":"9184910199","cityStateSlug":"tulsa.ok","slug":"Tulsa.OK/south+pointe+honda","location":"36.0308106,-95.8874866","brandsList":["honda"]},{"id":13383,"crm_id":67074736,"name":"South Pointe Chevrolet","dealerSlug":"south+pointe+chevrolet","city_state_slug":"Tulsa.OK","brand":"Chevrolet","website":"www.southpointechevrolet.com","address":"9146 S Memorial Dr","city":"Tulsa","state":"OK","zip":74133,"latitude":36.029985,"longitude":-95.887913,"phone_number_service":"9187709710","phone_number_main":"9187709710","service_hours":"Mo-Sa 07:00 - 19:00","utc_offset":"-300","gplace_id":null,"gplace_url":"https://maps.google.com/?cid=2116649151196441943","dealerID":73589,"trusted":false,"image_id":"v1597284079/chevy_ms.png","phone":"9187709710","cityStateSlug":"tulsa.ok","slug":"Tulsa.OK/south+pointe+chevrolet","location":"36.029985,-95.887913","brandsList":["chevrolet"]},{"id":13384,"crm_id":67074739,"name":"South Pointe Chrysler Dodge Jeep RAM","dealerSlug":"south+pointe+chrysler+dodge+jeep+ram","city_state_slug":"Tulsa.OK","brand":"Chrysler,Dodge,Jeep,RAM","website":"www.southpointcjd.com","address":"9240 S Memorial Dr","city":"Tulsa","state":"OK","zip":74133,"latitude":36.0284822,"longitude":-95.8880777,"phone_number_service":"9188843333","phone_number_main":"9185841481","service_hours":"Mo-Sa 7:00-19:00","utc_offset":"-300","gplace_id":null,"gplace_url":"https://maps.google.com/?cid=10878757938446044815","dealerID":73590,"trusted":false,"image_id":"v1597283975/chrysler_RM.png","phone":"9188843333","cityStateSlug":"tulsa.ok","slug":"Tulsa.OK/south+pointe+chrysler+dodge+jeep+ram","location":"36.0284822,-95.8880777","brandsList":["chrysler","dodge","jeep","ram"]},{"id":1773,"crm_id":67074742,"name":"BMW Of Tulsa","dealerSlug":"bmw+of+tulsa","city_state_slug":"Tulsa.OK","brand":"BMW","website":"www.bmwoftulsa.com","address":"9702 S Memorial Dr","city":"Tulsa","state":"OK","zip":74133,"latitude":36.0229352,"longitude":-95.8874056,"phone_number_service":"9183880660","phone_number_main":"9183880660","service_hours":"Mo-Sa 7:00-18:00","utc_offset":"-300","gplace_id":null,"gplace_url":"https://maps.google.com/?cid=2463963734977648707","dealerID":51559,"trusted":true,"image_id":"v1597283982/bmw_RM.png","phone":"9183880660","cityStateSlug":"tulsa.ok","slug":"Tulsa.OK/bmw+of+tulsa","location":"36.0229352,-95.8874056","brandsList":["bmw"]},{"id":7075,"crm_id":67074745,"name":"Jackie Cooper Nissan","dealerSlug":"jackie+cooper+nissan","city_state_slug":"Tulsa.OK","brand":"Nissan","website":"www.jackiecoopernissan.com","address":"9898 S Memorial Dr","city":"Tulsa","state":"OK","zip":74133,"latitude":36.021404,"longitude":-95.887573,"phone_number_service":"8558933653","phone_number_main":"9189216521","service_hours":"Mo-Fr 07:00-18:00 | Sa 08:00-17:00","utc_offset":"-300","gplace_id":null,"gplace_url":"https://maps.google.com/?cid=6930033857533119066","dealerID":73592,"trusted":false,"image_id":"v1597283926/nissan_RM.png","phone":"8558933653","cityStateSlug":"tulsa.ok","slug":"Tulsa.OK/jackie+cooper+nissan","location":"36.021404,-95.887573","brandsList":["nissan"]},{"id":8357,"crm_id":67074748,"name":"Land Rover Tulsa","dealerSlug":"land+rover+tulsa","city_state_slug":"Tulsa.OK","brand":"Land Rover","website":"www.tulsalandroveronline.com","address":"3905 S Memorial Dr","city":"Tulsa","state":"OK","zip":74145,"latitude":36.1067186,"longitude":-95.8855558,"phone_number_service":"8887350583","phone_number_main":"9186654294","service_hours":"Mo-Fr 07:00 - 18:00 | Sa 09:00 - 13:00","utc_offset":"-300","gplace_id":null,"gplace_url":"https://maps.google.com/?cid=16191689445398637807","dealerID":73593,"trusted":false,"image_id":"v1597283945/landrover_RM.png","phone":"8887350583","cityStateSlug":"tulsa.ok","slug":"Tulsa.OK/land+rover+tulsa","location":"36.1067186,-95.8855558","brandsList":["land rover"]},{"id":7173,"crm_id":67074751,"name":"Jaguar Tulsa","dealerSlug":"jaguar+tulsa","city_state_slug":"Tulsa.OK","brand":"Jaguar","website":"www.jaguartulsa.com","address":"3905 S Memorial Dr","city":"Tulsa","state":"OK","zip":74145,"latitude":36.1067186,"longitude":-95.8855558,"phone_number_service":"8884853296","phone_number_main":"9186654294","service_hours":"Mo-Fr 07:00 - 18:00 | Sa 09:00 - 13:00","utc_offset":"-300","gplace_id":null,"gplace_url":"https://maps.google.com/?cid=1527260418751490797","dealerID":73594,"trusted":false,"image_id":"v1597283954/jaguar_RM.png","phone":"8884853296","cityStateSlug":"tulsa.ok","slug":"Tulsa.OK/jaguar+tulsa","location":"36.1067186,-95.8855558","brandsList":["jaguar"]},{"id":15108,"crm_id":67074754,"name":"Volvo Cars of Tulsa","dealerSlug":"volvo+cars+of+tulsa","city_state_slug":"Tulsa.OK","brand":"Volvo","website":"www.volvocarsoftulsa.com","address":"4111 S Memorial Dr","city":"Tulsa","state":"OK","zip":74145,"latitude":36.1038111,"longitude":-95.8857751,"phone_number_service":"8773658848","phone_number_main":"8884146779","service_hours":"Mo-Fr 07:00 - 19:00 | Sa 08:00 - 14:00","utc_offset":"-300","gplace_id":null,"gplace_url":"https://maps.google.com/?cid=3345242131673932516","dealerID":73595,"trusted":false,"image_id":"v1597283901/volvo.jpg","phone":"8773658848","cityStateSlug":"tulsa.ok","slug":"Tulsa.OK/volvo+cars+of+tulsa","location":"36.1038111,-95.8857751","brandsList":["volvo"]},{"id":4080,"crm_id":67074757,"name":"Don Carlton Honda","dealerSlug":"don+carlton+honda","city_state_slug":"Tulsa.OK","brand":"Honda","website":"www.doncarltonhonda.com","address":"4141 S Memorial Dr","city":"Tulsa","state":"OK","zip":74145,"latitude":36.1019118,"longitude":-95.8852333,"phone_number_service":"8882309979","phone_number_main":"9186223636","service_hours":"Mo-Sa 7:00-18:00","utc_offset":"-300","gplace_id":null,"gplace_url":"https://maps.google.com/?cid=5936345126890450550","dealerID":73596,"trusted":false,"image_id":"v1597284047/honda_ms.png","phone":"8882309979","cityStateSlug":"tulsa.ok","slug":"Tulsa.OK/don+carlton+honda","location":"36.1019118,-95.8852333","brandsList":["honda"]},{"id":667,"crm_id":67074760,"name":"Audi Tulsa","dealerSlug":"audi+tulsa","city_state_slug":"Tulsa.OK","brand":"Audi","website":"www.auditulsa.com","address":"4208 S Memorial Dr","city":"Tulsa","state":"OK","zip":74145,"latitude":36.1016934,"longitude":-95.8870819,"phone_number_service":"8883768221","phone_number_main":"8883768221","service_hours":"Mo-Fr 07:00 - 18:00 | Sa 08:00 - 14:00","utc_offset":"-300","gplace_id":null,"gplace_url":"https://maps.google.com/?cid=9008109618179373294","dealerID":73597,"trusted":false,"image_id":"v1597283985/audi_RM.png","phone":"8883768221","cityStateSlug":"tulsa.ok","slug":"Tulsa.OK/audi+tulsa","location":"36.1016934,-95.8870819","brandsList":["audi"]},{"id":4142,"crm_id":67074763,"name":"Don Thornton Volkswagen of Tulsa","dealerSlug":"don+thornton+volkswagen+of+tulsa","city_state_slug":"Tulsa.OK","brand":"Volkswagen","website":"www.donthorntonvw.com","address":"4240 S Memorial Dr","city":"Tulsa","state":"OK","zip":74145,"latitude":36.0996199,"longitude":-95.8870142,"phone_number_service":"8884761699","phone_number_main":"9187128989","service_hours":"Mo-Fr 07:00 - 18:00 | Sa 08:00 - 14:00","utc_offset":"-300","gplace_id":null,"gplace_url":"https://maps.google.com/?cid=4858018387190603136","dealerID":73598,"trusted":false,"image_id":"v1597283902/volkswagen.png","phone":"8884761699","cityStateSlug":"tulsa.ok","slug":"Tulsa.OK/don+thornton+volkswagen+of+tulsa","location":"36.0996199,-95.8870142","brandsList":["volkswagen"]},{"id":1840,"crm_id":67074769,"name":"Bob Hart Chevrolet","dealerSlug":"bob+hart+chevrolet","city_state_slug":"Vinita.OK","brand":"Chevrolet","website":"www.bobhartchevroletofvinita.com","address":"495 S 7th St","city":"Vinita","state":"OK","zip":74301,"latitude":36.6296828,"longitude":-95.1444138,"phone_number_service":"9182555072","phone_number_main":"9182651256","service_hours":"Mo-Fr 07:30 - 17:30 | Sa 08:00 - 13:00","utc_offset":"-300","gplace_id":null,"gplace_url":"https://maps.google.com/?cid=1864474362180146940","dealerID":73599,"trusted":false,"image_id":"v1597284079/chevy_ms.png","phone":"9182555072","cityStateSlug":"vinita.ok","slug":"Vinita.OK/bob+hart+chevrolet","location":"36.6296828,-95.1444138","brandsList":["chevrolet"]},{"id":14848,"crm_id":67074775,"name":"Vance Ford Lincoln","dealerSlug":"vance+ford+lincoln","city_state_slug":"Miami.OK","brand":"Ford,Lincoln","website":"www.vancefordmiami.net","address":"510 N. Main","city":"Miami","state":"OK","zip":74354,"latitude":36.8822858,"longitude":-94.8768223,"phone_number_service":"9182011008","phone_number_main":"8007254431","service_hours":"Mo-Fr 07:30 - 17:30 | Sa 08:00-14:00","utc_offset":"-300","gplace_id":null,"gplace_url":"https://maps.google.com/?cid=17045293284074408033","dealerID":73600,"trusted":false,"image_id":"v1597283967/ford_RM.png","phone":"9182011008","cityStateSlug":"miami.ok","slug":"Miami.OK/vance+ford+lincoln","location":"36.8822858,-94.8768223","brandsList":["ford","lincoln"]},{"id":12436,"crm_id":67074778,"name":"Roberts Dodge Chrysler Jeep RAM","dealerSlug":"roberts+dodge+chrysler+jeep+ram","city_state_slug":"Pryor.OK","brand":"Chrysler,Dodge,Jeep,RAM","website":"www.dodgeofpryor.com","address":"5425 S Mill St.","city":"Pryor","state":"OK","zip":74361,"latitude":36.260077,"longitude":-95.332726,"phone_number_service":"8443920719","phone_number_main":"8444934034","service_hours":"Mo-Fr 07:30 - 17:30 | Sa 07:30 - 16:00","utc_offset":"-300","gplace_id":null,"gplace_url":"https://maps.google.com/?cid=7324515218056558700","dealerID":73601,"trusted":false,"image_id":"v1597283975/chrysler_RM.png","phone":"8443920719","cityStateSlug":"pryor.ok","slug":"Pryor.OK/roberts+dodge+chrysler+jeep+ram","location":"36.260077,-95.332726","brandsList":["chrysler","dodge","jeep","ram"]},{"id":7201,"crm_id":67074781,"name":"James Hodge Ford","dealerSlug":"james+hodge+ford","city_state_slug":"Muskogee.OK","brand":"Ford","website":"www.jameshodgeford.net","address":"1200 N Main St","city":"Muskogee","state":"OK","zip":74401,"latitude":35.762709,"longitude":-95.358861,"phone_number_service":"9189134252","phone_number_main":"8559209973","service_hours":"Mo-Fr 07:00 - 18:00 | Sa 08:00 - 16:00","utc_offset":"-300","gplace_id":null,"gplace_url":"https://maps.google.com/?cid=5980197881891404065","dealerID":73602,"trusted":false,"image_id":"v1597283967/ford_RM.png","phone":"9189134252","cityStateSlug":"muskogee.ok","slug":"Muskogee.OK/james+hodge+ford","location":"35.762709,-95.358861","brandsList":["ford"]},{"id":7204,"crm_id":67074787,"name":"James Hodge Toyota","dealerSlug":"james+hodge+toyota","city_state_slug":"Muskogee.OK","brand":"Toyota","website":"www.hodgetoyota.com","address":"2314 W Shawnee Bypass","city":"Muskogee","state":"OK","zip":74401,"latitude":35.7707142,"longitude":-95.3909112,"phone_number_service":"9186089173","phone_number_main":"9186089478","service_hours":"Mo-Fr 07:30 - 18:00 | Sa 08:00 - 18:00","utc_offset":"-300","gplace_id":null,"gplace_url":"https://maps.google.com/?cid=11728169331062515021","dealerID":73603,"trusted":false,"image_id":"v1597284039/toyota_ms.png","phone":"9186089173","cityStateSlug":"muskogee.ok","slug":"Muskogee.OK/james+hodge+toyota","location":"35.7707142,-95.3909112","brandsList":["toyota"]},{"id":4265,"crm_id":67074790,"name":"Dunn Country Chevrolet Buick GMC","dealerSlug":"dunn+country+chevrolet+buick+gmc","city_state_slug":"Eufaula.OK","brand":"Buick,Chevrolet,GMC","website":"www.dunncountrymotors.com","address":"PO Box 551 700 Birkes Road","city":"Eufaula","state":"OK","zip":74432,"latitude":35.296735,"longitude":-95.5911155,"phone_number_service":"8662085788","phone_number_main":"9186892595","service_hours":"Mo-Fr 08:00 - 17:00","utc_offset":"-300","gplace_id":null,"gplace_url":"https://maps.google.com/?cid=7486200776114039423","dealerID":73604,"trusted":false,"image_id":"v1597283981/buick_RM.png","phone":"8662085788","cityStateSlug":"eufaula.ok","slug":"Eufaula.OK/dunn+country+chevrolet+buick+gmc","location":"35.296735,-95.5911155","brandsList":["buick","chevrolet","gmc"]},{"id":6309,"crm_id":67074793,"name":"Henryetta Ford","dealerSlug":"henryetta+ford","city_state_slug":"Henryetta.OK","brand":"Ford","website":"www.henryettaford.com","address":"821 East Main","city":"Henryetta","state":"OK","zip":74437,"latitude":35.4391136,"longitude":-95.9726791,"phone_number_service":"9182682244","phone_number_main":"9186520990","service_hours":"Mo-Fr 08:00 - 18:00 | Sa 08:00 - 12:00","utc_offset":"-300","gplace_id":null,"gplace_url":"https://maps.google.com/?cid=8091110454013578226","dealerID":73605,"trusted":false,"image_id":"v1597283967/ford_RM.png","phone":"9182682244","cityStateSlug":"henryetta.ok","slug":"Henryetta.OK/henryetta+ford","location":"35.4391136,-95.9726791","brandsList":["ford"]},{"id":7199,"crm_id":67074796,"name":"James Hodge Chevrolet","dealerSlug":"james+hodge+chevrolet","city_state_slug":"Okmulgee.OK","brand":"Chevrolet","website":"jameshodgechevrolet.com","address":"3501 N. WOOD DRIVE HIGHWAY 75","city":"Okmulgee","state":"OK","zip":74447,"latitude":35.654238,"longitude":-95.9607837,"phone_number_service":"8665931569","phone_number_main":"8882610484","service_hours":"Mo-Fr 07:00 - 18:00| Sa 08:00 - 14:00","utc_offset":"-300","gplace_id":null,"gplace_url":"https://maps.google.com/?cid=3740627577098115079","dealerID":73606,"trusted":false,"image_id":"v1597284079/chevy_ms.png","phone":"8665931569","cityStateSlug":"okmulgee.ok","slug":"Okmulgee.OK/james+hodge+chevrolet","location":"35.654238,-95.9607837","brandsList":["chevrolet"]},{"id":6103,"crm_id":67074802,"name":"Harlan Ford","dealerSlug":"harlan+ford","city_state_slug":"Okmulgee.OK","brand":"Ford","website":"www.harlanmotor.com","address":"830 East Fairgrounds Road","city":"Okmulgee","state":"OK","zip":74447,"latitude":35.6460496,"longitude":-95.9629366,"phone_number_service":"8885185249","phone_number_main":"9187562075","service_hours":"Mo-Fr 08:00 - 17:30 | Sa 08:00 - 12:00","utc_offset":"-300","gplace_id":null,"gplace_url":"https://maps.google.com/?cid=1508637455692176554","dealerID":73607,"trusted":false,"image_id":"v1597283967/ford_RM.png","phone":"8885185249","cityStateSlug":"okmulgee.ok","slug":"Okmulgee.OK/harlan+ford","location":"35.6460496,-95.9629366","brandsList":["ford"]},{"id":15521,"crm_id":67074805,"name":"Williams Chrysler Dodge Jeep","dealerSlug":"williams+chrysler+dodge+jeep","city_state_slug":"Stigler.OK","brand":"Chrysler,Dodge,Jeep,RAM","website":"www.williamschryslerdodgejeep.com","address":"1100 E Main St","city":"Stigler","state":"OK","zip":74462,"latitude":35.2514831,"longitude":-95.1119814,"phone_number_service":"9187913636","phone_number_main":"9189673394","service_hours":"Mo-Sa 8:00-17:00","utc_offset":"-300","gplace_id":null,"gplace_url":"https://maps.google.com/?cid=14211614911143156462","dealerID":73608,"trusted":false,"image_id":"v1597283975/chrysler_RM.png","phone":"9187913636","cityStateSlug":"stigler.ok","slug":"Stigler.OK/williams+chrysler+dodge+jeep","location":"35.2514831,-95.1119814","brandsList":["chrysler","dodge","jeep","ram"]},{"id":4266,"crm_id":67074808,"name":"Dunn Ford Company","dealerSlug":"dunn+ford+company","city_state_slug":"Stigler.OK","brand":"Ford","website":"www.dunnfordcompany.com","address":"203 W Main St","city":"Stigler","state":"OK","zip":74462,"latitude":35.2549489,"longitude":-95.1272052,"phone_number_service":"8883795140","phone_number_main":"8006269645","service_hours":"Mo-Fr 07:30 - 17:30 | Sa 07:30 - 15:00","utc_offset":"-300","gplace_id":null,"gplace_url":"https://maps.google.com/?cid=3843788352028672000","dealerID":73609,"trusted":false,"image_id":"v1597283967/ford_RM.png","phone":"8883795140","cityStateSlug":"stigler.ok","slug":"Stigler.OK/dunn+ford+company","location":"35.2549489,-95.1272052","brandsList":["ford"]},{"id":4733,"crm_id":67074814,"name":"Fenton Nissan of McAlester","dealerSlug":"fenton+nissan+of+mcalester","city_state_slug":"McAlester.OK","brand":"Nissan","website":"www.fentonnissan.com","address":"1441 S George Nigh Expy","city":"McAlester","state":"OK","zip":74501,"latitude":34.8946134,"longitude":-95.7753053,"phone_number_service":"9182160114","phone_number_main":"9184230964","service_hours":"Mo-Fr 08:00 - 17:30 | Sa 08:00 - 14:00","utc_offset":"-300","gplace_id":null,"gplace_url":"https://maps.google.com/?cid=15092347069354309746","dealerID":73610,"trusted":false,"image_id":"v1597283926/nissan_RM.png","phone":"9182160114","cityStateSlug":"mcalester.ok","slug":"McAlester.OK/fenton+nissan+of+mcalester","location":"34.8946134,-95.7753053","brandsList":["nissan"]},{"id":12809,"crm_id":67074817,"name":"Sam Wampler's Freedom Ford","dealerSlug":"sam+wamplers+freedom+ford","city_state_slug":"McAlester.OK","brand":"Ford","website":"www.samsfreedomford.com/","address":"720 S George Nigh Expy","city":"McAlester","state":"OK","zip":74501,"latitude":34.9094071,"longitude":-95.7445123,"phone_number_service":"9184232800","phone_number_main":"9184232800","service_hours":"Mo-Fr 07:00 - 19:00| Sa 08:00 - 12:00","utc_offset":"-300","gplace_id":null,"gplace_url":"https://maps.google.com/?cid=5851745290765640977","dealerID":73611,"trusted":false,"image_id":"v1597283967/ford_RM.png","phone":"9184232800","cityStateSlug":"mcalester.ok","slug":"McAlester.OK/sam+wamplers+freedom+ford","location":"34.9094071,-95.7445123","brandsList":["ford"]},{"id":11271,"crm_id":67074826,"name":"Patriot Chrysler Dodge Jeep RAM McAlester","dealerSlug":"patriot+chrysler+dodge+jeep+ram+mcalester","city_state_slug":"McAlester.OK","brand":"Chrysler,Dodge,Jeep,RAM","website":"www.patriotmac.com","address":"916 S George Nigh Expy","city":"McAlester","state":"OK","zip":74501,"latitude":34.8995064,"longitude":-95.752335,"phone_number_service":"9182333766","phone_number_main":"9184712073","service_hours":"Mo-Fr 07:30 - 18:00 | Sa 08:00 - 14:00","utc_offset":"-300","gplace_id":null,"gplace_url":"https://maps.google.com/?cid=9727958291830697455","dealerID":73612,"trusted":false,"image_id":"v1597283975/chrysler_RM.png","phone":"9182333766","cityStateSlug":"mcalester.ok","slug":"McAlester.OK/patriot+chrysler+dodge+jeep+ram+mcalester","location":"34.8995064,-95.752335","brandsList":["chrysler","dodge","jeep","ram"]},{"id":13750,"crm_id":67074835,"name":"Stuteville Ford of Atoka","dealerSlug":"stuteville+ford+of+atoka","city_state_slug":"Atoka.OK","brand":"Ford","website":"www.stutevilleford.net","address":"1637 S Mississippi Ave","city":"Atoka","state":"OK","zip":74525,"latitude":34.3707859,"longitude":-96.1405463,"phone_number_service":"5808893349","phone_number_main":"5808893349","service_hours":"Mo-Fr 08:00 - 18:00 | Sa 08:00 - 16:00","utc_offset":"-300","gplace_id":null,"gplace_url":"https://maps.google.com/?cid=6805810362057887624","dealerID":73614,"trusted":false,"image_id":"v1597283967/ford_RM.png","phone":"5808893349","cityStateSlug":"atoka.ok","slug":"Atoka.OK/stuteville+ford+of+atoka","location":"34.3707859,-96.1405463","brandsList":["ford"]},{"id":13748,"crm_id":67074838,"name":"Stuteville Chevrolet Buick GMC of Ponca City","dealerSlug":"stuteville+chevrolet+buick+gmc+of+ponca+city","city_state_slug":"Ponca-City.OK","brand":"Buick,Chevrolet,GMC","website":"www.stutevilleponca.com","address":"3330 N 14th St","city":"Ponca City","state":"OK","zip":74601,"latitude":36.7451148,"longitude":-97.0687097,"phone_number_service":"5807495974","phone_number_main":"5807495976","service_hours":"Mo-Fr 07:30 - 17:30 | Sa 08:00-14:00","utc_offset":"-300","gplace_id":null,"gplace_url":"https://maps.google.com/?cid=14446865418222428348","dealerID":73615,"trusted":false,"image_id":"v1597283981/buick_RM.png","phone":"5807495974","cityStateSlug":"ponca-city.ok","slug":"Ponca-City.OK/stuteville+chevrolet+buick+gmc+of+ponca+city","location":"36.7451148,-97.0687097","brandsList":["buick","chevrolet","gmc"]},{"id":1849,"crm_id":67074847,"name":"Bob Hurley Ponca Chrysler Dodge Jeep RAM","dealerSlug":"bob+hurley+ponca+chrysler+dodge+jeep+ram","city_state_slug":"Ponca-City.OK","brand":"Chrysler,Dodge,Jeep,RAM","website":"www.bobhurleyponca.com","address":"3501 N 14th St","city":"Ponca City","state":"OK","zip":74601,"latitude":36.7471459,"longitude":-97.066693,"phone_number_service":"5802626196","phone_number_main":"5807455856","service_hours":"Mo-Fr 08:00 - 18:00 | Sa 08:00 - 13:00","utc_offset":"-300","gplace_id":null,"gplace_url":"https://maps.google.com/?cid=4763949803531736552","dealerID":73616,"trusted":false,"image_id":"v1597283975/chrysler_RM.png","phone":"5802626196","cityStateSlug":"ponca-city.ok","slug":"Ponca-City.OK/bob+hurley+ponca+chrysler+dodge+jeep+ram","location":"36.7471459,-97.066693","brandsList":["chrysler","dodge","jeep","ram"]},{"id":12176,"crm_id":67074853,"name":"Red River Ford Lincoln","dealerSlug":"red+river+ford+lincoln","city_state_slug":"Durant.OK","brand":"Ford,Lincoln","website":"www.redriverforddurant.com","address":"402 Westside Dr","city":"Durant","state":"OK","zip":74701,"latitude":34.0005556,"longitude":-96.4044444,"phone_number_service":"8778259967","phone_number_main":"5809249458","service_hours":"Mo-Fr 07:00 - 17:30","utc_offset":"-300","gplace_id":null,"gplace_url":"https://maps.google.com/?cid=2172001245003233904","dealerID":73618,"trusted":false,"image_id":"v1597283967/ford_RM.png","phone":"8778259967","cityStateSlug":"durant.ok","slug":"Durant.OK/red+river+ford+lincoln","location":"34.0005556,-96.4044444","brandsList":["ford","lincoln"]},{"id":7200,"crm_id":67074856,"name":"James Hodge Dodge","dealerSlug":"james+hodge+dodge","city_state_slug":"Broken-Bow.OK","brand":"Chrysler,Dodge,Jeep,RAM","website":"www.jameshodgedodge.com","address":"606 S Park Dr","city":"Broken Bow","state":"OK","zip":74728,"latitude":34.021123,"longitude":-94.739857,"phone_number_service":"8668508604","phone_number_main":"8668514306","service_hours":"Mo-Fr 07:30 17:30 | Sa 08:00 13:00","utc_offset":"-300","gplace_id":null,"gplace_url":"https://maps.google.com/?cid=6469001212180091572","dealerID":73619,"trusted":false,"image_id":"v1597283975/chrysler_RM.png","phone":"8668508604","cityStateSlug":"broken-bow.ok","slug":"Broken-Bow.OK/james+hodge+dodge","location":"34.021123,-94.739857","brandsList":["chrysler","dodge","jeep","ram"]},{"id":7202,"crm_id":67074859,"name":"James Hodge Ford Idabel","dealerSlug":"james+hodge+ford+idabel","city_state_slug":"Idabel.OK","brand":"Ford","website":"www.hodgefordofidabel.com","address":"1711 E Washington","city":"Idabel","state":"OK","zip":74745,"latitude":33.8960491,"longitude":-94.8064666,"phone_number_service":"8882944045","phone_number_main":"5802867676","service_hours":"Mo-Fr 07:30 - 18:00 | Sa 07:30 - 14:00","utc_offset":"-300","gplace_id":null,"gplace_url":"https://maps.google.com/?cid=5881788129129238553","dealerID":73620,"trusted":false,"image_id":"v1597283967/ford_RM.png","phone":"8882944045","cityStateSlug":"idabel.ok","slug":"Idabel.OK/james+hodge+ford+idabel","location":"33.8960491,-94.8064666","brandsList":["ford"]},{"id":7477,"crm_id":67074862,"name":"Joe Cooper Chevrolet","dealerSlug":"joe+cooper+chevrolet","city_state_slug":"Shawnee.OK","brand":"Chevrolet","website":"www.joecooperchevroletcadillac.com","address":"4920 N Automall dr","city":"Shawnee","state":"OK","zip":74804,"latitude":35.3851475,"longitude":-96.9181279,"phone_number_service":"4057164088","phone_number_main":"4052750406","service_hours":"Mo-Fr 07:00 - 18:00 | Sa 08:00 16:00","utc_offset":"-300","gplace_id":null,"gplace_url":"https://maps.google.com/?cid=10245279387983519072","dealerID":73621,"trusted":false,"image_id":"v1597284079/chevy_ms.png","phone":"4057164088","cityStateSlug":"shawnee.ok","slug":"Shawnee.OK/joe+cooper+chevrolet","location":"35.3851475,-96.9181279","brandsList":["chevrolet"]},{"id":6471,"crm_id":67074865,"name":"Hilltop Chrysler Dodge Jeep RAM","dealerSlug":"hilltop+chrysler+dodge+jeep+ram","city_state_slug":"Ada.OK","brand":"Chrysler,Dodge,Jeep,RAM","website":"www.hilltopcdjr.com","address":"1109 N Broadway Ave","city":"Ada","state":"OK","zip":74820,"latitude":34.7854585,"longitude":-96.6789846,"phone_number_service":"8558698078","phone_number_main":"5803329400","service_hours":"Mo-Fr 07:30 - 18:00 | Sa 08:00 - 12:00","utc_offset":"-300","gplace_id":null,"gplace_url":"https://maps.google.com/?cid=2876780481854978068","dealerID":73622,"trusted":false,"image_id":"v1597283975/chrysler_RM.png","phone":"8558698078","cityStateSlug":"ada.ok","slug":"Ada.OK/hilltop+chrysler+dodge+jeep+ram","location":"34.7854585,-96.6789846","brandsList":["chrysler","dodge","jeep","ram"]},{"id":13072,"crm_id":67074868,"name":"Seth Wadley Chevrolet Buick of Ada","dealerSlug":"seth+wadley+chevrolet+buick+of+ada","city_state_slug":"Ada.OK","brand":"Buick,Chevrolet","website":"adachevy.com","address":"1301 N Broadway Ave","city":"Ada","state":"OK","zip":74820,"latitude":34.7872919,"longitude":-96.6794037,"phone_number_service":"5805592216","phone_number_main":"8339540969","service_hours":"Mo-Fr 07:30 - 17:30 | Sa 08:00 - 16:00","utc_offset":"-300","gplace_id":null,"gplace_url":"https://maps.google.com/?cid=759829006930403771","dealerID":73623,"trusted":false,"image_id":"v1597283981/buick_RM.png","phone":"5805592216","cityStateSlug":"ada.ok","slug":"Ada.OK/seth+wadley+chevrolet+buick+of+ada","location":"34.7872919,-96.6794037","brandsList":["buick","chevrolet"]},{"id":11272,"crm_id":67074871,"name":"Patriot Chrysler Dodge Jeep RAM Of Chandler","dealerSlug":"patriot+chrysler+dodge+jeep+ram+of+chandler","city_state_slug":"Chandler.OK","brand":"Chrysler,Dodge,Jeep,RAM","website":"www.patriotcdjr.com","address":"104 Industrial Rd","city":"Chandler","state":"OK","zip":74834,"latitude":35.710613,"longitude":-96.8399295,"phone_number_service":"4058969707","phone_number_main":"4054001098","service_hours":"Mo-Fr 07:30 - 18:00 | Sa 08:00 - 14:00","utc_offset":"-300","gplace_id":null,"gplace_url":"https://maps.google.com/?cid=15377737644932597116","dealerID":73624,"trusted":false,"image_id":"v1597283975/chrysler_RM.png","phone":"4058969707","cityStateSlug":"chandler.ok","slug":"Chandler.OK/patriot+chrysler+dodge+jeep+ram+of+chandler","location":"35.710613,-96.8399295","brandsList":["chrysler","dodge","jeep","ram"]},{"id":6730,"crm_id":67074874,"name":"Hudiburg Ford","dealerSlug":"hudiburg+ford","city_state_slug":"Chandler.OK","brand":"Ford","website":"www.hudiburgford.com","address":"216 North Highway 18","city":"Chandler","state":"OK","zip":74834,"latitude":35.7117392,"longitude":-96.8840281,"phone_number_service":"4052581082","phone_number_main":"4052581082","service_hours":"Mo-Fr 08:00 - 18:00 | Sa 08:00 - 16:00","utc_offset":"-300","gplace_id":null,"gplace_url":"https://maps.google.com/?cid=1384166700068912170","dealerID":73625,"trusted":false,"image_id":"v1597283967/ford_RM.png","phone":"4052581082","cityStateSlug":"chandler.ok","slug":"Chandler.OK/hudiburg+ford","location":"35.7117392,-96.8840281","brandsList":["ford"]},{"id":12083,"crm_id":67074877,"name":"Randy Bowen Chevrolet GMC","dealerSlug":"randy+bowen+chevrolet+gmc","city_state_slug":"Chandler.OK","brand":"Chevrolet,GMC","website":"www.randybowenchevrolet.com","address":"601 N OK-18","city":"Chandler","state":"OK","zip":74834,"latitude":35.71569,"longitude":-96.8861538,"phone_number_service":"8669245388","phone_number_main":"8772696271","service_hours":"Mo-Fr 07:30 - 17:30 | Sa 07:30 - 12:00","utc_offset":"-300","gplace_id":null,"gplace_url":"https://maps.google.com/?cid=6944915897506555815","dealerID":73626,"trusted":false,"image_id":"v1597284079/chevy_ms.png","phone":"8669245388","cityStateSlug":"chandler.ok","slug":"Chandler.OK/randy+bowen+chevrolet+gmc","location":"35.71569,-96.8861538","brandsList":["chevrolet","gmc"]},{"id":13026,"crm_id":67074880,"name":"Seminole Ford","dealerSlug":"seminole+ford","city_state_slug":"Seminole.OK","brand":"Ford","website":"www.seminolefordok.com","address":"2222 N Milt Phillips Ave","city":"Seminole","state":"OK","zip":74868,"latitude":35.2442007,"longitude":-96.670379,"phone_number_service":"8882359782","phone_number_main":"4053822222","service_hours":"Mo-Fr 08:00 - 17:30 | Sa 08:00 - 12:00","utc_offset":"-300","gplace_id":null,"gplace_url":"https://maps.google.com/?cid=2507370150127305888","dealerID":73627,"trusted":false,"image_id":"v1597283967/ford_RM.png","phone":"8882359782","cityStateSlug":"seminole.ok","slug":"Seminole.OK/seminole+ford","location":"35.2442007,-96.670379","brandsList":["ford"]},{"id":12374,"crm_id":67074883,"name":"Riverside Autoplex of Poteau","dealerSlug":"riverside+autoplex+of+poteau","city_state_slug":"Poteau.OK","brand":"Ford","website":"www.riversideautoplexofpoteau.com","address":"2100 S Broadway St","city":"Poteau","state":"OK","zip":74953,"latitude":35.0383333,"longitude":-94.6452778,"phone_number_service":"8882953080","phone_number_main":"9186472228","service_hours":"Mo-Fr 07:30 - 17:30","utc_offset":"-300","gplace_id":null,"gplace_url":"https://maps.google.com/?cid=15453271717850860357","dealerID":73628,"trusted":false,"image_id":"v1597283967/ford_RM.png","phone":"8882953080","cityStateSlug":"poteau.ok","slug":"Poteau.OK/riverside+autoplex+of+poteau","location":"35.0383333,-94.6452778","brandsList":["ford"]},{"id":1600,"crm_id":67074886,"name":"Blue Ribbon Chevrolet Buick GMC","dealerSlug":"blue+ribbon+chevrolet+buick+gmc","city_state_slug":"Sallisaw.OK","brand":"Buick,Chevrolet,GMC","website":"www.blueribbonautogroup.com","address":"1701 S Kerr Blvd","city":"Sallisaw","state":"OK","zip":74955,"latitude":35.4385139,"longitude":-94.8067596,"phone_number_service":"8663390343","phone_number_main":"9187913974","service_hours":"Mo-Fr 07:30 - 17:00","utc_offset":"-300","gplace_id":null,"gplace_url":"https://maps.google.com/?cid=14001023232348630862","dealerID":73629,"trusted":false,"image_id":"v1597283981/buick_RM.png","phone":"8663390343","cityStateSlug":"sallisaw.ok","slug":"Sallisaw.OK/blue+ribbon+chevrolet+buick+gmc","location":"35.4385139,-94.8067596","brandsList":["buick","chevrolet","gmc"]},{"id":1601,"crm_id":67074889,"name":"Blue Ribbon Chrysler Jeep Dodge RAM","dealerSlug":"blue+ribbon+chrysler+jeep+dodge+ram","city_state_slug":"Sallisaw.OK","brand":"Chrysler,Dodge,Jeep,RAM","website":"www.blueribbonchryslerdodgejeep.com","address":"1703 S Kerr Blvd","city":"Sallisaw","state":"OK","zip":74955,"latitude":35.4375869,"longitude":-94.8069496,"phone_number_service":"5803647380","phone_number_main":"9187755700","service_hours":"Mo-Fr 07:30 - 17:30","utc_offset":"-300","gplace_id":null,"gplace_url":"https://maps.google.com/?cid=16899661448882730369","dealerID":73630,"trusted":false,"image_id":"v1597283975/chrysler_RM.png","phone":"5803647380","cityStateSlug":"sallisaw.ok","slug":"Sallisaw.OK/blue+ribbon+chrysler+jeep+dodge+ram","location":"35.4375869,-94.8069496","brandsList":["chrysler","dodge","jeep","ram"]},{"id":10840,"crm_id":78653596,"name":"Northcutt Toyota","dealerSlug":"northcutt+toyota","city_state_slug":"Enid.OK","brand":"Toyota","website":"www.northcutttoyota.com","address":"3409 W Owen K Garriott Rd","city":"Enid","state":"OK","zip":73703,"latitude":36.389772,"longitude":-97.9210291,"phone_number_service":"8887174016","phone_number_main":"5802373321","service_hours":"Mo-Fr 07:30 - 18:00 | Sa 08:30 - 16:00","utc_offset":"-300","gplace_id":null,"gplace_url":"https://maps.google.com/?cid=5073853809720227451","dealerID":75206,"trusted":false,"image_id":"v1597284039/toyota_ms.png","phone":"8887174016","cityStateSlug":"enid.ok","slug":"Enid.OK/northcutt+toyota","location":"36.389772,-97.9210291","brandsList":["toyota"]},{"id":5043,"crm_id":78653806,"name":"Four Stars Toyota","dealerSlug":"four+stars+toyota","city_state_slug":"Altus.OK","brand":"Toyota","website":"www.fourstarstoyota.com","address":"2600 E Broadway St","city":"Altus","state":"OK","zip":73521,"latitude":34.636629,"longitude":-99.297706,"phone_number_service":"8882966153","phone_number_main":"5804823814","service_hours":"Mo-Fr 08:00 - 18:00 | Sa 08:00 - 13:00","utc_offset":"-300","gplace_id":null,"gplace_url":"https://maps.google.com/?cid=1448723976450419289","dealerID":75207,"trusted":false,"image_id":"v1597284039/toyota_ms.png","phone":"8882966153","cityStateSlug":"altus.ok","slug":"Altus.OK/four+stars+toyota","location":"34.636629,-99.297706","brandsList":["toyota"]},{"id":14653,"crm_id":80620438,"name":"Tulsa Hyundai","dealerSlug":"tulsa+hyundai","city_state_slug":"Tulsa.OK","brand":"Hyundai","website":"www.tulsahyundai.com","address":"9777 S Memorial Dr","city":"Tulsa","state":"OK","zip":74133,"latitude":36.0221828,"longitude":-95.8854311,"phone_number_service":"9183580926","phone_number_main":"9187700865","service_hours":"Mo-Fr 07:00 - 18:00 | Sa 08:00 - 16:00","utc_offset":"-300","gplace_id":null,"gplace_url":"https://maps.google.com/?cid=16515633840731980911","dealerID":75244,"trusted":false,"image_id":"v1597283959/hyundai_RM.png","phone":"9183580926","cityStateSlug":"tulsa.ok","slug":"Tulsa.OK/tulsa+hyundai","location":"36.0221828,-95.8854311","brandsList":["hyundai"]},{"id":8371,"crm_id":87693117,"name":"Landers Chevrolet of Norman","dealerSlug":"landers+chevrolet+of+norman","city_state_slug":"Norman.OK","brand":"Chevrolet","website":"www.landerschevroletnorman.com","address":"1221 Ed Noble Pkwy","city":"Norman","state":"OK","zip":73072,"latitude":35.2025713,"longitude":-97.4817504,"phone_number_service":"8883423987","phone_number_main":"4052170619","service_hours":"Mo-Fr 07:00 - 18:00 | Sa 08:00 - 16:00","utc_offset":"-300","gplace_id":null,"gplace_url":"https://maps.google.com/?cid=13219617911317568672","dealerID":75503,"trusted":false,"image_id":"v1597284079/chevy_ms.png","phone":"8883423987","cityStateSlug":"norman.ok","slug":"Norman.OK/landers+chevrolet+of+norman","location":"35.2025713,-97.4817504","brandsList":["chevrolet"]},{"id":8372,"crm_id":87693745,"name":"Landers Chrysler Dodge Jeep RAM of Norman","dealerSlug":"landers+chrysler+dodge+jeep+ram+of+norman","city_state_slug":"Norman.OK","brand":"Chrysler,Dodge,Jeep,RAM","website":"www.landerscdjrnorman.com","address":"481 N Interstate Dr","city":"Norman","state":"OK","zip":73069,"latitude":35.2234434,"longitude":-97.4841371,"phone_number_service":"4053218228","phone_number_main":"4053218228","service_hours":"Mo-Fr 07:00 - 17:00 | Sa 07:00 - 16:00","utc_offset":"-300","gplace_id":null,"gplace_url":"https://maps.google.com/?cid=13206838972455511856","dealerID":75504,"trusted":false,"image_id":"v1597283975/chrysler_RM.png","phone":"4053218228","cityStateSlug":"norman.ok","slug":"Norman.OK/landers+chrysler+dodge+jeep+ram+of+norman","location":"35.2234434,-97.4841371","brandsList":["chrysler","dodge","jeep","ram"]},{"id":10839,"crm_id":88539154,"name":"Northcutt Chevrolet-buick","dealerSlug":"northcutt+chevrolet+buick","city_state_slug":"Enid.OK","brand":"Buick,Chevrolet","website":"www.northcuttchevroletbuick.com","address":"3201 W Owen K Garriott Rd","city":"Enid","state":"OK","zip":73703,"latitude":36.390232,"longitude":-97.9188842,"phone_number_service":"8668966367","phone_number_main":"5803661910","service_hours":"Mo-Fr 07:30 - 18:00 | Sa 08:30 - 16:00","utc_offset":"-300","gplace_id":null,"gplace_url":"https://maps.google.com/?cid=10073134374907735109","dealerID":75529,"trusted":false,"image_id":"v1597283981/buick_RM.png","phone":"8668966367","cityStateSlug":"enid.ok","slug":"Enid.OK/northcutt+chevrolet+buick","location":"36.390232,-97.9188842","brandsList":["buick","chevrolet"]},{"id":7231,"crm_id":99925933,"name":"Jay Hodge Dodge Chrysler Jeep RAM","dealerSlug":"jay+hodge+dodge+chrysler+jeep+ram","city_state_slug":"Hugo.OK","brand":"Chrysler,Dodge,Jeep,RAM","website":"www.jayhodgedodge.com","address":"2505 E Jackson St","city":"Hugo","state":"OK","zip":74743,"latitude":34.0013076,"longitude":-95.4825669,"phone_number_service":"5809106693","phone_number_main":"5803269086","service_hours":"Mo-Fr 07:30 - 18:00 | Sa 07:30 - 13:15","utc_offset":"-300","gplace_id":null,"gplace_url":"https://maps.google.com/?cid=10638875092677586310","dealerID":76493,"trusted":false,"image_id":"v1597283975/chrysler_RM.png","phone":"5809106693","cityStateSlug":"hugo.ok","slug":"Hugo.OK/jay+hodge+dodge+chrysler+jeep+ram","location":"34.0013076,-95.4825669","brandsList":["chrysler","dodge","jeep","ram"]},{"id":10605,"crm_id":101786869,"name":"Nelson Mazda Norman","dealerSlug":"nelson+mazda+norman","city_state_slug":"Norman.OK","brand":"Mazda","website":"www.nelsonmazdanorman.com","address":"819 N Interstate Dr","city":"Norman","state":"OK","zip":73069,"latitude":35.2276946,"longitude":-97.4842643,"phone_number_service":"4053106782","phone_number_main":"4053214488","service_hours":"Temporary Closed","utc_offset":"-300","gplace_id":null,"gplace_url":"https://maps.google.com/?cid=2819069810820725222","dealerID":76577,"trusted":false,"image_id":"v1597283937/mazda.png","phone":"4053106782","cityStateSlug":"norman.ok","slug":"Norman.OK/nelson+mazda+norman","location":"35.2276946,-97.4842643","brandsList":["mazda"]},{"id":8525,"crm_id":112384804,"name":"Lawton Kia","dealerSlug":"lawton+kia","city_state_slug":"Lawton.OK","brand":"Kia","website":"www.lawtonkia.com","address":"4455 NW Cache Rd","city":"Lawton","state":"OK","zip":73505,"latitude":34.6247557,"longitude":-98.4510193,"phone_number_service":"5802156331","phone_number_main":"5807134001","service_hours":"Mo-Fr 07:30 - 17:00 | Sa 08:00 - 16:00","utc_offset":"-300","gplace_id":null,"gplace_url":"https://maps.google.com/?cid=16969131266818116253","dealerID":76790,"trusted":false,"image_id":"v1597283948/kia_RM.png","phone":"5802156331","cityStateSlug":"lawton.ok","slug":"Lawton.OK/lawton+kia","location":"34.6247557,-98.4510193","brandsList":["kia"]},{"id":18,"crm_id":112385212,"name":"6th Avenue Honda","dealerSlug":"6th+avenue+honda","city_state_slug":"Stillwater.OK","brand":"Honda","website":"www.6thavenuehonda.com","address":"4300 W 6th Ave","city":"Stillwater","state":"OK","zip":74074,"latitude":36.1168987,"longitude":-97.1161625,"phone_number_service":"4055710550","phone_number_main":"4055710610","service_hours":"Mo-Fr 07:30 - 18:00 | Sa 08:00 - 14:00","utc_offset":"-300","gplace_id":null,"gplace_url":"https://maps.google.com/?cid=11124100708324987010","dealerID":76791,"trusted":false,"image_id":"v1597284047/honda_ms.png","phone":"4055710550","cityStateSlug":"stillwater.ok","slug":"Stillwater.OK/6th+avenue+honda","location":"36.1168987,-97.1161625","brandsList":["honda"]},{"id":9898,"crm_id":112385575,"name":"Metro Ford of OKC","dealerSlug":"metro+ford+of+okc","city_state_slug":"Oklahoma-City.OK","brand":"Ford","website":"www.metrofordofokc.com","address":"2800 W I 44 Service Rd","city":"Oklahoma City","state":"OK","zip":73112,"latitude":35.5105589,"longitude":-97.5645764,"phone_number_service":"4054383307","phone_number_main":"4054383330","service_hours":"Mo-Fr 07:00 - 18:00 | Sa 08:00 - 16:00","utc_offset":"-300","gplace_id":null,"gplace_url":"https://maps.google.com/?cid=11112001504831538548","dealerID":76792,"trusted":false,"image_id":"v1597283967/ford_RM.png","phone":"4054383307","cityStateSlug":"oklahoma-city.ok","slug":"Oklahoma-City.OK/metro+ford+of+okc","location":"35.5105589,-97.5645764","brandsList":["ford"]},{"id":7074,"crm_id":114975416,"name":"Jackie Cooper MINI","dealerSlug":"jackie+cooper+mini","city_state_slug":"Edmond.OK","brand":"MINI","website":"www.jackiecoopermini.com","address":"14201 Broadway Ext","city":"Edmond","state":"OK","zip":73013,"latitude":35.6146027,"longitude":-97.4941753,"phone_number_service":"8669258896","phone_number_main":"4057553600","service_hours":"Mo-Fr 07:00 - 18:00 | Sa 08:00 - 16:00","utc_offset":"-300","gplace_id":null,"gplace_url":"https://maps.google.com/?cid=6686459246320545628","dealerID":76942,"trusted":false,"image_id":"v1597283930/mini_RM.png","phone":"8669258896","cityStateSlug":"edmond.ok","slug":"Edmond.OK/jackie+cooper+mini","location":"35.6146027,-97.4941753","brandsList":["mini"]}]