[{"id":16824,"crm_id":999,"name":"Klamath Falls Subaru","dealerSlug":"klamath+falls+subaru","city_state_slug":"Klamath-Falls.OR","brand":"Subaru","website":"KlamathFallsSubaru.dealer.subaru.com","address":"2880 Washburn Way","city":"Klamath Falls","state":"OR","zip":97603,"latitude":42.20074,"longitude":-121.757895,"phone_number_service":"7658254341","phone_number_main":"","service_hours":"","utc_offset":"","gplace_id":0,"gplace_url":"","dealerID":60248,"trusted":false,"image_id":"v1597283982/subaru_ms.png","phone":"7658254341","cityStateSlug":"klamath-falls.or","slug":"Klamath-Falls.OR/klamath+falls+subaru","location":"42.20074,-121.757895","brandsList":["subaru"]},{"id":17743,"crm_id":999,"name":"TS & S Ford","dealerSlug":"ts+and+s+ford","city_state_slug":"Madras.OR","brand":"Ford","website":"www.tsandsfordmadras.com","address":"1733 SW Highway #97","city":"Madras","state":"OR","zip":97741,"latitude":44.611135,"longitude":-121.136925,"phone_number_service":"5414757204","phone_number_main":"","service_hours":"Mo-Fr 08:00 - 18:00 | Sa 09:00 - 18:00 | Su 10:00 - 17:00","utc_offset":"","gplace_id":0,"gplace_url":"","dealerID":60745,"trusted":false,"image_id":"v1597283967/ford_RM.png","phone":"5414757204","cityStateSlug":"madras.or","slug":"Madras.OR/ts+and+s+ford","location":"44.611135,-121.136925","brandsList":["ford"]},{"id":10992,"crm_id":999,"name":"Ontario Auto Ranch","dealerSlug":"ontario+auto+ranch","city_state_slug":"Ontario.OR","brand":"Chrysler,Dodge,Jeep,RAM","website":"www.ontarioautoranchcdjr.com","address":"1805 SW 4th Ave","city":"Ontario","state":"OR","zip":97914,"latitude":44.0252155,"longitude":-116.9911384,"phone_number_service":"5415902038","phone_number_main":"5418898989","service_hours":"Mo-Fr 07:30 - 17:30 | Sa 08:00 - 15:00","utc_offset":"-360","gplace_id":null,"gplace_url":"https://maps.google.com/?cid=15239814373341873008","dealerID":60765,"trusted":false,"image_id":"v1597283975/chrysler_RM.png","phone":"5415902038","cityStateSlug":"ontario.or","slug":"Ontario.OR/ontario+auto+ranch","location":"44.0252155,-116.9911384","brandsList":["chrysler","dodge","jeep","ram"]},{"id":17412,"crm_id":999,"name":"Robberson Ford","dealerSlug":"robberson+ford","city_state_slug":"Bend.OR","brand":"Ford","website":"www.robbersonford.net","address":"2100 N. E. Third St","city":"Bend","state":"OR","zip":97701,"latitude":44.070786,"longitude":-121.302406,"phone_number_service":"5413824521","phone_number_main":"","service_hours":"Mo-Fr 09:00 - 19:00 | Sa 09:00 - 18:00 | Su 11:00 - 18:00","utc_offset":"","gplace_id":0,"gplace_url":"","dealerID":60864,"trusted":false,"image_id":"v1597283967/ford_RM.png","phone":"5413824521","cityStateSlug":"bend.or","slug":"Bend.OR/robberson+ford","location":"44.070786,-121.302406","brandsList":["ford"]},{"id":16406,"crm_id":999,"name":"Findlay Chrysler Jeep Dodge RAM","dealerSlug":"findlay+chrysler+jeep+dodge+ram","city_state_slug":"Wilsonville.OR","brand":"Chrysler,Dodge,Jeep,RAM","website":"www.findlaycjdr.com","address":"25600 SW Parkway Center Dr","city":"Wilsonville","state":"OR","zip":97070,"latitude":45.334555,"longitude":-122.761204,"phone_number_service":"5035637222","phone_number_main":"","service_hours":"Mo-Fr 10:00 - 18:00 | Sa 10:00 - 14:00 | Su Closed","utc_offset":"","gplace_id":0,"gplace_url":"","dealerID":60983,"trusted":false,"image_id":"v1597283975/chrysler_RM.png","phone":"5035637222","cityStateSlug":"wilsonville.or","slug":"Wilsonville.OR/findlay+chrysler+jeep+dodge+ram","location":"45.334555,-122.761204","brandsList":["chrysler","dodge","jeep","ram"]},{"id":16193,"crm_id":999,"name":"Cottage Grove Chrysler Dodge Jeep RAM","dealerSlug":"cottage+grove+chrysler+dodge+jeep+ram","city_state_slug":"Cottage-Grove.OR","brand":"Chrysler,Dodge,Jeep,RAM","website":"www.cottagegrovecdjr.com","address":"2800 Row River Rd","city":"Cottage Grove","state":"OR","zip":97424,"latitude":43.798069,"longitude":-123.036018,"phone_number_service":"5419425551","phone_number_main":"","service_hours":"Mo-Sa 09:00 - 18:00 | Su Closed","utc_offset":"","gplace_id":0,"gplace_url":"","dealerID":61030,"trusted":false,"image_id":"v1597283975/chrysler_RM.png","phone":"5419425551","cityStateSlug":"cottage-grove.or","slug":"Cottage-Grove.OR/cottage+grove+chrysler+dodge+jeep+ram","location":"43.798069,-123.036018","brandsList":["chrysler","dodge","jeep","ram"]},{"id":16935,"crm_id":999,"name":"Lithia Ford of Klamath Falls","dealerSlug":"lithia+ford+of+klamath+falls","city_state_slug":"Klamath-Falls.OR","brand":"Ford","website":"www.lithiafordklamathfalls.com","address":"2833 Washburn Way","city":"Klamath Falls","state":"OR","zip":97603,"latitude":42.200638,"longitude":-121.75703,"phone_number_service":"8774027785","phone_number_main":"","service_hours":"Mo-Sa 08:30 - 19:00 | Su 10:00 - 17:00","utc_offset":"","gplace_id":0,"gplace_url":"","dealerID":61039,"trusted":false,"image_id":"v1597283967/ford_RM.png","phone":"8774027785","cityStateSlug":"klamath-falls.or","slug":"Klamath-Falls.OR/lithia+ford+of+klamath+falls","location":"42.200638,-121.75703","brandsList":["ford"]},{"id":16557,"crm_id":999,"name":"Hall Motor Company","dealerSlug":"hall+motor+company","city_state_slug":"Lakeview.OR","brand":"Ford","website":"www.hallmotorcompanyford.com","address":"351 North O Street","city":"Lakeview","state":"OR","zip":97630,"latitude":42.192772,"longitude":-120.356418,"phone_number_service":"5419474965","phone_number_main":"","service_hours":"Mo-Fr 08:00 - 18:00 | Sa 09:00 - 14:00 | Su Closed","utc_offset":"","gplace_id":0,"gplace_url":"","dealerID":61178,"trusted":false,"image_id":"v1597283967/ford_RM.png","phone":"5419474965","cityStateSlug":"lakeview.or","slug":"Lakeview.OR/hall+motor+company","location":"42.192772,-120.356418","brandsList":["ford"]},{"id":16931,"crm_id":999,"name":"Lithia Chrysler Dodge Jeep RAM of Portland","dealerSlug":"lithia+chrysler+dodge+jeep+ram+of+portland","city_state_slug":"Portland.OR","brand":"Chrysler,Dodge,Jeep,RAM","website":"www.portlandjeep.com","address":"633 NE 12th Ave","city":"Portland","state":"OR","zip":97232,"latitude":45.527211,"longitude":-122.654094,"phone_number_service":"5037311400","phone_number_main":"","service_hours":"Mo-Sa 09:30 - 18:30 | Su 10:15 - 17:45","utc_offset":"","gplace_id":0,"gplace_url":"","dealerID":61472,"trusted":false,"image_id":"v1597283975/chrysler_RM.png","phone":"5037311400","cityStateSlug":"portland.or","slug":"Portland.OR/lithia+chrysler+dodge+jeep+ram+of+portland","location":"45.527211,-122.654094","brandsList":["chrysler","dodge","jeep","ram"]},{"id":16601,"crm_id":999,"name":"Hermiston Chrysler Dodge Jeep RAM","dealerSlug":"hermiston+chrysler+dodge+jeep+ram","city_state_slug":"Hermiston.OR","brand":"Chrysler,Dodge,Jeep,RAM","website":"www.hermistonchryslerdodgejeepram.com","address":"81143 US Hwy 395","city":"Hermiston","state":"OR","zip":97838,"latitude":45.886208,"longitude":-119.295881,"phone_number_service":"5415675555","phone_number_main":"","service_hours":"Mo-Sa 09:00 - 19:00 | Su 11:00 - 17:00","utc_offset":"","gplace_id":0,"gplace_url":"","dealerID":61604,"trusted":false,"image_id":"v1597283975/chrysler_RM.png","phone":"5415675555","cityStateSlug":"hermiston.or","slug":"Hermiston.OR/hermiston+chrysler+dodge+jeep+ram","location":"45.886208,-119.295881","brandsList":["chrysler","dodge","jeep","ram"]},{"id":17868,"crm_id":999,"name":"Wilsonville Subaru","dealerSlug":"wilsonville+subaru","city_state_slug":"Wilsonville.OR","brand":"Subaru","website":"WilsonvilleSubaru.dealer.subaru.com","address":"9200 SW Bailey Street","city":"Wilsonville","state":"OR","zip":97070,"latitude":45.299755,"longitude":-122.771126,"phone_number_service":"4258211777","phone_number_main":"","service_hours":"","utc_offset":"","gplace_id":0,"gplace_url":"","dealerID":61682,"trusted":false,"image_id":"v1597283982/subaru_ms.png","phone":"4258211777","cityStateSlug":"wilsonville.or","slug":"Wilsonville.OR/wilsonville+subaru","location":"45.299755,-122.771126","brandsList":["subaru"]},{"id":17633,"crm_id":999,"name":"Sunset Imports","dealerSlug":"sunset+imports","city_state_slug":"Portland.OR","brand":"Audi","website":"audiserviceportland.com","address":"Ne Airport Way Ste 100 14811","city":"Portland","state":"OR","zip":97230,"latitude":45.5600018,"longitude":-122.5097752,"phone_number_service":"8882958415","phone_number_main":"","service_hours":"","utc_offset":"","gplace_id":0,"gplace_url":"","dealerID":61744,"trusted":false,"image_id":"v1597283985/audi_RM.png","phone":"8882958415","cityStateSlug":"portland.or","slug":"Portland.OR/sunset+imports","location":"45.5600018,-122.5097752","brandsList":["audi"]},{"id":15049,"crm_id":51914005,"name":"Volkswagen of Salem","dealerSlug":"volkswagen+of+salem","city_state_slug":"Salem.OR","brand":"Volkswagen","website":"www.vwofsalem.com","address":"3335 Del Webb Ave NE","city":"Salem","state":"OR","zip":97301,"latitude":44.973176,"longitude":-123.0180627,"phone_number_service":"8664144147","phone_number_main":"5034006307","service_hours":"Mo-Fr 07:00 - 18:00 | Sa 08:00 - 17:00","utc_offset":"-420","gplace_id":null,"gplace_url":"https://maps.google.com/?cid=11290347677623245243","dealerID":50155,"trusted":true,"image_id":"v1597283902/volkswagen.png","phone":"8664144147","cityStateSlug":"salem.or","slug":"Salem.OR/volkswagen+of+salem","location":"44.973176,-123.0180627","brandsList":["volkswagen"]},{"id":12569,"crm_id":51925090,"name":"Ron Tonkin Chevrolet","dealerSlug":"ron+tonkin+chevrolet","city_state_slug":"Portland.OR","brand":"Chevrolet","website":"www.tonkinchevy.com","address":"122 NE 122nd Ave","city":"Portland","state":"OR","zip":97230,"latitude":45.5238165,"longitude":-122.5366513,"phone_number_service":"5032554100","phone_number_main":"5032554100","service_hours":"Mo-Fr 07:00 - 18:00 | Sa 08:00 - 17:00","utc_offset":"-420","gplace_id":null,"gplace_url":"https://maps.google.com/?cid=16544024152939391396","dealerID":61905,"trusted":false,"image_id":"v1597284079/chevy_ms.png","phone":"5032554100","cityStateSlug":"portland.or","slug":"Portland.OR/ron+tonkin+chevrolet","location":"45.5238165,-122.5366513","brandsList":["chevrolet"]},{"id":13763,"crm_id":51927001,"name":"Subaru of Corvallis","dealerSlug":"subaru+of+corvallis","city_state_slug":"Corvallis.OR","brand":"Subaru","website":"www.subaruofcorvallis.com","address":"800 NW 5th St","city":"Corvallis","state":"OR","zip":97330,"latitude":44.5722209,"longitude":-123.2597932,"phone_number_service":"8558079880","phone_number_main":"5417541515","service_hours":"Mo-Fr 07:00 - 18:00 | Sa 08:00 - 16:00","utc_offset":"-420","gplace_id":null,"gplace_url":"https://maps.google.com/?cid=17365776499297451323","dealerID":62178,"trusted":false,"image_id":"v1597283982/subaru_ms.png","phone":"8558079880","cityStateSlug":"corvallis.or","slug":"Corvallis.OR/subaru+of+corvallis","location":"44.5722209,-123.2597932","brandsList":["subaru"]},{"id":685,"crm_id":51928210,"name":"Audi Wilsonville","dealerSlug":"audi+wilsonville","city_state_slug":"Wilsonville.OR","brand":"Audi","website":"www.audiwilsonville.com","address":"26600 SW 95th Ave","city":"Wilsonville","state":"OR","zip":97070,"latitude":45.3271767,"longitude":-122.7717383,"phone_number_service":"8888063446","phone_number_main":"5032542834","service_hours":"Mo-Sa 07:30 - 18:00","utc_offset":"-420","gplace_id":null,"gplace_url":"https://maps.google.com/?cid=1969430124626666922","dealerID":62250,"trusted":false,"image_id":"v1597283985/audi_RM.png","phone":"8888063446","cityStateSlug":"wilsonville.or","slug":"Wilsonville.OR/audi+wilsonville","location":"45.3271767,-122.7717383","brandsList":["audi"]},{"id":10884,"crm_id":60122686,"name":"Northwest Jeep Chrysler Dodge RAM","dealerSlug":"northwest+jeep+chrysler+dodge+ram","city_state_slug":"Beaverton.OR","brand":"Chrysler,Dodge,Jeep,RAM","website":"www.nwjeep.com","address":"10600 SW Canyon Rd","city":"Beaverton","state":"OR","zip":97005,"latitude":45.4918804,"longitude":-122.7856337,"phone_number_service":"5033890977","phone_number_main":"5036465111","service_hours":"Mo-Fr 07:00 - 17:00","utc_offset":"-420","gplace_id":null,"gplace_url":"https://maps.google.com/?cid=16866379726379987593","dealerID":52138,"trusted":true,"image_id":"v1597283975/chrysler_RM.png","phone":"5033890977","cityStateSlug":"beaverton.or","slug":"Beaverton.OR/northwest+jeep+chrysler+dodge+ram","location":"45.4918804,-122.7856337","brandsList":["chrysler","dodge","jeep","ram"]},{"id":10993,"crm_id":60526801,"name":"Ontario Auto Ranch Ford","dealerSlug":"ontario+auto+ranch+ford","city_state_slug":"Ontario.OR","brand":"Ford","website":"www.ontarioford.net","address":"1802 SW 4th Ave","city":"Ontario","state":"OR","zip":97914,"latitude":44.024265,"longitude":-116.9911546,"phone_number_service":"8665380782","phone_number_main":"5418899694","service_hours":"Mo-Fr 07:30 - 17:30 | Sa 08:00 - 15:00","utc_offset":"-360","gplace_id":null,"gplace_url":"https://maps.google.com/?cid=8747199740136621028","dealerID":62458,"trusted":false,"image_id":"v1597283967/ford_RM.png","phone":"8665380782","cityStateSlug":"ontario.or","slug":"Ontario.OR/ontario+auto+ranch+ford","location":"44.024265,-116.9911546","brandsList":["ford"]},{"id":8861,"crm_id":60526834,"name":"Lithia Chrysler Dodge Jeep RAM FIAT of Eugene","dealerSlug":"lithia+chrysler+dodge+jeep+ram+fiat+of+eugene","city_state_slug":"Eugene.OR","brand":"Chrysler,Dodge,Jeep,RAM,Fiat","website":"www.lithiadodgeeugene.com","address":"2121 Martin Luther King Jr Blvd","city":"Eugene","state":"OR","zip":97401,"latitude":44.0600635,"longitude":-123.0792018,"phone_number_service":"8444983352","phone_number_main":"5412255431","service_hours":"Mo-Fr 07:30 - 18:00 | Sa 08:00 - 16:00","utc_offset":"-420","gplace_id":null,"gplace_url":"https://maps.google.com/?cid=7707484046804489356","dealerID":62463,"trusted":false,"image_id":"v1597283975/chrysler_RM.png","phone":"8444983352","cityStateSlug":"eugene.or","slug":"Eugene.OR/lithia+chrysler+dodge+jeep+ram+fiat+of+eugene","location":"44.0600635,-123.0792018","brandsList":["chrysler","dodge","jeep","ram","fiat"]},{"id":2522,"crm_id":67031917,"name":"Capitol Subaru","dealerSlug":"capitol+subaru","city_state_slug":"Salem.OR","brand":"Subaru","website":"www.capitolsubaru.com","address":"3235 Cherry Ave NE","city":"Salem","state":"OR","zip":97301,"latitude":44.9720929,"longitude":-123.0222666,"phone_number_service":"8773893679","phone_number_main":"5035763300","service_hours":"Mo-Fr 07:00 - 18:00 | Sa 08:00 - 17:00","utc_offset":"-420","gplace_id":null,"gplace_url":"https://maps.google.com/?cid=6170247808073824733","dealerID":62732,"trusted":false,"image_id":"v1597283982/subaru_ms.png","phone":"8773893679","cityStateSlug":"salem.or","slug":"Salem.OR/capitol+subaru","location":"44.9720929,-123.0222666","brandsList":["subaru"]},{"id":1161,"crm_id":67032025,"name":"Beaverton Kia","dealerSlug":"beaverton+kia","city_state_slug":"Beaverton.OR","brand":"Kia","website":"www.beavertonkia.com","address":"12520 SW Canyon Rd","city":"Beaverton","state":"OR","zip":97005,"latitude":45.4882354,"longitude":-122.8055233,"phone_number_service":"5035675889","phone_number_main":"5035262131","service_hours":"Mo-Fr 07:00 - 18:00 | Sa 08:00 - 17:00","utc_offset":"-420","gplace_id":null,"gplace_url":"https://maps.google.com/?cid=110798123743219123","dealerID":62762,"trusted":false,"image_id":"v1597283948/kia_RM.png","phone":"5035675889","cityStateSlug":"beaverton.or","slug":"Beaverton.OR/beaverton+kia","location":"45.4882354,-122.8055233","brandsList":["kia"]},{"id":5862,"crm_id":67032682,"name":"Gresham Ford","dealerSlug":"gresham+ford","city_state_slug":"Gresham.OR","brand":"Ford","website":"greshamford.com","address":"1999 Powell Blvd","city":"Gresham","state":"OR","zip":97080,"latitude":45.4955561,"longitude":-122.4108979,"phone_number_service":"5033893945","phone_number_main":"5036650101","service_hours":"Mo-Fr 07:00 - 18:00| Sa 08:00 - 16:00","utc_offset":"-420","gplace_id":null,"gplace_url":"https://maps.google.com/?cid=967793047228038285","dealerID":62951,"trusted":false,"image_id":"v1597283967/ford_RM.png","phone":"5033893945","cityStateSlug":"gresham.or","slug":"Gresham.OR/gresham+ford","location":"45.4955561,-122.4108979","brandsList":["ford"]},{"id":1328,"crm_id":67032694,"name":"Bernie Bishop Mazda","dealerSlug":"bernie+bishop+mazda","city_state_slug":"Brookings.OR","brand":"Mazda","website":"bbmazda.com","address":"365 Wharf St","city":"Brookings","state":"OR","zip":97415,"latitude":42.0516949,"longitude":-124.2827326,"phone_number_service":"8007073126","phone_number_main":"5414693126","service_hours":"Mo-Fr 08:00 - 17:00 | Sa 08:00 - 16:00","utc_offset":"-420","gplace_id":null,"gplace_url":"https://maps.google.com/?cid=4699189396877894878","dealerID":62955,"trusted":false,"image_id":"v1597283937/mazda.png","phone":"8007073126","cityStateSlug":"brookings.or","slug":"Brookings.OR/bernie+bishop+mazda","location":"42.0516949,-124.2827326","brandsList":["mazda"]},{"id":14388,"crm_id":67032781,"name":"Tower Ford","dealerSlug":"tower+ford","city_state_slug":"Coos-Bay.OR","brand":"Ford,Lincoln","website":"www.towerford.com/","address":"505 SOUTH BROADWAY","city":"Coos Bay","state":"OR","zip":97420,"latitude":43.3643924,"longitude":-124.2159801,"phone_number_service":"8884643450","phone_number_main":"5164666400","service_hours":"Mo-Fr 07:30 - 17:00","utc_offset":"-240","gplace_id":null,"gplace_url":"https://maps.google.com/?cid=9022869268242030804","dealerID":50668,"trusted":true,"image_id":"v1597283967/ford_RM.png","phone":"8884643450","cityStateSlug":"coos-bay.or","slug":"Coos-Bay.OR/tower+ford","location":"43.3643924,-124.2159801","brandsList":["ford","lincoln"]},{"id":3348,"crm_id":67034176,"name":"Cottage Grove Chevrolet","dealerSlug":"cottage+grove+chevrolet","city_state_slug":"Cottage-Grove.OR","brand":"Chevrolet","website":"www.bradschevy.com","address":"2775 Row River Rd","city":"Cottage Grove","state":"OR","zip":97424,"latitude":43.7974894,"longitude":-123.0382023,"phone_number_service":"8666627749","phone_number_main":"8666627749","service_hours":"Mo-Fr 08:00 - 17:00","utc_offset":"-420","gplace_id":null,"gplace_url":"https://maps.google.com/?cid=17592764869003268450","dealerID":63359,"trusted":false,"image_id":"v1597284079/chevy_ms.png","phone":"8666627749","cityStateSlug":"cottage-grove.or","slug":"Cottage-Grove.OR/cottage+grove+chevrolet","location":"43.7974894,-123.0382023","brandsList":["chevrolet"]},{"id":8130,"crm_id":67034350,"name":"Kuni BMW","dealerSlug":"kuni+bmw","city_state_slug":"Beaverton.OR","brand":"BMW","website":"www.kunibmw.com","address":"10999 SW Canyon Rd","city":"Beaverton","state":"OR","zip":97005,"latitude":45.4921427,"longitude":-122.7887383,"phone_number_service":"5038280937","phone_number_main":"5038280936","service_hours":"Mo-Fr 07:00 - 18:00 | Sa 08:00 - 15:00","utc_offset":"-420","gplace_id":null,"gplace_url":"https://maps.google.com/?cid=10872621586748421137","dealerID":63410,"trusted":false,"image_id":"v1597283982/bmw_RM.png","phone":"5038280937","cityStateSlug":"beaverton.or","slug":"Beaverton.OR/kuni+bmw","location":"45.4921427,-122.7887383","brandsList":["bmw"]},{"id":14092,"crm_id":67035325,"name":"Team Kia of Bend","dealerSlug":"team+kia+of+bend","city_state_slug":"Bend.OR","brand":"Kia","website":"www.goteamkia.com/","address":"611 NE Purcell Blvd","city":"Bend","state":"OR","zip":97701,"latitude":44.0558874,"longitude":-121.2694518,"phone_number_service":"8887383148","phone_number_main":"","service_hours":"Mo-Fr 07:30 - 17:30 | Sa 08:00-16:00","utc_offset":"-420","gplace_id":null,"gplace_url":"https://maps.google.com/?cid=977486122852131520","dealerID":63678,"trusted":false,"image_id":"v1597283948/kia_RM.png","phone":"8887383148","cityStateSlug":"bend.or","slug":"Bend.OR/team+kia+of+bend","location":"44.0558874,-121.2694518","brandsList":["kia"]},{"id":1741,"crm_id":67035799,"name":"BMW of Salem","dealerSlug":"bmw+of+salem","city_state_slug":"Salem.OR","brand":"BMW","website":"www.bmwofsalem.com","address":"1151 Van Ness Ave NE","city":"Salem","state":"OR","zip":97301,"latitude":44.972475,"longitude":-123.018448,"phone_number_service":"8333710449","phone_number_main":"9717012709","service_hours":"Mo-Fr 07:30 - 18:00 | Sa 09:00 - 15:00","utc_offset":"-420","gplace_id":null,"gplace_url":"https://maps.google.com/?cid=6176600037283045566","dealerID":51793,"trusted":true,"image_id":"v1597283982/bmw_RM.png","phone":"8333710449","cityStateSlug":"salem.or","slug":"Salem.OR/bmw+of+salem","location":"44.972475,-123.018448","brandsList":["bmw"]},{"id":3078,"crm_id":67036201,"name":"Clint Newell Chevrolet, Buick, GMC","dealerSlug":"clint+newell+chevrolet+buick+gmc","city_state_slug":"Roseburg.OR","brand":"Buick,Chevrolet,GMC","website":"www.clintnewellchevrolet.com","address":"662 NE Garden Valley Blvd","city":"Roseburg","state":"OR","zip":97470,"latitude":43.226989,"longitude":-123.347766,"phone_number_service":"5416737000","phone_number_main":"5416737000","service_hours":"Mo-Fr 08:00 - 16:00","utc_offset":"-420","gplace_id":null,"gplace_url":"https://maps.google.com/?cid=17865909334962662895","dealerID":63911,"trusted":false,"image_id":"v1597283981/buick_RM.png","phone":"5416737000","cityStateSlug":"roseburg.or","slug":"Roseburg.OR/clint+newell+chevrolet+buick+gmc","location":"43.226989,-123.347766","brandsList":["buick","chevrolet","gmc"]},{"id":2366,"crm_id":67036477,"name":"Butler Ford","dealerSlug":"butler+ford","city_state_slug":"Ashland.OR","brand":"Ford","website":"www.butlerford.com","address":"1977 Hwy 99 North","city":"Ashland","state":"OR","zip":97520,"latitude":42.2187283,"longitude":-122.7387023,"phone_number_service":"5412930951","phone_number_main":"5414822521","service_hours":"Mo-Sa 07:30 - 17:30","utc_offset":"-420","gplace_id":null,"gplace_url":"https://maps.google.com/?cid=12103283403906207638","dealerID":63992,"trusted":false,"image_id":"v1597283967/ford_RM.png","phone":"5412930951","cityStateSlug":"ashland.or","slug":"Ashland.OR/butler+ford","location":"42.2187283,-122.7387023","brandsList":["ford"]},{"id":8331,"crm_id":67036681,"name":"Land Rover Portland","dealerSlug":"land+rover+portland","city_state_slug":"Portland.OR","brand":"Land Rover","website":"www.landroverportland.com","address":"10125 SW Washington Square Rd","city":"Portland","state":"OR","zip":97223,"latitude":45.4446153,"longitude":-122.7781268,"phone_number_service":"5032307700","phone_number_main":"5032307700","service_hours":"Mo  | Tu 08:00 - 18:00 | We 08:00 - 18:00 | Th 08:00 - 18:00 | Fr 08:00 - 18:00","utc_offset":"-420","gplace_id":null,"gplace_url":"https://maps.google.com/?cid=10368113975178144906","dealerID":64048,"trusted":false,"image_id":"v1597283945/landrover_RM.png","phone":"5032307700","cityStateSlug":"portland.or","slug":"Portland.OR/land+rover+portland","location":"45.4446153,-122.7781268","brandsList":["land rover"]},{"id":10744,"crm_id":67036750,"name":"Nissan of Salem","dealerSlug":"nissan+of+salem","city_state_slug":"Salem.OR","brand":"Nissan","website":"www.nissansalem.com","address":"2755 Mission St SE","city":"Salem","state":"OR","zip":97302,"latitude":44.9217586,"longitude":-123.0060266,"phone_number_service":"9715992106","phone_number_main":"5035813849","service_hours":"Mo-Fr 07:00 - 18:00 | Sa 08:00 - 17:00","utc_offset":"-420","gplace_id":null,"gplace_url":"https://maps.google.com/?cid=5774241850705287704","dealerID":64069,"trusted":false,"image_id":"v1597283926/nissan_RM.png","phone":"9715992106","cityStateSlug":"salem.or","slug":"Salem.OR/nissan+of+salem","location":"44.9217586,-123.0060266","brandsList":["nissan"]},{"id":8493,"crm_id":67036762,"name":"Lassen Toyota","dealerSlug":"lassen+toyota","city_state_slug":"Albany.OR","brand":"Toyota","website":"www.lassentoyota.com","address":"1205 Price Rd SE","city":"Albany","state":"OR","zip":97322,"latitude":44.6299788,"longitude":-123.055798,"phone_number_service":"5419264236","phone_number_main":"5419264236","service_hours":"Mo-Fr 07:30 - 17:00","utc_offset":"-420","gplace_id":null,"gplace_url":"https://maps.google.com/?cid=14721628000479505073","dealerID":64072,"trusted":false,"image_id":"v1597284039/toyota_ms.png","phone":"5419264236","cityStateSlug":"albany.or","slug":"Albany.OR/lassen+toyota","location":"44.6299788,-123.055798","brandsList":["toyota"]},{"id":11887,"crm_id":67037119,"name":"Primasing Motors","dealerSlug":"primasing+motors","city_state_slug":"Lebanon.OR","brand":"Buick,Chevrolet,GMC","website":"www.primasingmotors.com","address":"1211 S Main St","city":"Lebanon","state":"OR","zip":97355,"latitude":44.5338187,"longitude":-122.9065418,"phone_number_service":"8665218017","phone_number_main":"5412588191","service_hours":"Mo-Fr 07:30 - 17:30","utc_offset":"-420","gplace_id":null,"gplace_url":"https://maps.google.com/?cid=18087345387760045296","dealerID":64169,"trusted":false,"image_id":"v1597283981/buick_RM.png","phone":"8665218017","cityStateSlug":"lebanon.or","slug":"Lebanon.OR/primasing+motors","location":"44.5338187,-122.9065418","brandsList":["buick","chevrolet","gmc"]},{"id":9596,"crm_id":67037803,"name":"McMinnville Toyota","dealerSlug":"mcminnville+toyota","city_state_slug":"McMinnville.OR","brand":"Toyota","website":"www.mcminnvilletoyota.com","address":"3142 NE Doran Dr","city":"McMinnville","state":"OR","zip":97128,"latitude":45.23195,"longitude":-123.167687,"phone_number_service":"5036872171","phone_number_main":"5034724657","service_hours":"Mo-Fr 08:00 - 17:00","utc_offset":"-420","gplace_id":null,"gplace_url":"https://maps.google.com/?cid=1721004041370683818","dealerID":64363,"trusted":false,"image_id":"v1597284039/toyota_ms.png","phone":"5036872171","cityStateSlug":"mcminnville.or","slug":"McMinnville.OR/mcminnville+toyota","location":"45.23195,-123.167687","brandsList":["toyota"]},{"id":11797,"crm_id":67038544,"name":"Power Honda","dealerSlug":"power+honda","city_state_slug":"Albany.OR","brand":"Honda","website":"www.mypowerhonda.com","address":"4120 Santiam Hwy SE","city":"Albany","state":"OR","zip":97322,"latitude":44.6286798,"longitude":-123.0527947,"phone_number_service":"5412070413","phone_number_main":"5412070317","service_hours":"Mo-Fr 07:30 - 17:30 | Sa 08:00 - 16:00","utc_offset":"-420","gplace_id":null,"gplace_url":"https://maps.google.com/?cid=1668205266846548104","dealerID":64568,"trusted":false,"image_id":"v1597284047/honda_ms.png","phone":"5412070413","cityStateSlug":"albany.or","slug":"Albany.OR/power+honda","location":"44.6286798,-123.0527947","brandsList":["honda"]},{"id":6558,"crm_id":67038625,"name":"Hometown Toyota","dealerSlug":"hometown+toyota","city_state_slug":"Ontario.OR","brand":"Toyota,Scion","website":"hometowntoyota.com","address":"313 SE 13th St","city":"Ontario","state":"OR","zip":97914,"latitude":44.0225384,"longitude":-116.9466109,"phone_number_service":"8779400411","phone_number_main":"5418893151","service_hours":"Mo-Sa 08:00 - 17:00","utc_offset":"-360","gplace_id":null,"gplace_url":"https://maps.google.com/?cid=11682689689200025685","dealerID":64591,"trusted":false,"image_id":"v1597284039/toyota_ms.png","phone":"8779400411","cityStateSlug":"ontario.or","slug":"Ontario.OR/hometown+toyota","location":"44.0225384,-116.9466109","brandsList":["toyota","scion"]},{"id":13819,"crm_id":67039117,"name":"Suburban Ford","dealerSlug":"suburban+ford","city_state_slug":"Sandy.OR","brand":"Ford","website":"www.suburbanford.net","address":"37000 Highway 26","city":"Sandy","state":"OR","zip":97055,"latitude":45.4007599,"longitude":-122.2819368,"phone_number_service":"5036685513","phone_number_main":"5036685511","service_hours":"Mo-Fr  08:00 - 18:00","utc_offset":"-420","gplace_id":null,"gplace_url":"https://maps.google.com/?cid=1862012961989269136","dealerID":64726,"trusted":false,"image_id":"v1597283967/ford_RM.png","phone":"5036685513","cityStateSlug":"sandy.or","slug":"Sandy.OR/suburban+ford","location":"45.4007599,-122.2819368","brandsList":["ford"]},{"id":7957,"crm_id":67039171,"name":"Kiefer Mazda","dealerSlug":"kiefer+mazda","city_state_slug":"Eugene.OR","brand":"Mazda","website":"www.kiefermazda.com","address":"383 Goodpasture Island Rd","city":"Eugene","state":"OR","zip":97401,"latitude":44.0747576,"longitude":-123.1088073,"phone_number_service":"8555381107","phone_number_main":"5416868291","service_hours":"Mo-Fr 07:00-17:30 | Sa 08:00-16:00","utc_offset":"-420","gplace_id":null,"gplace_url":"https://maps.google.com/?cid=14587862486513610301","dealerID":64741,"trusted":false,"image_id":"v1597283937/mazda.png","phone":"8555381107","cityStateSlug":"eugene.or","slug":"Eugene.OR/kiefer+mazda","location":"44.0747576,-123.1088073","brandsList":["mazda"]},{"id":2940,"crm_id":67039504,"name":"Chuck Colvin Nissan","dealerSlug":"chuck+colvin+nissan","city_state_slug":"McMinnville.OR","brand":"Nissan","website":"www.colvinnissan.com","address":"1925 N Highway 99 W","city":"McMinnville","state":"OR","zip":97128,"latitude":45.2277338,"longitude":-123.1795112,"phone_number_service":"8885258317","phone_number_main":"5034726124","service_hours":"Mo-Fr 08:00 - 18:00","utc_offset":"-420","gplace_id":null,"gplace_url":"https://maps.google.com/?cid=6659516905939584663","dealerID":64829,"trusted":false,"image_id":"v1597283926/nissan_RM.png","phone":"8885258317","cityStateSlug":"mcminnville.or","slug":"McMinnville.OR/chuck+colvin+nissan","location":"45.2277338,-123.1795112","brandsList":["nissan"]},{"id":8482,"crm_id":67039567,"name":"Larsen Motor Company","dealerSlug":"larsen+motor+company","city_state_slug":"McMinnville.OR","brand":"Buick,Cadillac,GMC","website":"www.lumsbuickgmc.com","address":"830 NE Highway 99 W","city":"McMinnville","state":"OR","zip":97128,"latitude":45.2241697,"longitude":-123.1898744,"phone_number_service":"8662735176","phone_number_main":"8772148758","service_hours":"Mo-Fr 07:30 - 17:30 | Sa 08:00 - 17:00","utc_offset":"-420","gplace_id":null,"gplace_url":"https://maps.google.com/?cid=4530779060975574826","dealerID":64849,"trusted":false,"image_id":"v1597283981/buick_RM.png","phone":"8662735176","cityStateSlug":"mcminnville.or","slug":"McMinnville.OR/larsen+motor+company","location":"45.2241697,-123.1898744","brandsList":["buick","cadillac","gmc"]},{"id":11649,"crm_id":67040281,"name":"Porsche Beaverton","dealerSlug":"porsche+beaverton","city_state_slug":"Beaverton.OR","brand":"Porsche","website":"www.porschebeaverton.com","address":"13875 SW Tualatin Valley Hwy","city":"Beaverton","state":"OR","zip":97005,"latitude":45.4893904,"longitude":-122.8190508,"phone_number_service":"5037186040","phone_number_main":"5037186060","service_hours":"Mo-Fr 07:00 - 18:00 | Sa 08:00 - 17;00","utc_offset":"-420","gplace_id":null,"gplace_url":"https://maps.google.com/?cid=8847067470227908849","dealerID":65036,"trusted":false,"image_id":"v1597283919/porsche.jpg","phone":"5037186040","cityStateSlug":"beaverton.or","slug":"Beaverton.OR/porsche+beaverton","location":"45.4893904,-122.8190508","brandsList":["porsche"]},{"id":12573,"crm_id":67040302,"name":"Ron Tonkin Kia","dealerSlug":"ron+tonkin+kia","city_state_slug":"Gladstone.OR","brand":"Kia","website":"www.rontonkinkia.com","address":"19335 McLoughlin Blvd","city":"Gladstone","state":"OR","zip":97027,"latitude":45.3825523,"longitude":-122.6069996,"phone_number_service":"8449046761","phone_number_main":"5032585808","service_hours":"Mo-Fr  08:00 - 17:00","utc_offset":"-420","gplace_id":null,"gplace_url":"https://maps.google.com/?cid=10736323041466024613","dealerID":65043,"trusted":false,"image_id":"v1597283948/kia_RM.png","phone":"8449046761","cityStateSlug":"gladstone.or","slug":"Gladstone.OR/ron+tonkin+kia","location":"45.3825523,-122.6069996","brandsList":["kia"]},{"id":5864,"crm_id":67040431,"name":"Gresham Toyota","dealerSlug":"gresham+toyota","city_state_slug":"Gresham.OR","brand":"Toyota","website":"www.greshamtoyota.com","address":"950 NE Hogan Dr","city":"Gresham","state":"OR","zip":97030,"latitude":45.5039545,"longitude":-122.4130599,"phone_number_service":"8774589394","phone_number_main":"5034654646","service_hours":"Mo-Sa 7:00 - 18:00","utc_offset":"-420","gplace_id":null,"gplace_url":"https://maps.google.com/?cid=9672120868542313435","dealerID":51728,"trusted":true,"image_id":"v1597284039/toyota_ms.png","phone":"8774589394","cityStateSlug":"gresham.or","slug":"Gresham.OR/gresham+toyota","location":"45.5039545,-122.4130599","brandsList":["toyota"]},{"id":12568,"crm_id":67041097,"name":"Ron Tonkin Acura","dealerSlug":"ron+tonkin+acura","city_state_slug":"Portland.OR","brand":"Acura","website":"www.rontonkinacura.com","address":"9655 SW Canyon Rd","city":"Portland","state":"OR","zip":97225,"latitude":45.494508,"longitude":-122.775249,"phone_number_service":"5032920662","phone_number_main":"5032920662","service_hours":"Mo-Fr  08:00 - 17:00","utc_offset":"-420","gplace_id":null,"gplace_url":"https://maps.google.com/?cid=5084560546207231861","dealerID":65255,"trusted":false,"image_id":"v1597283988/acura.png","phone":"5032920662","cityStateSlug":"portland.or","slug":"Portland.OR/ron+tonkin+acura","location":"45.494508,-122.775249","brandsList":["acura"]},{"id":11793,"crm_id":67041346,"name":"Power Chevrolet","dealerSlug":"power+chevrolet","city_state_slug":"Sublimity.OR","brand":"Chevrolet","website":"www.powerchevrolet.com","address":"500 SW Sublimity Blvd","city":"Sublimity","state":"OR","zip":97385,"latitude":44.8198585,"longitude":-122.7991409,"phone_number_service":"8665788134","phone_number_main":"5037697691","service_hours":"Mo-Fr 07:00 - 18:00 | Sa 08:00 - 13:00","utc_offset":"-420","gplace_id":null,"gplace_url":"https://maps.google.com/?cid=6005422221193087606","dealerID":65318,"trusted":false,"image_id":"v1597284079/chevy_ms.png","phone":"8665788134","cityStateSlug":"sublimity.or","slug":"Sublimity.OR/power+chevrolet","location":"44.8198585,-122.7991409","brandsList":["chevrolet"]},{"id":8902,"crm_id":67041436,"name":"Lithia Subaru of Oregon City","dealerSlug":"lithia+subaru+of+oregon+city","city_state_slug":"Oregon-City.OR","brand":"Subaru","website":"www.oregoncitysubaru.com","address":"1404 Main St","city":"Oregon City","state":"OR","zip":97045,"latitude":45.3624452,"longitude":-122.6012746,"phone_number_service":"8883478035","phone_number_main":"5033441338","service_hours":"Mo-Fr 07:30 - 18:00 | Sa 08:00 - 16:00","utc_offset":"-420","gplace_id":null,"gplace_url":"https://maps.google.com/?cid=345036194256320993","dealerID":65336,"trusted":false,"image_id":"v1597283982/subaru_ms.png","phone":"8883478035","cityStateSlug":"oregon-city.or","slug":"Oregon-City.OR/lithia+subaru+of+oregon+city","location":"45.3624452,-122.6012746","brandsList":["subaru"]},{"id":8875,"crm_id":67041553,"name":"Lithia Chrysler Jeep Dodge RAM of Klamath Falls","dealerSlug":"lithia+chrysler+jeep+dodge+ram+of+klamath+falls","city_state_slug":"Klamath-Falls.OR","brand":"Chrysler,Dodge,Jeep,RAM","website":"www.lithiaklamathfalls.com","address":"2675 Washburn Way","city":"Klamath Falls","state":"OR","zip":97603,"latitude":42.2036096,"longitude":-121.7559779,"phone_number_service":"8444527943","phone_number_main":"5412054486","service_hours":"Mo-Fr 07:30 - 17:30 | Sa 08:00 - 16:00","utc_offset":"-420","gplace_id":null,"gplace_url":"https://maps.google.com/?cid=3425030944107906282","dealerID":65366,"trusted":false,"image_id":"v1597283975/chrysler_RM.png","phone":"8444527943","cityStateSlug":"klamath-falls.or","slug":"Klamath-Falls.OR/lithia+chrysler+jeep+dodge+ram+of+klamath+falls","location":"42.2036096,-121.7559779","brandsList":["chrysler","dodge","jeep","ram"]},{"id":8019,"crm_id":67041559,"name":"Klamath Falls Toyota","dealerSlug":"klamath+falls+toyota","city_state_slug":"Klamath-Falls.OR","brand":"Toyota","website":"www.klamathfallstoyota.com","address":"2121 Washburn Way","city":"Klamath Falls","state":"OR","zip":97603,"latitude":42.207554,"longitude":-121.754726,"phone_number_service":"8884607909","phone_number_main":"5412054263","service_hours":"Mo-Fr 07:30 - 18:00 | Sa 07:30 - 17:30","utc_offset":"-420","gplace_id":null,"gplace_url":"https://maps.google.com/?cid=17987652957943346257","dealerID":65367,"trusted":false,"image_id":"v1597284039/toyota_ms.png","phone":"8884607909","cityStateSlug":"klamath-falls.or","slug":"Klamath-Falls.OR/klamath+falls+toyota","location":"42.207554,-121.754726","brandsList":["toyota"]},{"id":12414,"crm_id":67042204,"name":"Robberson Mazda","dealerSlug":"robberson+mazda","city_state_slug":"Bend.OR","brand":"Mazda","website":"www.robbersonmazda.com","address":"2100 NE 3rd St","city":"Bend","state":"OR","zip":97701,"latitude":44.0717375,"longitude":-121.3015279,"phone_number_service":"8778855228","phone_number_main":"8778849223","service_hours":"Mo-Fr 07:00 - 17:30 | Sa 08:00 - 17:00","utc_offset":"-420","gplace_id":null,"gplace_url":"https://maps.google.com/?cid=11287597005810652980","dealerID":65539,"trusted":false,"image_id":"v1597283937/mazda.png","phone":"8778855228","cityStateSlug":"bend.or","slug":"Bend.OR/robberson+mazda","location":"44.0717375,-121.3015279","brandsList":["mazda"]},{"id":14523,"crm_id":67042597,"name":"Toyota of Portland","dealerSlug":"toyota+of+portland","city_state_slug":"Portland.OR","brand":"Toyota","website":"www.toyotaofportland.com","address":"55 NE Broadway St","city":"Portland","state":"OR","zip":97232,"latitude":45.5357354,"longitude":-122.6653771,"phone_number_service":"5038027650","phone_number_main":"5032841105","service_hours":"Mo-Sa 7:00 - 18:00","utc_offset":"-420","gplace_id":null,"gplace_url":"https://maps.google.com/?cid=4423245525434672851","dealerID":65650,"trusted":false,"image_id":"v1597284039/toyota_ms.png","phone":"5038027650","cityStateSlug":"portland.or","slug":"Portland.OR/toyota+of+portland","location":"45.5357354,-122.6653771","brandsList":["toyota"]},{"id":7956,"crm_id":67042678,"name":"Kiefer Kia","dealerSlug":"kiefer+kia","city_state_slug":"Eugene.OR","brand":"Kia","website":"www.kieferkia.com","address":"1810 W 7th Ave","city":"Eugene","state":"OR","zip":97402,"latitude":44.0519031,"longitude":-123.1206009,"phone_number_service":"8445418725","phone_number_main":"8332366104","service_hours":"Mo-Fr 07:30 - 17:30 | Sa 08:00 - 17:00","utc_offset":"-420","gplace_id":null,"gplace_url":"https://maps.google.com/?cid=3797998159642342660","dealerID":65674,"trusted":false,"image_id":"v1597283948/kia_RM.png","phone":"8445418725","cityStateSlug":"eugene.or","slug":"Eugene.OR/kiefer+kia","location":"44.0519031,-123.1206009","brandsList":["kia"]},{"id":13758,"crm_id":67042708,"name":"Subaru of Bend","dealerSlug":"subaru+of+bend","city_state_slug":"Bend.OR","brand":"Subaru","website":"www.subaruofbend.com","address":"2060 NE Hwy 20","city":"Bend","state":"OR","zip":97701,"latitude":44.0555436,"longitude":-121.2724216,"phone_number_service":"8885214102","phone_number_main":"5413893031","service_hours":"Mo-Sa 7:30-18:00","utc_offset":"-420","gplace_id":null,"gplace_url":"https://maps.google.com/?cid=8898733643828429909","dealerID":65680,"trusted":false,"image_id":"v1597283982/subaru_ms.png","phone":"8885214102","cityStateSlug":"bend.or","slug":"Bend.OR/subaru+of+bend","location":"44.0555436,-121.2724216","brandsList":["subaru"]},{"id":6476,"crm_id":67042882,"name":"Hillyer's Mid-City Ford","dealerSlug":"hillyers+mid+city+ford","city_state_slug":"Woodburn.OR","brand":"Ford","website":"www.hillyersford.net/","address":"3000 Hillyer Ln","city":"Woodburn","state":"OR","zip":97071,"latitude":45.1500452,"longitude":-122.8837701,"phone_number_service":"8003074447","phone_number_main":"5039814747","service_hours":"Mo-Fr 07:30 - 18:00","utc_offset":"-420","gplace_id":null,"gplace_url":"https://maps.google.com/?cid=14041766476232457309","dealerID":65729,"trusted":false,"image_id":"v1597283967/ford_RM.png","phone":"8003074447","cityStateSlug":"woodburn.or","slug":"Woodburn.OR/hillyers+mid+city+ford","location":"45.1500452,-122.8837701","brandsList":["ford"]},{"id":7386,"crm_id":67043536,"name":"Jim Doran Chevrolet","dealerSlug":"jim+doran+chevrolet","city_state_slug":"McMinnville.OR","brand":"Chevrolet","website":"www.doranchev.com","address":"1315 NE 3rd St","city":"McMinnville","state":"OR","zip":97128,"latitude":45.2098677,"longitude":-123.1850816,"phone_number_service":"5033766373","phone_number_main":"5034720383","service_hours":"Mo-Fr 07:30 - 17:00","utc_offset":"-420","gplace_id":null,"gplace_url":"https://maps.google.com/?cid=7382453345206738883","dealerID":65914,"trusted":false,"image_id":"v1597284079/chevy_ms.png","phone":"5033766373","cityStateSlug":"mcminnville.or","slug":"McMinnville.OR/jim+doran+chevrolet","location":"45.2098677,-123.1850816","brandsList":["chevrolet"]},{"id":8388,"crm_id":67044031,"name":"Landmark Ford Lincoln","dealerSlug":"landmark+ford+lincoln","city_state_slug":"Tigard.OR","brand":"Ford,Lincoln","website":"www.landmarkford.com","address":"12000 SW 66th Ave","city":"Tigard","state":"OR","zip":97223,"latitude":45.4323669,"longitude":-122.74534,"phone_number_service":"5036391131","phone_number_main":"5036391131","service_hours":"Mo 07:00 - 24:00 | Tu 06:00 - 24:00 | We 06:00 - 24:00 | Th 06:00 - 24:00 | Fr 06:00 - 24:00 | Sa 08:00 - 16:30","utc_offset":"-420","gplace_id":null,"gplace_url":"https://maps.google.com/?cid=10692823025365258741","dealerID":66049,"trusted":false,"image_id":"v1597283967/ford_RM.png","phone":"5036391131","cityStateSlug":"tigard.or","slug":"Tigard.OR/landmark+ford+lincoln","location":"45.4323669,-122.74534","brandsList":["ford","lincoln"]},{"id":7812,"crm_id":67047409,"name":"Kendall Acura","dealerSlug":"kendall+acura","city_state_slug":"Eugene.OR","brand":"Acura","website":"www.kendallacuraofeugene.com","address":"846 Goodpasture Island Rd","city":"Eugene","state":"OR","zip":97401,"latitude":44.0856134,"longitude":-123.1062856,"phone_number_service":"5414856111","phone_number_main":"8559815511","service_hours":"Mo-Fr 07:30 - 17:00","utc_offset":"-420","gplace_id":null,"gplace_url":"https://maps.google.com/?cid=87971510601614330","dealerID":66945,"trusted":false,"image_id":"v1597283988/acura.png","phone":"5414856111","cityStateSlug":"eugene.or","slug":"Eugene.OR/kendall+acura","location":"44.0856134,-123.1062856","brandsList":["acura"]},{"id":7958,"crm_id":67047424,"name":"Kiefer Nissan of Corvallis","dealerSlug":"kiefer+nissan+of+corvallis","city_state_slug":"Corvallis.OR","brand":"Nissan","website":"kiefernissanofcorvallis.com","address":"900 NW 4th St","city":"Corvallis","state":"OR","zip":97330,"latitude":44.572516,"longitude":-123.258457,"phone_number_service":"8669381356","phone_number_main":"5417531694","service_hours":"Mo-Fr 07:30-17:30 | Sa 08:00-17:00","utc_offset":"-420","gplace_id":null,"gplace_url":"https://maps.google.com/?cid=2006098614884248794","dealerID":66950,"trusted":false,"image_id":"v1597283926/nissan_RM.png","phone":"8669381356","cityStateSlug":"corvallis.or","slug":"Corvallis.OR/kiefer+nissan+of+corvallis","location":"44.572516,-123.258457","brandsList":["nissan"]},{"id":11195,"crm_id":67048318,"name":"Parker Johnstone's Wilsonville Honda","dealerSlug":"parker+johnstones+wilsonville+honda","city_state_slug":"Wilsonville.OR","brand":"Honda","website":"www.wilsonvillehonda.com","address":"30600 SW Parkway Ave","city":"Wilsonville","state":"OR","zip":97070,"latitude":45.2986569,"longitude":-122.7679722,"phone_number_service":"5039803020","phone_number_main":"5039856958","service_hours":"Mo-Fr 07:00 - 19:00 | Sa 08:00 - 17:00 | Su 10:00 - 17:00","utc_offset":"-420","gplace_id":null,"gplace_url":"https://maps.google.com/?cid=3919978464027116550","dealerID":67190,"trusted":false,"image_id":"v1597284047/honda_ms.png","phone":"5039803020","cityStateSlug":"wilsonville.or","slug":"Wilsonville.OR/parker+johnstones+wilsonville+honda","location":"45.2986569,-122.7679722","brandsList":["honda"]},{"id":3313,"crm_id":67048642,"name":"Coos Bay Toyota","dealerSlug":"coos+bay+toyota","city_state_slug":"Coos-Bay.OR","brand":"Toyota","website":"www.coosbaytoyota.com","address":"2001 N Bayshore Dr","city":"Coos Bay","state":"OR","zip":97420,"latitude":43.3822568,"longitude":-124.2206797,"phone_number_service":"5412673121","phone_number_main":"5412673121","service_hours":"Mo-Fr 08:00 - 17:00","utc_offset":"-420","gplace_id":null,"gplace_url":"https://maps.google.com/?cid=12239173059320046801","dealerID":67267,"trusted":false,"image_id":"v1597284039/toyota_ms.png","phone":"5412673121","cityStateSlug":"coos-bay.or","slug":"Coos-Bay.OR/coos+bay+toyota","location":"43.3822568,-124.2206797","brandsList":["toyota"]},{"id":9104,"crm_id":67049599,"name":"M J Goss Motor Company","dealerSlug":"m+j+goss+motor+company","city_state_slug":"La-Grande.OR","brand":"Buick,Chevrolet,GMC","website":"www.gossmotors.com","address":"1415 Adams Ave","city":"La Grande","state":"OR","zip":97850,"latitude":45.3266164,"longitude":-118.0914878,"phone_number_service":"5416634131","phone_number_main":"5419634161","service_hours":"Mo-Fr 07:30 - 17:30","utc_offset":"-420","gplace_id":null,"gplace_url":"https://maps.google.com/?cid=165545142132696827","dealerID":67538,"trusted":false,"image_id":"v1597283981/buick_RM.png","phone":"5416634131","cityStateSlug":"la-grande.or","slug":"La-Grande.OR/m+j+goss+motor+company","location":"45.3266164,-118.0914878","brandsList":["buick","chevrolet","gmc"]},{"id":9616,"crm_id":67050025,"name":"Medford BMW","dealerSlug":"medford+bmw","city_state_slug":"Medford.OR","brand":"BMW","website":"www.medfordbmw.com","address":"4600 Grumman Dr","city":"Medford","state":"OR","zip":97504,"latitude":42.381075,"longitude":-122.8578423,"phone_number_service":"8886978608","phone_number_main":"5419303024","service_hours":"Mo-Fr 07:30 - 18:00 | Sa 07:30 - 18:00","utc_offset":"-420","gplace_id":null,"gplace_url":"https://maps.google.com/?cid=17440960529572224324","dealerID":67656,"trusted":false,"image_id":"v1597283982/bmw_RM.png","phone":"8886978608","cityStateSlug":"medford.or","slug":"Medford.OR/medford+bmw","location":"42.381075,-122.8578423","brandsList":["bmw"]},{"id":7825,"crm_id":67050679,"name":"Kendall Lexus of Eugene","dealerSlug":"kendall+lexus+of+eugene","city_state_slug":"Eugene.OR","brand":"Lexus","website":"www.kendalllexuseugene.com","address":"330 Goodpasture Island Rd","city":"Eugene","state":"OR","zip":97401,"latitude":44.0723943,"longitude":-123.1080733,"phone_number_service":"8778745725","phone_number_main":"8559815525","service_hours":"Mo-Fr 07:30 - 17:00","utc_offset":"-420","gplace_id":null,"gplace_url":"https://maps.google.com/?cid=15997623804517852659","dealerID":67839,"trusted":false,"image_id":"v1597284042/lexus_ms.png","phone":"8778745725","cityStateSlug":"eugene.or","slug":"Eugene.OR/kendall+lexus+of+eugene","location":"44.0723943,-123.1080733","brandsList":["lexus"]},{"id":4526,"crm_id":67051048,"name":"Emmert Motors","dealerSlug":"emmert+motors","city_state_slug":"Saint-Helens.OR","brand":"Buick,Chevrolet","website":"www.emmertmotors.com","address":"2175 Columbia Blvd","city":"Saint Helens","state":"OR","zip":97051,"latitude":45.8587711,"longitude":-122.8201852,"phone_number_service":"5034384143","phone_number_main":"5034384143","service_hours":"Mo-Fr 07:30 - 17:30","utc_offset":"-420","gplace_id":null,"gplace_url":"https://maps.google.com/?cid=13472051302255838687","dealerID":67936,"trusted":false,"image_id":"v1597283981/buick_RM.png","phone":"5034384143","cityStateSlug":"saint-helens.or","slug":"Saint-Helens.OR/emmert+motors","location":"45.8587711,-122.8201852","brandsList":["buick","chevrolet"]},{"id":2426,"crm_id":67051099,"name":"Cadillac of Portland","dealerSlug":"cadillac+of+portland","city_state_slug":"Portland.OR","brand":"Cadillac","website":"www.cadillacportland.com","address":"9141 SW Canyon Rd","city":"Portland","state":"OR","zip":97225,"latitude":45.4966711,"longitude":-122.7706276,"phone_number_service":"5032002535","phone_number_main":"9712854180","service_hours":"Mo-Fr 07:00 - 18:00 | Sa 07:00 - 16:00","utc_offset":"-420","gplace_id":null,"gplace_url":"https://maps.google.com/?cid=16147018089993018653","dealerID":67950,"trusted":false,"image_id":"v1597283980/cadillac.png","phone":"5032002535","cityStateSlug":"portland.or","slug":"Portland.OR/cadillac+of+portland","location":"45.4966711,-122.7706276","brandsList":["cadillac"]},{"id":11652,"crm_id":67051351,"name":"Porsche Bend","dealerSlug":"porsche+bend","city_state_slug":"Bend.OR","brand":"Porsche","website":"www.porschebend.com","address":"1055 SE 3rd St","city":"Bend","state":"OR","zip":97702,"latitude":44.0394566,"longitude":-121.3045107,"phone_number_service":"5413821711","phone_number_main":"8559828902","service_hours":"Mo-Fr 08:00 - 17:00","utc_offset":"-420","gplace_id":null,"gplace_url":"https://maps.google.com/?cid=13981028149340269539","dealerID":68021,"trusted":false,"image_id":"v1597283919/porsche.jpg","phone":"5413821711","cityStateSlug":"bend.or","slug":"Bend.OR/porsche+bend","location":"44.0394566,-121.3045107","brandsList":["porsche"]},{"id":1217,"crm_id":67052443,"name":"Bend Honda","dealerSlug":"bend+honda","city_state_slug":"Bend.OR","brand":"Honda","website":"www.bendhonda.com","address":"2225 NE Hwy 20","city":"Bend","state":"OR","zip":97701,"latitude":44.0542943,"longitude":-121.2696164,"phone_number_service":"5417976439","phone_number_main":"5417972054","service_hours":"Mo-Fr 07:30 - 17:30 | Sa 08:00 - 14:00","utc_offset":"-420","gplace_id":null,"gplace_url":"https://maps.google.com/?cid=10328836884227206933","dealerID":68315,"trusted":false,"image_id":"v1597284047/honda_ms.png","phone":"5417976439","cityStateSlug":"bend.or","slug":"Bend.OR/bend+honda","location":"44.0542943,-121.2696164","brandsList":["honda"]},{"id":4063,"crm_id":67053271,"name":"Doherty Ford","dealerSlug":"doherty+ford","city_state_slug":"Forest-Grove.OR","brand":"Ford","website":"www.doherty-ford.com","address":"4223 Pacific Ave","city":"Forest Grove","state":"OR","zip":97116,"latitude":45.5213668,"longitude":-123.0741631,"phone_number_service":"8779432558","phone_number_main":"5033573114","service_hours":"Mo-Fr 08:00 - 18:00","utc_offset":"-420","gplace_id":null,"gplace_url":"https://maps.google.com/?cid=11902917057162962346","dealerID":68548,"trusted":false,"image_id":"v1597283967/ford_RM.png","phone":"8779432558","cityStateSlug":"forest-grove.or","slug":"Forest-Grove.OR/doherty+ford","location":"45.5213668,-123.0741631","brandsList":["ford"]},{"id":15557,"crm_id":67053496,"name":"Wilsonville Toyota","dealerSlug":"wilsonville+toyota","city_state_slug":"Wilsonville.OR","brand":"Toyota","website":"www.wilsonvilletoyota.com","address":"9155 Boeckman Rd","city":"Wilsonville","state":"OR","zip":97070,"latitude":45.3180556,"longitude":-122.7713889,"phone_number_service":"5035829040","phone_number_main":"5035829040","service_hours":"Mo-Sa 07:00 - 17:30","utc_offset":"-420","gplace_id":null,"gplace_url":"https://maps.google.com/?cid=12114541132733058760","dealerID":68609,"trusted":false,"image_id":"v1597284039/toyota_ms.png","phone":"5035829040","cityStateSlug":"wilsonville.or","slug":"Wilsonville.OR/wilsonville+toyota","location":"45.3180556,-122.7713889","brandsList":["toyota"]},{"id":2361,"crm_id":67053793,"name":"Butler Acura","dealerSlug":"butler+acura","city_state_slug":"Ashland.OR","brand":"Acura","website":"www.butleracura.com","address":"1899 Hwy 99 N.","city":"Ashland","state":"OR","zip":97520,"latitude":42.2184466,"longitude":-122.7380538,"phone_number_service":"5412295604","phone_number_main":"5414821489","service_hours":"Mo-Fr 07:30 - 17:30","utc_offset":"-420","gplace_id":null,"gplace_url":"https://maps.google.com/?cid=17602072056833641314","dealerID":68691,"trusted":false,"image_id":"v1597283988/acura.png","phone":"5412295604","cityStateSlug":"ashland.or","slug":"Ashland.OR/butler+acura","location":"42.2184466,-122.7380538","brandsList":["acura"]},{"id":8133,"crm_id":67053931,"name":"Kuni Lexus of Portland","dealerSlug":"kuni+lexus+of+portland","city_state_slug":"Portland.OR","brand":"Lexus","website":"www.kunilexusofportland.com","address":"8840 SW Canyon Rd","city":"Portland","state":"OR","zip":97225,"latitude":45.4972853,"longitude":-122.7674414,"phone_number_service":"5035362389","phone_number_main":"5035362389","service_hours":"Mo-Fr 07:00 - 18:00 | Sa 08:00 - 17:00","utc_offset":"-420","gplace_id":null,"gplace_url":"https://maps.google.com/?cid=17616594036071695742","dealerID":68731,"trusted":false,"image_id":"v1597284042/lexus_ms.png","phone":"5035362389","cityStateSlug":"portland.or","slug":"Portland.OR/kuni+lexus+of+portland","location":"45.4972853,-122.7674414","brandsList":["lexus"]},{"id":5409,"crm_id":67054615,"name":"Gary Gruner Chevrolet Buick GMC","dealerSlug":"gary+gruner+chevrolet+buick+gmc","city_state_slug":"Madras.OR","brand":"Buick,Chevrolet,GMC","website":"www.ggruner.com","address":"2000 S.W. Hwy. 26","city":"Madras","state":"OR","zip":97741,"latitude":44.6076453,"longitude":-121.1373203,"phone_number_service":"8662990644","phone_number_main":"5413168220","service_hours":"Mo-Fr 08:00 - 17:00","utc_offset":"-420","gplace_id":null,"gplace_url":"https://maps.google.com/?cid=4608846187825737559","dealerID":68918,"trusted":false,"image_id":"v1597283981/buick_RM.png","phone":"8662990644","cityStateSlug":"madras.or","slug":"Madras.OR/gary+gruner+chevrolet+buick+gmc","location":"44.6076453,-121.1373203","brandsList":["buick","chevrolet","gmc"]},{"id":8858,"crm_id":67054897,"name":"Lithia Chrysler Dodge Jeep RAM FIAT","dealerSlug":"lithia+chrysler+dodge+jeep+ram+fiat","city_state_slug":"Medford.OR","brand":"Chrysler,Dodge,Jeep,RAM,Fiat","website":"www.lithiachryslermedford.com","address":"4540 Grumman Dr","city":"Medford","state":"OR","zip":97504,"latitude":42.378638,"longitude":-122.857557,"phone_number_service":"8443923691","phone_number_main":"5419303023","service_hours":"Mo-Fr 07:00 - 18:00 | sa 07:00 - 18:00","utc_offset":"-420","gplace_id":null,"gplace_url":"https://maps.google.com/?cid=3958096081559020218","dealerID":68997,"trusted":false,"image_id":"v1597283975/chrysler_RM.png","phone":"8443923691","cityStateSlug":"medford.or","slug":"Medford.OR/lithia+chrysler+dodge+jeep+ram+fiat","location":"42.378638,-122.857557","brandsList":["chrysler","dodge","jeep","ram","fiat"]},{"id":12141,"crm_id":67055695,"name":"Ray Schultens Ford","dealerSlug":"ray+schultens+ford","city_state_slug":"The-Dalles.OR","brand":"Ford","website":"www.rayschultensford.com","address":"2400 W 6th St","city":"The Dalles","state":"OR","zip":97058,"latitude":45.6146684,"longitude":-121.210363,"phone_number_service":"8884813601","phone_number_main":"8009349835","service_hours":"Mo-Fr 06:00 - 18:00","utc_offset":"-420","gplace_id":null,"gplace_url":"https://maps.google.com/?cid=13950463798450455520","dealerID":69216,"trusted":false,"image_id":"v1597283967/ford_RM.png","phone":"8884813601","cityStateSlug":"the-dalles.or","slug":"The-Dalles.OR/ray+schultens+ford","location":"45.6146684,-121.210363","brandsList":["ford"]},{"id":10860,"crm_id":67056034,"name":"Northside Ford Truck Sales","dealerSlug":"northside+ford+truck+sales","city_state_slug":"Portland.OR","brand":"Ford","website":"www.northsideford.net","address":"6221 NE Columbia Blvd","city":"Portland","state":"OR","zip":97218,"latitude":45.5693283,"longitude":-122.5992279,"phone_number_service":"8006226670","phone_number_main":"5032827777","service_hours":"Mo-Fr 07:00 - 18:00","utc_offset":"-420","gplace_id":null,"gplace_url":"https://maps.google.com/?cid=12222454820775208127","dealerID":69304,"trusted":false,"image_id":"v1597283967/ford_RM.png","phone":"8006226670","cityStateSlug":"portland.or","slug":"Portland.OR/northside+ford+truck+sales","location":"45.5693283,-122.5992279","brandsList":["ford"]},{"id":9659,"crm_id":67056172,"name":"Mercedes Benz of Medford","dealerSlug":"mercedes+benz+of+medford","city_state_slug":"Medford.OR","brand":"Mercedes-Benz","website":"www.mbmedford.com","address":"3240 Crater Lake Ave","city":"Medford","state":"OR","zip":97504,"latitude":42.3644147,"longitude":-122.8548258,"phone_number_service":"5417741000","phone_number_main":"5417741000","service_hours":"Mo-Fr 07:30 - 18:00","utc_offset":"-420","gplace_id":null,"gplace_url":"https://maps.google.com/?cid=13040132486697418111","dealerID":50462,"trusted":true,"image_id":"v1597283934/mercedes_RM.png","phone":"5417741000","cityStateSlug":"medford.or","slug":"Medford.OR/mercedes+benz+of+medford","location":"42.3644147,-122.8548258","brandsList":["mercedes-benz"]},{"id":3667,"crm_id":67056403,"name":"Damerow Ford","dealerSlug":"damerow+ford","city_state_slug":"Beaverton.OR","brand":"Ford","website":"www.damerowford.com","address":"12325 SW Canyon Rd","city":"Beaverton","state":"OR","zip":97005,"latitude":45.488831,"longitude":-122.803808,"phone_number_service":"8446369311","phone_number_main":"8007328633","service_hours":"Mo-Fr 07:00 - 18:00 | Sa 08:00 - 17:00","utc_offset":"-420","gplace_id":null,"gplace_url":"https://maps.google.com/?cid=16149236219633016774","dealerID":69398,"trusted":false,"image_id":"v1597283967/ford_RM.png","phone":"8446369311","cityStateSlug":"beaverton.or","slug":"Beaverton.OR/damerow+ford","location":"45.488831,-122.803808","brandsList":["ford"]},{"id":12492,"crm_id":67056562,"name":"Roe Motors","dealerSlug":"roe+motors","city_state_slug":"Grants-Pass.OR","brand":"Buick,Cadillac,GMC","website":"www.roemotors.com","address":"201 NE 7th St","city":"Grants Pass","state":"OR","zip":97526,"latitude":42.4398927,"longitude":-123.3248913,"phone_number_service":"5413932856","phone_number_main":"5412914681","service_hours":"Mo-Fr 07:30 - 18:00","utc_offset":"-420","gplace_id":null,"gplace_url":"https://maps.google.com/?cid=2233760211358179173","dealerID":69443,"trusted":false,"image_id":"v1597283981/buick_RM.png","phone":"5413932856","cityStateSlug":"grants-pass.or","slug":"Grants-Pass.OR/roe+motors","location":"42.4398927,-123.3248913","brandsList":["buick","cadillac","gmc"]},{"id":4005,"crm_id":67057000,"name":"Dick Hannah Acura Of Portland","dealerSlug":"dick+hannah+acura+of+portland","city_state_slug":"Portland.OR","brand":"Acura","website":"www.dickhannahacuraofportland.com","address":"12030 SE Stark St.","city":"Portland","state":"OR","zip":97216,"latitude":45.51829,"longitude":-122.5396041,"phone_number_service":"5035647309","phone_number_main":"5036789148","service_hours":"Mo-Sa 07:00 - 16:00","utc_offset":"-420","gplace_id":null,"gplace_url":"https://maps.google.com/?cid=7681203570513088934","dealerID":69571,"trusted":false,"image_id":"v1597283988/acura.png","phone":"5035647309","cityStateSlug":"portland.or","slug":"Portland.OR/dick+hannah+acura+of+portland","location":"45.51829,-122.5396041","brandsList":["acura"]},{"id":14361,"crm_id":67057069,"name":"Tonkin Subaru","dealerSlug":"tonkin+subaru","city_state_slug":"The-Dalles.OR","brand":"Subaru","website":"www.tonkinsubaru.com","address":"2222 W 6th St","city":"The Dalles","state":"OR","zip":97058,"latitude":45.6131132,"longitude":-121.2096052,"phone_number_service":"8779835646","phone_number_main":"5412962166","service_hours":"Mo-Fr 07:30 - 17:30 | Sa 08:00-16:00","utc_offset":"-420","gplace_id":null,"gplace_url":"https://maps.google.com/?cid=17120017975234845551","dealerID":69586,"trusted":false,"image_id":"v1597283982/subaru_ms.png","phone":"8779835646","cityStateSlug":"the-dalles.or","slug":"The-Dalles.OR/tonkin+subaru","location":"45.6131132,-121.2096052","brandsList":["subaru"]},{"id":3701,"crm_id":67057189,"name":"Dane Gouge's Astoria Ford","dealerSlug":"dane+gouges+astoria+ford","city_state_slug":"Warrenton.OR","brand":"Ford","website":"www.astoriaford.net","address":"1809 SE Ensign Ln","city":"Warrenton","state":"OR","zip":97146,"latitude":46.14448,"longitude":-123.9136,"phone_number_service":"8886512182","phone_number_main":"5033256411","service_hours":"Mo-Fr 07:30 - 17:30 | Sa 08:00 - 17:00","utc_offset":"-420","gplace_id":null,"gplace_url":"https://maps.google.com/?cid=1706439649949135433","dealerID":69616,"trusted":false,"image_id":"v1597283967/ford_RM.png","phone":"8886512182","cityStateSlug":"warrenton.or","slug":"Warrenton.OR/dane+gouges+astoria+ford","location":"46.14448,-123.9136","brandsList":["ford"]},{"id":10953,"crm_id":67057813,"name":"Ocean Crest Cadillac","dealerSlug":"ocean+crest+cadillac","city_state_slug":"Warrenton.OR","brand":"Cadillac","website":"www.oceancrestcadillac.com","address":"855 Alternate Hwy 101","city":"Warrenton","state":"OR","zip":97146,"latitude":46.1541171,"longitude":-123.9126961,"phone_number_service":"8669556036","phone_number_main":"8772891875","service_hours":"Mo-Fr 07:30 - 17:30","utc_offset":"-420","gplace_id":null,"gplace_url":"https://maps.google.com/?cid=13221869598679729756","dealerID":69783,"trusted":false,"image_id":"v1597283980/cadillac.png","phone":"8669556036","cityStateSlug":"warrenton.or","slug":"Warrenton.OR/ocean+crest+cadillac","location":"46.1541171,-123.9126961","brandsList":["cadillac"]},{"id":4025,"crm_id":67058128,"name":"Dick's Hillsboro Honda","dealerSlug":"dicks+hillsboro+honda","city_state_slug":"Hillsboro.OR","brand":"Honda","website":"www.dickshillsborohonda.com","address":"750 SW Oak St","city":"Hillsboro","state":"OR","zip":97123,"latitude":45.5185725,"longitude":-122.9990902,"phone_number_service":"8669733693","phone_number_main":"5036164532","service_hours":"Mo-Fr 07:00 - 19:00 | Sa 08:00 - 17:00","utc_offset":"-420","gplace_id":null,"gplace_url":"https://maps.google.com/?cid=772185005787655003","dealerID":69874,"trusted":false,"image_id":"v1597284047/honda_ms.png","phone":"8669733693","cityStateSlug":"hillsboro.or","slug":"Hillsboro.OR/dicks+hillsboro+honda","location":"45.5185725,-122.9990902","brandsList":["honda"]},{"id":8906,"crm_id":67058590,"name":"Lithia Toyota of Medford","dealerSlug":"lithia+toyota+of+medford","city_state_slug":"Medford.OR","brand":"Toyota","website":"www.lithiatoyotamedford.com","address":"1420 N Riverside Ave","city":"Medford","state":"OR","zip":97501,"latitude":42.340296,"longitude":-122.876051,"phone_number_service":"5417160195","phone_number_main":"5419303026","service_hours":"Mo-Fr 07:30 - 18:00 | Sa 07:30 - 18:00","utc_offset":"-420","gplace_id":null,"gplace_url":"https://maps.google.com/?cid=8999734535608103522","dealerID":70009,"trusted":false,"image_id":"v1597284039/toyota_ms.png","phone":"5417160195","cityStateSlug":"medford.or","slug":"Medford.OR/lithia+toyota+of+medford","location":"42.340296,-122.876051","brandsList":["toyota"]},{"id":1665,"crm_id":67058689,"name":"BMW of Eugene","dealerSlug":"bmw+of+eugene","city_state_slug":"Eugene.OR","brand":"BMW","website":"www.bmwofeugene.com","address":"2100 Martin Luther King Jr Blvd","city":"Eugene","state":"OR","zip":97401,"latitude":44.0590046,"longitude":-123.0794974,"phone_number_service":"4582211476","phone_number_main":"5413594524","service_hours":"Mo-Fr 07:30 - 17:30","utc_offset":"-420","gplace_id":null,"gplace_url":"https://maps.google.com/?cid=1056943596678962545","dealerID":51499,"trusted":true,"image_id":"v1597283982/bmw_RM.png","phone":"4582211476","cityStateSlug":"eugene.or","slug":"Eugene.OR/bmw+of+eugene","location":"44.0590046,-123.0794974","brandsList":["bmw"]},{"id":15418,"crm_id":67058740,"name":"Weston Kia","dealerSlug":"weston+kia","city_state_slug":"Gresham.OR","brand":"Kia","website":"www.westonkia.com","address":"22309 SE Stark St","city":"Gresham","state":"OR","zip":97030,"latitude":45.519633,"longitude":-122.433176,"phone_number_service":"5036762100","phone_number_main":"5036762100","service_hours":"Mo-Sa 7:30-17:30","utc_offset":"-420","gplace_id":null,"gplace_url":"https://maps.google.com/?cid=11169935027541097240","dealerID":70054,"trusted":false,"image_id":"v1597283948/kia_RM.png","phone":"5036762100","cityStateSlug":"gresham.or","slug":"Gresham.OR/weston+kia","location":"45.519633,-122.433176","brandsList":["kia"]},{"id":5745,"crm_id":67058854,"name":"Grants Pass Toyota","dealerSlug":"grants+pass+toyota","city_state_slug":"Grants-Pass.OR","brand":"Toyota","website":"www.grantspasstoyota.com","address":"375 Redwood Hwy","city":"Grants Pass","state":"OR","zip":97527,"latitude":42.4237763,"longitude":-123.3352094,"phone_number_service":"5414766858","phone_number_main":"5414766858","service_hours":"Mo-Fr 07:30 - 17:30 | Sa 08:30 - 15:00","utc_offset":"-420","gplace_id":null,"gplace_url":"https://maps.google.com/?cid=13831791683639830440","dealerID":70089,"trusted":false,"image_id":"v1597284039/toyota_ms.png","phone":"5414766858","cityStateSlug":"grants-pass.or","slug":"Grants-Pass.OR/grants+pass+toyota","location":"42.4237763,-123.3352094","brandsList":["toyota"]},{"id":11877,"crm_id":67059223,"name":"Price Honda","dealerSlug":"price+honda","city_state_slug":"McMinnville.OR","brand":"Honda","website":"pricehondamac.com","address":"8515 Lone Oak Rd N","city":"McMinnville","state":"OR","zip":97128,"latitude":45.2367838,"longitude":-123.15153,"phone_number_service":"8777680744","phone_number_main":"5034720465","service_hours":"Mo-Fr 07:30 - 17:30","utc_offset":"-420","gplace_id":null,"gplace_url":"https://maps.google.com/?cid=17937646106746559373","dealerID":70185,"trusted":false,"image_id":"v1597284047/honda_ms.png","phone":"8777680744","cityStateSlug":"mcminnville.or","slug":"McMinnville.OR/price+honda","location":"45.2367838,-123.15153","brandsList":["honda"]},{"id":92,"crm_id":67059556,"name":"Acura of Salem","dealerSlug":"acura+of+salem","city_state_slug":"Salem.OR","brand":"Acura","website":"www.acuraofsalem.com","address":"2475 Commercial St SE","city":"Salem","state":"OR","zip":97302,"latitude":44.9176771,"longitude":-123.0453326,"phone_number_service":"8665143057","phone_number_main":"5035885000","service_hours":"Mo-Fr 07:00 - 17:30","utc_offset":"-420","gplace_id":null,"gplace_url":"https://maps.google.com/?cid=1677721159218610507","dealerID":70273,"trusted":false,"image_id":"v1597283988/acura.png","phone":"8665143057","cityStateSlug":"salem.or","slug":"Salem.OR/acura+of+salem","location":"44.9176771,-123.0453326","brandsList":["acura"]},{"id":7815,"crm_id":67059586,"name":"Kendall Chevrolet Buick GMC","dealerSlug":"kendall+chevrolet+buick+gmc","city_state_slug":"Eugene.OR","brand":"Buick,Chevrolet,GMC","website":"www.chevroletofeugene.com","address":"846 Goodpasture Island Rd","city":"Eugene","state":"OR","zip":97401,"latitude":44.0856021,"longitude":-123.1064551,"phone_number_service":"5413421121","phone_number_main":"8559828922","service_hours":"Mo-Fr 07:00 - 18:00","utc_offset":"-420","gplace_id":null,"gplace_url":"https://maps.google.com/?cid=10346276057169505329","dealerID":70281,"trusted":false,"image_id":"v1597283981/buick_RM.png","phone":"5413421121","cityStateSlug":"eugene.or","slug":"Eugene.OR/kendall+chevrolet+buick+gmc","location":"44.0856021,-123.1064551","brandsList":["buick","chevrolet","gmc"]},{"id":14318,"crm_id":67060015,"name":"Tom Denchel Ford Country","dealerSlug":"tom+denchel+ford+country","city_state_slug":"Hermiston.OR","brand":"Ford","website":"www.tdfordcountry.com","address":"555 S Hwy 395","city":"Hermiston","state":"OR","zip":97838,"latitude":45.83676,"longitude":-119.2878924,"phone_number_service":"8336822095","phone_number_main":"8558789342","service_hours":"Mo-Fr 07:30 - 17:30 | Sa 07:30 - 15:30","utc_offset":"-420","gplace_id":null,"gplace_url":"https://maps.google.com/?cid=13279749466958899607","dealerID":70403,"trusted":false,"image_id":"v1597283967/ford_RM.png","phone":"8336822095","cityStateSlug":"hermiston.or","slug":"Hermiston.OR/tom+denchel+ford+country","location":"45.83676,-119.2878924","brandsList":["ford"]},{"id":8571,"crm_id":67060357,"name":"Legacy Ford","dealerSlug":"legacy+ford","city_state_slug":"La-Grande.OR","brand":"Ford","website":"www.legacyford.net","address":"2906 Island Ave","city":"La Grande","state":"OR","zip":97850,"latitude":45.3343476,"longitude":-118.0647045,"phone_number_service":"5419632161","phone_number_main":"5419632161","service_hours":"Mo-Fr 08:00 - 18:00","utc_offset":"-420","gplace_id":null,"gplace_url":"https://maps.google.com/?cid=16869510942371344914","dealerID":70498,"trusted":false,"image_id":"v1597283967/ford_RM.png","phone":"5419632161","cityStateSlug":"la-grande.or","slug":"La-Grande.OR/legacy+ford","location":"45.3343476,-118.0647045","brandsList":["ford"]},{"id":10168,"crm_id":67060654,"name":"Mini of Portland","dealerSlug":"mini+of+portland","city_state_slug":"Portland.OR","brand":"MINI","website":"www.miniportland.com","address":"9134 SW Canyon Rd","city":"Portland","state":"OR","zip":97225,"latitude":45.4953273,"longitude":-122.771099,"phone_number_service":"8887469316","phone_number_main":"9712854182","service_hours":"Mo-Fr 08:00 - 18:00 | Sa 08:00 - 18:00","utc_offset":"-420","gplace_id":null,"gplace_url":"https://maps.google.com/?cid=3752165492696034455","dealerID":70577,"trusted":false,"image_id":"v1597283930/mini_RM.png","phone":"8887469316","cityStateSlug":"portland.or","slug":"Portland.OR/mini+of+portland","location":"45.4953273,-122.771099","brandsList":["mini"]},{"id":15258,"crm_id":67060909,"name":"Warrenton Kia","dealerSlug":"warrenton+kia","city_state_slug":"Warrenton.OR","brand":"Kia","website":"www.warrentonkia.net","address":"801 SE Marlin Ave","city":"Warrenton","state":"OR","zip":97146,"latitude":46.1581912,"longitude":-123.905645,"phone_number_service":"5034621219","phone_number_main":"5038613422","service_hours":"Mo-Fr  08:00 - 17:00","utc_offset":"-420","gplace_id":null,"gplace_url":"https://maps.google.com/?cid=13765583540296792852","dealerID":70647,"trusted":false,"image_id":"v1597283948/kia_RM.png","phone":"5034621219","cityStateSlug":"warrenton.or","slug":"Warrenton.OR/warrenton+kia","location":"46.1581912,-123.905645","brandsList":["kia"]},{"id":1158,"crm_id":67078621,"name":"Beaverton Honda","dealerSlug":"beaverton+honda","city_state_slug":"Beaverton.OR","brand":"Honda","website":"www.beavertonhonda.com","address":"10760 SW Canyon Rd","city":"Beaverton","state":"OR","zip":97005,"latitude":45.4915432,"longitude":-122.7873723,"phone_number_service":"5036643936","phone_number_main":"5036435577","service_hours":"Mo-Fr 07:00 - 19:00 | Sa 08:00 - 18:00","utc_offset":"-420","gplace_id":null,"gplace_url":"https://maps.google.com/?cid=2236257115466650042","dealerID":74577,"trusted":false,"image_id":"v1597284047/honda_ms.png","phone":"5036643936","cityStateSlug":"beaverton.or","slug":"Beaverton.OR/beaverton+honda","location":"45.4915432,-122.7873723","brandsList":["honda"]},{"id":2605,"crm_id":67078624,"name":"Carr Subaru","dealerSlug":"carr+subaru","city_state_slug":"Beaverton.OR","brand":"Subaru","website":"www.carrsubaru.com","address":"11635 SW Canyon Rd","city":"Beaverton","state":"OR","zip":97005,"latitude":45.490285,"longitude":-122.7963,"phone_number_service":"8664600188","phone_number_main":"5036723370","service_hours":"Mo-Fr 07:00 - 19:00 | Sa 08:00 - 16:00","utc_offset":"-420","gplace_id":null,"gplace_url":"https://maps.google.com/?cid=2120582288419900513","dealerID":74578,"trusted":false,"image_id":"v1597283982/subaru_ms.png","phone":"8664600188","cityStateSlug":"beaverton.or","slug":"Beaverton.OR/carr+subaru","location":"45.490285,-122.7963","brandsList":["subaru"]},{"id":497,"crm_id":67078627,"name":"Audi Beaverton","dealerSlug":"audi+beaverton","city_state_slug":"Beaverton.OR","brand":"Audi","website":"www.audibeaverton.com","address":"13745 SW Tualatin Valley Hwy","city":"Beaverton","state":"OR","zip":97005,"latitude":45.4891087,"longitude":-122.8179967,"phone_number_service":"8776807209","phone_number_main":"5037186100","service_hours":"Mo-Fr 07:00 - 18:00 | Sa 08:00 - 17:00","utc_offset":"-420","gplace_id":null,"gplace_url":"https://maps.google.com/?cid=6180670765452889049","dealerID":74579,"trusted":false,"image_id":"v1597283985/audi_RM.png","phone":"8776807209","cityStateSlug":"beaverton.or","slug":"Beaverton.OR/audi+beaverton","location":"45.4891087,-122.8179967","brandsList":["audi"]},{"id":1162,"crm_id":67078636,"name":"Beaverton Toyota","dealerSlug":"beaverton+toyota","city_state_slug":"Beaverton.OR","brand":"Toyota","website":"www.beavertontoyota.com","address":"4300 SW Murray Blvd","city":"Beaverton","state":"OR","zip":97005,"latitude":45.488532,"longitude":-122.825152,"phone_number_service":"5036643931","phone_number_main":"5034069954","service_hours":"Mo-Sa 07:00 - 18:00","utc_offset":"-420","gplace_id":null,"gplace_url":"https://maps.google.com/?cid=2689626155839551755","dealerID":74580,"trusted":false,"image_id":"v1597284039/toyota_ms.png","phone":"5036643931","cityStateSlug":"beaverton.or","slug":"Beaverton.OR/beaverton+toyota","location":"45.488532,-122.825152","brandsList":["toyota"]},{"id":2603,"crm_id":67078639,"name":"Carr Chevrolet","dealerSlug":"carr+chevrolet","city_state_slug":"Beaverton.OR","brand":"Chevrolet","website":"www.carrchevrolet.com","address":"15005 SW Tualatin Valley Hwy","city":"Beaverton","state":"OR","zip":97006,"latitude":45.490488,"longitude":-122.829939,"phone_number_service":"8886793821","phone_number_main":"8886793830","service_hours":"Mo-Fr 07:00 - 19:00 | Sa 08:00 - 16:00","utc_offset":"-420","gplace_id":null,"gplace_url":"https://maps.google.com/?cid=9257573151766330788","dealerID":74581,"trusted":false,"image_id":"v1597284079/chevy_ms.png","phone":"8886793821","cityStateSlug":"beaverton.or","slug":"Beaverton.OR/carr+chevrolet","location":"45.490488,-122.829939","brandsList":["chevrolet"]},{"id":2457,"crm_id":67078642,"name":"Canby Ford","dealerSlug":"canby+ford","city_state_slug":"Canby.OR","brand":"Ford","website":"www.canbyford.com","address":"24315 S Hwy 99 E","city":"Canby","state":"OR","zip":97013,"latitude":45.255459,"longitude":-122.7103561,"phone_number_service":"8887612330","phone_number_main":"5032662097","service_hours":"Mo-Fr 07:30 - 17:30","utc_offset":"-420","gplace_id":null,"gplace_url":"https://maps.google.com/?cid=15683883559324849775","dealerID":74582,"trusted":false,"image_id":"v1597283967/ford_RM.png","phone":"8887612330","cityStateSlug":"canby.or","slug":"Canby.OR/canby+ford","location":"45.255459,-122.7103561","brandsList":["ford"]},{"id":929,"crm_id":67078645,"name":"AutoTown Buick GMC","dealerSlug":"autotown+buick+gmc","city_state_slug":"Gladstone.OR","brand":"Buick,GMC","website":"www.autotowngmcbuick.com","address":"19495 SE McLoughlin Blvd","city":"Gladstone","state":"OR","zip":97027,"latitude":45.3794899,"longitude":-122.6046448,"phone_number_service":"5033428826","phone_number_main":"5035134640","service_hours":"Mo-Fr 07:30 - 20:00 | Sa 08:00 - 16:00","utc_offset":"-420","gplace_id":null,"gplace_url":"https://maps.google.com/?cid=4898536844143969980","dealerID":74583,"trusted":false,"image_id":"v1597283981/buick_RM.png","phone":"5033428826","cityStateSlug":"gladstone.or","slug":"Gladstone.OR/autotown+buick+gmc","location":"45.3794899,-122.6046448","brandsList":["buick","gmc"]},{"id":409,"crm_id":67078648,"name":"Armstrong Volkswagen","dealerSlug":"armstrong+volkswagen","city_state_slug":"Gladstone.OR","brand":"Volkswagen","website":"www.armstrongvw.com","address":"20000 McLoughlin Blvd","city":"Gladstone","state":"OR","zip":97027,"latitude":45.3762319,"longitude":-122.6012314,"phone_number_service":"8335784488","phone_number_main":"8665514846","service_hours":"Mo-Fr 07:00 - 18:00 | Sa 09:00 - 17:00","utc_offset":"-420","gplace_id":null,"gplace_url":"https://maps.google.com/?cid=5494542089493110359","dealerID":74584,"trusted":false,"image_id":"v1597283902/volkswagen.png","phone":"8335784488","cityStateSlug":"gladstone.or","slug":"Gladstone.OR/armstrong+volkswagen","location":"45.3762319,-122.6012314","brandsList":["volkswagen"]},{"id":4007,"crm_id":67078651,"name":"Dick Hannah Nissan","dealerSlug":"dick+hannah+nissan","city_state_slug":"Gladstone.OR","brand":"Nissan","website":"www.dickhannahnissan.com/","address":"19505 McLoughlin Blvd.","city":"Gladstone","state":"OR","zip":97027,"latitude":45.3788497,"longitude":-122.6062938,"phone_number_service":"5035062584","phone_number_main":"3606051726","service_hours":"Mo-Sa 07:00 - 16:00","utc_offset":"-420","gplace_id":null,"gplace_url":"https://maps.google.com/?cid=554828369738971763","dealerID":74585,"trusted":false,"image_id":"v1597283926/nissan_RM.png","phone":"5035062584","cityStateSlug":"gladstone.or","slug":"Gladstone.OR/dick+hannah+nissan","location":"45.3788497,-122.6062938","brandsList":["nissan"]},{"id":14464,"crm_id":67078654,"name":"Toyota of Gladstone","dealerSlug":"toyota+of+gladstone","city_state_slug":"Gladstone.OR","brand":"Toyota","website":"www.toyotaofgladstone.com","address":"19375 SE McLoughlin Blvd","city":"Gladstone","state":"OR","zip":97027,"latitude":45.381177,"longitude":-122.6060911,"phone_number_service":"8774671426","phone_number_main":"5037224800","service_hours":"Mo-Fr 06:00 - 21:00 | Sa 08:00 - 17:00","utc_offset":"-420","gplace_id":null,"gplace_url":"https://maps.google.com/?cid=8513463804944828735","dealerID":74586,"trusted":false,"image_id":"v1597284039/toyota_ms.png","phone":"8774671426","cityStateSlug":"gladstone.or","slug":"Gladstone.OR/toyota+of+gladstone","location":"45.381177,-122.6060911","brandsList":["toyota"]},{"id":5861,"crm_id":67078657,"name":"Gresham Chrysler Dodge Jeep RAM","dealerSlug":"gresham+chrysler+dodge+jeep+ram","city_state_slug":"Gresham.OR","brand":"Chrysler,Dodge,Jeep,RAM","website":"www.dodgeofgresham.com","address":"855 NE Burnside Rd.","city":"Gresham","state":"OR","zip":97030,"latitude":45.5074716,"longitude":-122.4226963,"phone_number_service":"5034621726","phone_number_main":"5037430444","service_hours":"Mo-Fr 07:00 - 18:00 | Sa 08:00 - 16:00","utc_offset":"-420","gplace_id":null,"gplace_url":"https://maps.google.com/?cid=3266399509393832544","dealerID":74587,"trusted":false,"image_id":"v1597283975/chrysler_RM.png","phone":"5034621726","cityStateSlug":"gresham.or","slug":"Gresham.OR/gresham+chrysler+dodge+jeep+ram","location":"45.5074716,-122.4226963","brandsList":["chrysler","dodge","jeep","ram"]},{"id":6714,"crm_id":67078660,"name":"Hubbard Chevrolet","dealerSlug":"hubbard+chevrolet","city_state_slug":"Hubbard.OR","brand":"Chevrolet","website":"www.hubbardchevrolet.com","address":"3080 J Street","city":"Hubbard","state":"OR","zip":97032,"latitude":45.1790425,"longitude":-122.8095859,"phone_number_service":"8886721723","phone_number_main":"8886721468","service_hours":"Mo-Fr 08:00 - 17:00","utc_offset":"-420","gplace_id":null,"gplace_url":"https://maps.google.com/?cid=720875142548091775","dealerID":74588,"trusted":false,"image_id":"v1597284079/chevy_ms.png","phone":"8886721723","cityStateSlug":"hubbard.or","slug":"Hubbard.OR/hubbard+chevrolet","location":"45.1790425,-122.8095859","brandsList":["chevrolet"]},{"id":13514,"crm_id":67078663,"name":"St Helens Chrysler Dodge Jeep RAM","dealerSlug":"st+helens+chrysler+dodge+jeep+ram","city_state_slug":"Warren.OR","brand":"Chrysler,Dodge,Jeep,RAM","website":"www.sthelenschryslerdodgejeepram.com","address":"57895 Columbia River Hwy","city":"Warren","state":"OR","zip":97053,"latitude":45.8353856,"longitude":-122.840182,"phone_number_service":"5034798316","phone_number_main":"5038367944","service_hours":"Mo-Fr 07:30 - 17:30","utc_offset":"-420","gplace_id":null,"gplace_url":"https://maps.google.com/?cid=1752594590827464890","dealerID":74589,"trusted":false,"image_id":"v1597283975/chrysler_RM.png","phone":"5034798316","cityStateSlug":"warren.or","slug":"Warren.OR/st+helens+chrysler+dodge+jeep+ram","location":"45.8353856,-122.840182","brandsList":["chrysler","dodge","jeep","ram"]},{"id":13523,"crm_id":67078666,"name":"St. Helens Ford","dealerSlug":"st+helens+ford","city_state_slug":"Warren.OR","brand":"Ford","website":"www.sthelensfordoregon.com","address":"57895 South Columbia River Highway","city":"Warren","state":"OR","zip":97053,"latitude":45.8356525,"longitude":-122.8398828,"phone_number_service":"5036765636","phone_number_main":"5033975454","service_hours":"Mo-Fr 07:30 - 17:30","utc_offset":"-420","gplace_id":null,"gplace_url":"https://maps.google.com/?cid=17771031402751133987","dealerID":74590,"trusted":false,"image_id":"v1597283967/ford_RM.png","phone":"5036765636","cityStateSlug":"warren.or","slug":"Warren.OR/st+helens+ford","location":"45.8356525,-122.8398828","brandsList":["ford"]},{"id":3219,"crm_id":67078669,"name":"Columbia Gorge Honda","dealerSlug":"columbia+gorge+honda","city_state_slug":"The-Dalles.OR","brand":"Honda","website":"www.columbiagorgehonda.com","address":"1800 W 6th St","city":"The Dalles","state":"OR","zip":97058,"latitude":45.6105165,"longitude":-121.2069943,"phone_number_service":"5412889700","phone_number_main":"5412889700","service_hours":"Mo-Sa 07:30 - 18:00","utc_offset":"-420","gplace_id":null,"gplace_url":"https://maps.google.com/?cid=12066415735615874096","dealerID":74591,"trusted":false,"image_id":"v1597284047/honda_ms.png","phone":"5412889700","cityStateSlug":"the-dalles.or","slug":"The-Dalles.OR/columbia+gorge+honda","location":"45.6105165,-121.2069943","brandsList":["honda"]},{"id":3220,"crm_id":67078672,"name":"Columbia Gorge Toyota","dealerSlug":"columbia+gorge+toyota","city_state_slug":"The-Dalles.OR","brand":"Toyota,Scion","website":"columbiagorgetoyota.com","address":"1900 W 6th St","city":"The Dalles","state":"OR","zip":97058,"latitude":45.6109578,"longitude":-121.2073379,"phone_number_service":"5412962271","phone_number_main":"5412962271","service_hours":"Mo-Fr 07:30 - 18:00 | Sa 07:30 - 17:00","utc_offset":"-420","gplace_id":null,"gplace_url":"https://maps.google.com/?cid=3405550457295619818","dealerID":74592,"trusted":false,"image_id":"v1597284039/toyota_ms.png","phone":"5412962271","cityStateSlug":"the-dalles.or","slug":"The-Dalles.OR/columbia+gorge+toyota","location":"45.6109578,-121.2073379","brandsList":["toyota","scion"]},{"id":14358,"crm_id":67078675,"name":"Tonkin Chevrolet Buick GMC","dealerSlug":"tonkin+chevrolet+buick+gmc","city_state_slug":"The-Dalles.OR","brand":"Buick,Chevrolet,GMC","website":"www.tonkinchevroletbuickgmc.com","address":"2222 W 6th St","city":"The Dalles","state":"OR","zip":97058,"latitude":45.6131708,"longitude":-121.2096399,"phone_number_service":"8442150891","phone_number_main":"5413970701","service_hours":"Mo-Fr 07:30 - 17:30 | Sa 08:00-16:00","utc_offset":"-420","gplace_id":null,"gplace_url":"https://maps.google.com/?cid=15862629035729261482","dealerID":74593,"trusted":false,"image_id":"v1597283981/buick_RM.png","phone":"8442150891","cityStateSlug":"the-dalles.or","slug":"The-Dalles.OR/tonkin+chevrolet+buick+gmc","location":"45.6131708,-121.2096399","brandsList":["buick","chevrolet","gmc"]},{"id":2396,"crm_id":67078678,"name":"C H Urness Motor Company","dealerSlug":"c+h+urness+motor+company","city_state_slug":"The-Dalles.OR","brand":"Chrysler,Dodge,Jeep,RAM","website":"www.churnessmotors.net","address":"505 Cherry Heights Rd","city":"The Dalles","state":"OR","zip":97058,"latitude":45.6063638,"longitude":-121.1960141,"phone_number_service":"5417052614","phone_number_main":"5412962284","service_hours":"Mo-Sa 07:30 - 17:30","utc_offset":"-420","gplace_id":null,"gplace_url":"https://maps.google.com/?cid=8372014666873424099","dealerID":74594,"trusted":false,"image_id":"v1597283975/chrysler_RM.png","phone":"5417052614","cityStateSlug":"the-dalles.or","slug":"The-Dalles.OR/c+h+urness+motor+company","location":"45.6063638,-121.1960141","brandsList":["chrysler","dodge","jeep","ram"]},{"id":9879,"crm_id":67078687,"name":"Mercedes-Benz of Wilsonville","dealerSlug":"mercedes+benz+of+wilsonville","city_state_slug":"Wilsonville.OR","brand":"Mercedes-Benz","website":"www.mercedesbenzwilsonville.com","address":"25035 SW Parkway Ave","city":"Wilsonville","state":"OR","zip":97070,"latitude":45.3400787,"longitude":-122.7673189,"phone_number_service":"5034545001","phone_number_main":"5033768491","service_hours":"Mo-Fr 07:00 - 19:00 | Sa 08:00 - 17:00","utc_offset":"-420","gplace_id":null,"gplace_url":"https://maps.google.com/?cid=13448469332120115789","dealerID":74595,"trusted":false,"image_id":"v1597283934/mercedes_RM.png","phone":"5034545001","cityStateSlug":"wilsonville.or","slug":"Wilsonville.OR/mercedes+benz+of+wilsonville","location":"45.3400787,-122.7673189","brandsList":["mercedes-benz"]},{"id":15556,"crm_id":67078690,"name":"Wilsonville Chevrolet","dealerSlug":"wilsonville+chevrolet","city_state_slug":"Wilsonville.OR","brand":"Chevrolet","website":"www.wilsonvillechevrolet.com","address":"26051 SW Boones Ferry Rd","city":"Wilsonville","state":"OR","zip":97070,"latitude":45.3315215,"longitude":-122.7706081,"phone_number_service":"8662975360","phone_number_main":"8664552927","service_hours":"Mo-Fr 07:00 - 18:00 | Sa 08:00 - 14:00","utc_offset":"-420","gplace_id":null,"gplace_url":"https://maps.google.com/?cid=5429627893389617001","dealerID":74596,"trusted":false,"image_id":"v1597284079/chevy_ms.png","phone":"8662975360","cityStateSlug":"wilsonville.or","slug":"Wilsonville.OR/wilsonville+chevrolet","location":"45.3315215,-122.7706081","brandsList":["chevrolet"]},{"id":2604,"crm_id":67078696,"name":"Carr Nissan","dealerSlug":"carr+nissan","city_state_slug":"Beaverton.OR","brand":"Nissan","website":"www.carrnissan.com","address":"3855 SW Cedar Hills Blvd","city":"Beaverton","state":"OR","zip":97005,"latitude":45.491798,"longitude":-122.811078,"phone_number_service":"5032134846","phone_number_main":"5036438676","service_hours":"Mo-Fr 07:00 - 18:00 | Sa 08:00 - 16:00","utc_offset":"-420","gplace_id":null,"gplace_url":"https://maps.google.com/?cid=4686384622635789483","dealerID":74597,"trusted":false,"image_id":"v1597283926/nissan_RM.png","phone":"5032134846","cityStateSlug":"beaverton.or","slug":"Beaverton.OR/carr+nissan","location":"45.491798,-122.811078","brandsList":["nissan"]},{"id":1160,"crm_id":67078699,"name":"Beaverton INFINITI","dealerSlug":"beaverton+infiniti","city_state_slug":"Portland.OR","brand":"INFINITI","website":"www.beavertoninfiniti.com","address":"9500 SW Canyon Rd","city":"Portland","state":"OR","zip":97225,"latitude":45.4937303,"longitude":-122.7746764,"phone_number_service":"5036644882","phone_number_main":"5036268822","service_hours":"Mo-Fr 07:30 - 18:00 | Sa 08:00 - 17:00","utc_offset":"-420","gplace_id":null,"gplace_url":"https://maps.google.com/?cid=9448729853795155841","dealerID":74598,"trusted":false,"image_id":"v1597283957/infiniti_RM.png","phone":"5036644882","cityStateSlug":"portland.or","slug":"Portland.OR/beaverton+infiniti","location":"45.4937303,-122.7746764","brandsList":["infiniti"]},{"id":5863,"crm_id":67078702,"name":"Gresham Subaru","dealerSlug":"gresham+subaru","city_state_slug":"Gresham.OR","brand":"Subaru","website":"www.greshamsubaru.com","address":"1925 Powell Blvd","city":"Gresham","state":"OR","zip":97080,"latitude":45.496235,"longitude":-122.411372,"phone_number_service":"8882085633","phone_number_main":"5036611200","service_hours":"Mo-Sa 07:00 - 19:00 | Su 10:00 - 16:00","utc_offset":"-420","gplace_id":null,"gplace_url":"https://maps.google.com/?cid=13544489344525665462","dealerID":74599,"trusted":false,"image_id":"v1597283982/subaru_ms.png","phone":"8882085633","cityStateSlug":"gresham.or","slug":"Gresham.OR/gresham+subaru","location":"45.496235,-122.411372","brandsList":["subaru"]},{"id":2223,"crm_id":67078705,"name":"Bruce Chevrolet","dealerSlug":"bruce+chevrolet","city_state_slug":"Hillsboro.OR","brand":"Chevrolet","website":"www.brucechevrolet.com","address":"1084 SW Oak St","city":"Hillsboro","state":"OR","zip":97123,"latitude":45.5181406,"longitude":-123.0019602,"phone_number_service":"8667048114","phone_number_main":"5036482131","service_hours":"Mo-Fr 07:30 - 18:00 | Sa 08:00 - 16:00","utc_offset":"-420","gplace_id":null,"gplace_url":"https://maps.google.com/?cid=3755326696213237422","dealerID":74600,"trusted":false,"image_id":"v1597284079/chevy_ms.png","phone":"8667048114","cityStateSlug":"hillsboro.or","slug":"Hillsboro.OR/bruce+chevrolet","location":"45.5181406,-123.0019602","brandsList":["chevrolet"]},{"id":12669,"crm_id":67078708,"name":"Royal Moore Subaru","dealerSlug":"royal+moore+subaru","city_state_slug":"Hillsboro.OR","brand":"Subaru","website":"royalmooresubaru.net","address":"1326 SE Enterprise Cir","city":"Hillsboro","state":"OR","zip":97123,"latitude":45.5085372,"longitude":-122.9687294,"phone_number_service":"8885468041","phone_number_main":"5036405660","service_hours":"Mo-Fr 07:00 - 18:00 | Sa 07:00 - 17:00","utc_offset":"-420","gplace_id":null,"gplace_url":"https://maps.google.com/?cid=16587093911207309550","dealerID":74601,"trusted":false,"image_id":"v1597283982/subaru_ms.png","phone":"8885468041","cityStateSlug":"hillsboro.or","slug":"Hillsboro.OR/royal+moore+subaru","location":"45.5085372,-122.9687294","brandsList":["subaru"]},{"id":12668,"crm_id":67078711,"name":"Royal Moore Mazda","dealerSlug":"royal+moore+mazda","city_state_slug":"Hillsboro.OR","brand":"Mazda","website":"www.royalmooremazda.com","address":"1380 SE River Rd","city":"Hillsboro","state":"OR","zip":97123,"latitude":45.5095745,"longitude":-122.9698869,"phone_number_service":"8888041957","phone_number_main":"5036481153","service_hours":"Mo-Sa 07:00 - 18:00","utc_offset":"-420","gplace_id":null,"gplace_url":"https://maps.google.com/?cid=8206633713238131747","dealerID":74602,"trusted":false,"image_id":"v1597283937/mazda.png","phone":"8888041957","cityStateSlug":"hillsboro.or","slug":"Hillsboro.OR/royal+moore+mazda","location":"45.5095745,-122.9698869","brandsList":["mazda"]},{"id":12667,"crm_id":67078714,"name":"Royal Moore Buick GMC","dealerSlug":"royal+moore+buick+gmc","city_state_slug":"Hillsboro.OR","brand":"Buick,GMC","website":"www.royalmooregmc.com","address":"1380 SE River Rd","city":"Hillsboro","state":"OR","zip":97123,"latitude":45.5094953,"longitude":-122.9716571,"phone_number_service":"8889031791","phone_number_main":"5036481153","service_hours":"Mo-Sa 07:00 - 18:00","utc_offset":"-420","gplace_id":null,"gplace_url":"https://maps.google.com/?cid=10876374809377784163","dealerID":74603,"trusted":false,"image_id":"v1597283981/buick_RM.png","phone":"8889031791","cityStateSlug":"hillsboro.or","slug":"Hillsboro.OR/royal+moore+buick+gmc","location":"45.5094953,-122.9716571","brandsList":["buick","gmc"]},{"id":12670,"crm_id":67078717,"name":"Royal Moore Toyota","dealerSlug":"royal+moore+toyota","city_state_slug":"Hillsboro.OR","brand":"Toyota","website":"www.royalmooretoyota.com","address":"1415 SE River Rd","city":"Hillsboro","state":"OR","zip":97123,"latitude":45.5084305,"longitude":-122.9671406,"phone_number_service":"9712053386","phone_number_main":"5036483213","service_hours":"Mo-Sa 07:00 - 18:00","utc_offset":"-420","gplace_id":null,"gplace_url":"https://maps.google.com/?cid=14634710557008500677","dealerID":74604,"trusted":false,"image_id":"v1597284039/toyota_ms.png","phone":"9712053386","cityStateSlug":"hillsboro.or","slug":"Hillsboro.OR/royal+moore+toyota","location":"45.5084305,-122.9671406","brandsList":["toyota"]},{"id":4027,"crm_id":67078720,"name":"Dick's MacKenzie Ford","dealerSlug":"dicks+mackenzie+ford","city_state_slug":"Hillsboro.OR","brand":"Ford","website":"www.mackenzieford.com","address":"4151 SE Tualatin Valley Hwy","city":"Hillsboro","state":"OR","zip":97123,"latitude":45.5024523,"longitude":-122.940677,"phone_number_service":"8444248102","phone_number_main":"8444248101","service_hours":"Mo-Fr 07:30 - 17:00 | Sa 08:00 - 19:00","utc_offset":"-420","gplace_id":null,"gplace_url":"https://maps.google.com/?cid=1042948732189477903","dealerID":74605,"trusted":false,"image_id":"v1597283967/ford_RM.png","phone":"8444248102","cityStateSlug":"hillsboro.or","slug":"Hillsboro.OR/dicks+mackenzie+ford","location":"45.5024523,-122.940677","brandsList":["ford"]},{"id":4024,"crm_id":67078723,"name":"Dick's Country Chrysler Jeep Dodge","dealerSlug":"dicks+country+chrysler+jeep+dodge","city_state_slug":"Hillsboro.OR","brand":"Chrysler,Dodge,Jeep,RAM","website":"www.dickscountrydodge.com","address":"767 SW Baseline St","city":"Hillsboro","state":"OR","zip":97123,"latitude":45.5204445,"longitude":-122.9981359,"phone_number_service":"5034621776","phone_number_main":"5037469621","service_hours":"Mo-Fr 07:00 - 19:00 | Sa 08:00 - 17:00","utc_offset":"-420","gplace_id":null,"gplace_url":"https://maps.google.com/?cid=15261699285234340609","dealerID":74606,"trusted":false,"image_id":"v1597283975/chrysler_RM.png","phone":"5034621776","cityStateSlug":"hillsboro.or","slug":"Hillsboro.OR/dicks+country+chrysler+jeep+dodge","location":"45.5204445,-122.9981359","brandsList":["chrysler","dodge","jeep","ram"]},{"id":7387,"crm_id":67078726,"name":"Jim Doran Subaru","dealerSlug":"jim+doran+subaru","city_state_slug":"McMinnville.OR","brand":"Subaru","website":"www.doransubaru.com","address":"1305 NE 3rd St","city":"McMinnville","state":"OR","zip":97128,"latitude":45.2099352,"longitude":-123.1852778,"phone_number_service":"8772179571","phone_number_main":"8776050354","service_hours":"Mo 07:30 - 17:30 | Tu 07:30 - 18:00 | We 07:30 - 17:30 | Th 07:30 - 18:00 | Fr 07:30 - 17:30","utc_offset":"-420","gplace_id":null,"gplace_url":"https://maps.google.com/?cid=8906552355584703385","dealerID":74607,"trusted":false,"image_id":"v1597283982/subaru_ms.png","phone":"8772179571","cityStateSlug":"mcminnville.or","slug":"McMinnville.OR/jim+doran+subaru","location":"45.2099352,-123.1852778","brandsList":["subaru"]},{"id":9597,"crm_id":67078729,"name":"McMinnville Volkswagen","dealerSlug":"mcminnville+volkswagen","city_state_slug":"McMinnville.OR","brand":"Volkswagen","website":"www.macvw.com","address":"1920 NE Hwy 99W","city":"McMinnville","state":"OR","zip":97128,"latitude":45.2271057,"longitude":-123.1783865,"phone_number_service":"8777215796","phone_number_main":"5034724658","service_hours":"Mo-Fr 08:00 - 17:00","utc_offset":"-420","gplace_id":null,"gplace_url":"https://maps.google.com/?cid=4292684048757857129","dealerID":74608,"trusted":false,"image_id":"v1597283902/volkswagen.png","phone":"8777215796","cityStateSlug":"mcminnville.or","slug":"McMinnville.OR/mcminnville+volkswagen","location":"45.2271057,-123.1783865","brandsList":["volkswagen"]},{"id":7385,"crm_id":67078732,"name":"Jim Doran Auto Center","dealerSlug":"jim+doran+auto+center","city_state_slug":"McMinnville.OR","brand":"Chrysler,Dodge,Jeep,RAM","website":"www.jimdoranautocenter.net","address":"3075 North Highway 99w","city":"McMinnville","state":"OR","zip":97128,"latitude":45.230832,"longitude":-123.167465,"phone_number_service":"5036102048","phone_number_main":"5034723131","service_hours":"Mo-Fr 08:00 - 17:30","utc_offset":"-420","gplace_id":null,"gplace_url":"https://maps.google.com/?cid=6696339734453749218","dealerID":74609,"trusted":false,"image_id":"v1597283975/chrysler_RM.png","phone":"5036102048","cityStateSlug":"mcminnville.or","slug":"McMinnville.OR/jim+doran+auto+center","location":"45.230832,-123.167465","brandsList":["chrysler","dodge","jeep","ram"]},{"id":10648,"crm_id":67078735,"name":"Newberg Chevrolet","dealerSlug":"newberg+chevrolet","city_state_slug":"Newberg.OR","brand":"Chevrolet","website":"www.newbergchevrolet.com","address":"2700 Portland Rd","city":"Newberg","state":"OR","zip":97132,"latitude":45.303984,"longitude":-122.9522314,"phone_number_service":"5034763265","phone_number_main":"5035383161","service_hours":"Mo-Fr 07:30 - 18:00 | Sa 08:00 - 17:00","utc_offset":"-420","gplace_id":null,"gplace_url":"https://maps.google.com/?cid=1331267501728224559","dealerID":74610,"trusted":false,"image_id":"v1597284079/chevy_ms.png","phone":"5034763265","cityStateSlug":"newberg.or","slug":"Newberg.OR/newberg+chevrolet","location":"45.303984,-122.9522314","brandsList":["chevrolet"]},{"id":1862,"crm_id":67078738,"name":"Bob Lanphere's Newberg Dodge Jeep Chrysler RAM","dealerSlug":"bob+lanpheres+newberg+dodge+jeep+chrysler+ram","city_state_slug":"Newberg.OR","brand":"Chrysler,Dodge,Jeep,RAM","website":"www.newbergdodgejeepchrysler.com","address":"2809 Portland Rd","city":"Newberg","state":"OR","zip":97132,"latitude":45.305624,"longitude":-122.951092,"phone_number_service":"5066164101","phone_number_main":"5035389444","service_hours":"Mo-Fr 07:30 - 18:00 | Sa 08:00 - 15:00","utc_offset":"-420","gplace_id":null,"gplace_url":"https://maps.google.com/?cid=6597874753322565891","dealerID":74611,"trusted":false,"image_id":"v1597283975/chrysler_RM.png","phone":"5066164101","cityStateSlug":"newberg.or","slug":"Newberg.OR/bob+lanpheres+newberg+dodge+jeep+chrysler+ram","location":"45.305624,-122.951092","brandsList":["chrysler","dodge","jeep","ram"]},{"id":10649,"crm_id":67078741,"name":"Newberg Ford","dealerSlug":"newberg+ford","city_state_slug":"Newberg.OR","brand":"Ford","website":"www.fordofnewberg.com","address":"3900 Portland Rd","city":"Newberg","state":"OR","zip":97132,"latitude":45.3076263,"longitude":-122.9398863,"phone_number_service":"5035382171","phone_number_main":"5035382171","service_hours":"Mo-Fr 08:00 - 18:00 | Sa 08:00 - 16:00","utc_offset":"-420","gplace_id":null,"gplace_url":"https://maps.google.com/?cid=6332958740043040333","dealerID":74612,"trusted":false,"image_id":"v1597283967/ford_RM.png","phone":"5035382171","cityStateSlug":"newberg.or","slug":"Newberg.OR/newberg+ford","location":"45.3076263,-122.9398863","brandsList":["ford"]},{"id":14248,"crm_id":67078744,"name":"Tillamook Motor Company","dealerSlug":"tillamook+motor+company","city_state_slug":"Tillamook.OR","brand":"Ford","website":"www.tillamookmotors.net","address":"501 Main Ave","city":"Tillamook","state":"OR","zip":97141,"latitude":45.454477,"longitude":-123.843534,"phone_number_service":"8777731412","phone_number_main":"5038424475","service_hours":"Mo-Fr  08:00 - 17:00","utc_offset":"-420","gplace_id":null,"gplace_url":"https://maps.google.com/?cid=1005493778127137470","dealerID":74613,"trusted":false,"image_id":"v1597283967/ford_RM.png","phone":"8777731412","cityStateSlug":"tillamook.or","slug":"Tillamook.OR/tillamook+motor+company","location":"45.454477,-123.843534","brandsList":["ford"]},{"id":9028,"crm_id":67078747,"name":"Lum's Toyota","dealerSlug":"lums+toyota","city_state_slug":"Warrenton.OR","brand":"Toyota","website":"www.lumstoyota.com","address":"1605 SE Ensign Ln","city":"Warrenton","state":"OR","zip":97146,"latitude":46.1487253,"longitude":-123.9207026,"phone_number_service":"5038611144","phone_number_main":"5038611144","service_hours":"Mo-Fr 07:30 - 17:30 | Sa 08:00 - 16:00","utc_offset":"-420","gplace_id":null,"gplace_url":"https://maps.google.com/?cid=6409851390907459946","dealerID":74614,"trusted":false,"image_id":"v1597284039/toyota_ms.png","phone":"5038611144","cityStateSlug":"warrenton.or","slug":"Warrenton.OR/lums+toyota","location":"46.1487253,-123.9207026","brandsList":["toyota"]},{"id":9817,"crm_id":67078750,"name":"Mercedes-Benz of Portland","dealerSlug":"mercedes+benz+of+portland","city_state_slug":"Portland.OR","brand":"Mercedes-Benz","website":"www.mercedesbenzportland.com","address":"1605 SW Naito Pkwy","city":"Portland","state":"OR","zip":97201,"latitude":45.511093,"longitude":-122.6763922,"phone_number_service":"9712703879","phone_number_main":"9712703860","service_hours":"Mo-Fr 07:00 - 18:00 | Sa 08:00 - 17:00","utc_offset":"-420","gplace_id":null,"gplace_url":"https://maps.google.com/?cid=13285227670324097136","dealerID":74615,"trusted":false,"image_id":"v1597283934/mercedes_RM.png","phone":"9712703879","cityStateSlug":"portland.or","slug":"Portland.OR/mercedes+benz+of+portland","location":"45.511093,-122.6763922","brandsList":["mercedes-benz"]},{"id":7154,"crm_id":67078753,"name":"Jaguar Portland","dealerSlug":"jaguar+portland","city_state_slug":"Portland.OR","brand":"Jaguar","website":"www.jaguarportland.com","address":"10125 SW Washington Square Rd","city":"Portland","state":"OR","zip":97223,"latitude":45.444559,"longitude":-122.777698,"phone_number_service":"8884816382","phone_number_main":"5032307700","service_hours":"Mo Closed | Tu-Fr 08:00 - 18:00 | Sa 09:00 - 18:00","utc_offset":"-420","gplace_id":null,"gplace_url":"https://maps.google.com/?cid=1587551516899250912","dealerID":74616,"trusted":false,"image_id":"v1597283954/jaguar_RM.png","phone":"8884816382","cityStateSlug":"portland.or","slug":"Portland.OR/jaguar+portland","location":"45.444559,-122.777698","brandsList":["jaguar"]},{"id":7397,"crm_id":67078756,"name":"Jim Fisher Volvo Cars Portland","dealerSlug":"jim+fisher+volvo+cars+portland","city_state_slug":"Portland.OR","brand":"Volvo","website":"www.jimfishervolvo.com","address":"2108 West Burnside","city":"Portland","state":"OR","zip":97210,"latitude":45.5229261,"longitude":-122.6945461,"phone_number_service":"8886521991","phone_number_main":"5032955571","service_hours":"Mo-Fr 07:00 - 18:00","utc_offset":"-420","gplace_id":null,"gplace_url":"https://maps.google.com/?cid=2577460707209022504","dealerID":74617,"trusted":false,"image_id":"v1597283901/volvo.jpg","phone":"8886521991","cityStateSlug":"portland.or","slug":"Portland.OR/jim+fisher+volvo+cars+portland","location":"45.5229261,-122.6945461","brandsList":["volvo"]},{"id":13785,"crm_id":67078759,"name":"Subaru of Portland","dealerSlug":"subaru+of+portland","city_state_slug":"Portland.OR","brand":"Subaru","website":"www.subaruofportland.com","address":"107 SE Grand Ave","city":"Portland","state":"OR","zip":97214,"latitude":45.5218965,"longitude":-122.6611066,"phone_number_service":"5039632554","phone_number_main":"5032322000","service_hours":"Mo-Sa 07:00 - 18:00","utc_offset":"-420","gplace_id":null,"gplace_url":"https://maps.google.com/?cid=16398112154626051599","dealerID":74618,"trusted":false,"image_id":"v1597283982/subaru_ms.png","phone":"5039632554","cityStateSlug":"portland.or","slug":"Portland.OR/subaru+of+portland","location":"45.5218965,-122.6611066","brandsList":["subaru"]},{"id":9595,"crm_id":67078771,"name":"McLoughlin Chevrolet","dealerSlug":"mcloughlin+chevrolet","city_state_slug":"Milwaukie.OR","brand":"Chevrolet","website":"mcloughlinchevy.com","address":"16700 SE McLoughlin Blvd","city":"Milwaukie","state":"OR","zip":97267,"latitude":45.4025697,"longitude":-122.6207268,"phone_number_service":"8883647673","phone_number_main":"5036520000","service_hours":"Mo-Fr 07:30 - 18:00 |Sa 08:00 - 16:00","utc_offset":"-420","gplace_id":null,"gplace_url":"https://maps.google.com/?cid=4598562907153885035","dealerID":51115,"trusted":true,"image_id":"v1597284079/chevy_ms.png","phone":"8883647673","cityStateSlug":"milwaukie.or","slug":"Milwaukie.OR/mcloughlin+chevrolet","location":"45.4025697,-122.6207268","brandsList":["chevrolet"]},{"id":5604,"crm_id":67078774,"name":"Gladstone Mitsubishi","dealerSlug":"gladstone+mitsubishi","city_state_slug":"Milwaukie.OR","brand":"Mitsubishi","website":"www.gladstonemitsubishi.com","address":"18500 SE McLoughlin Blvd","city":"Milwaukie","state":"OR","zip":97267,"latitude":45.3887816,"longitude":-122.6105438,"phone_number_service":"5035136600","phone_number_main":"5035136600","service_hours":"Mo-Sa 08:00 - 17:30","utc_offset":"-420","gplace_id":null,"gplace_url":"https://maps.google.com/?cid=5476373449522378974","dealerID":74620,"trusted":false,"image_id":"v1597283928/mitsubishi.png","phone":"5035136600","cityStateSlug":"milwaukie.or","slug":"Milwaukie.OR/gladstone+mitsubishi","location":"45.3887816,-122.6105438","brandsList":["mitsubishi"]},{"id":12570,"crm_id":67078777,"name":"Ron Tonkin Chrysler Jeep Dodge RAM FIAT","dealerSlug":"ron+tonkin+chrysler+jeep+dodge+ram+fiat","city_state_slug":"Milwaukie.OR","brand":"Chrysler,Dodge,Jeep,RAM,Fiat","website":"www.rontonkindodge.net","address":"16800 SE McLoughlin Blvd","city":"Milwaukie","state":"OR","zip":97267,"latitude":45.4016173,"longitude":-122.6192878,"phone_number_service":"5034621825","phone_number_main":"5032585800","service_hours":"Mo-Fr 07:00 - 18:00 | Sa 08:00 - 16:30","utc_offset":"-420","gplace_id":null,"gplace_url":"https://maps.google.com/?cid=13313996714046643995","dealerID":74621,"trusted":false,"image_id":"v1597283975/chrysler_RM.png","phone":"5034621825","cityStateSlug":"milwaukie.or","slug":"Milwaukie.OR/ron+tonkin+chrysler+jeep+dodge+ram+fiat","location":"45.4016173,-122.6192878","brandsList":["chrysler","dodge","jeep","ram","fiat"]},{"id":11798,"crm_id":67078780,"name":"Power Kia","dealerSlug":"power+kia","city_state_slug":"Salem.OR","brand":"Kia","website":"www.powerkia.com","address":"3705 Market St NE","city":"Salem","state":"OR","zip":97301,"latitude":44.9508443,"longitude":-122.9876557,"phone_number_service":"5035857333","phone_number_main":"5035857333","service_hours":"Mo-Fr 08:00 - 17:00","utc_offset":"-420","gplace_id":null,"gplace_url":"https://maps.google.com/?cid=2955211827275032974","dealerID":74622,"trusted":false,"image_id":"v1597283948/kia_RM.png","phone":"5035857333","cityStateSlug":"salem.or","slug":"Salem.OR/power+kia","location":"44.9508443,-122.9876557","brandsList":["kia"]},{"id":6636,"crm_id":67078783,"name":"Honda of Salem","dealerSlug":"honda+of+salem","city_state_slug":"Salem.OR","brand":"Honda","website":"www.hondaofsalem.com","address":"1101 Van Ness Ave NE","city":"Salem","state":"OR","zip":97301,"latitude":44.9722222,"longitude":-123.0197222,"phone_number_service":"8333710440","phone_number_main":"9717012708","service_hours":"Mo-Fr 07:30 - 17:30 | Sa 08:30 - 15:00","utc_offset":"-420","gplace_id":null,"gplace_url":"https://maps.google.com/?cid=6722256541487655777","dealerID":74623,"trusted":false,"image_id":"v1597284047/honda_ms.png","phone":"8333710440","cityStateSlug":"salem.or","slug":"Salem.OR/honda+of+salem","location":"44.9722222,-123.0197222","brandsList":["honda"]},{"id":11799,"crm_id":67078786,"name":"Power Mazda","dealerSlug":"power+mazda","city_state_slug":"Salem.OR","brand":"Mazda","website":"www.powermazda.com","address":"3230 Market St NE","city":"Salem","state":"OR","zip":97301,"latitude":44.9496988,"longitude":-122.9954405,"phone_number_service":"5035813000","phone_number_main":"5035813000","service_hours":"Mo-Fr 07:00 - 18:00 | Sa 08:00 - 17:00","utc_offset":"-420","gplace_id":null,"gplace_url":"https://maps.google.com/?cid=12255406548484109999","dealerID":74624,"trusted":false,"image_id":"v1597283937/mazda.png","phone":"5035813000","cityStateSlug":"salem.or","slug":"Salem.OR/power+mazda","location":"44.9496988,-122.9954405","brandsList":["mazda"]},{"id":13264,"crm_id":67078804,"name":"Skyline Ford","dealerSlug":"skyline+ford","city_state_slug":"Salem.OR","brand":"Ford","website":"www.skylineforddirect.com","address":"2510 Commercial St SE","city":"Salem","state":"OR","zip":97302,"latitude":44.9173152,"longitude":-123.0442356,"phone_number_service":"5035812411","phone_number_main":"5035812411","service_hours":"Mo-Fr 07:00 - 18:00 | Sa 08:00 - 17:00","utc_offset":"-420","gplace_id":null,"gplace_url":"https://maps.google.com/?cid=10957602151714649814","dealerID":74625,"trusted":false,"image_id":"v1597283967/ford_RM.png","phone":"5035812411","cityStateSlug":"salem.or","slug":"Salem.OR/skyline+ford","location":"44.9173152,-123.0442356","brandsList":["ford"]},{"id":15588,"crm_id":67078807,"name":"Withnell Dodge RAM","dealerSlug":"withnell+dodge+ram","city_state_slug":"Salem.OR","brand":"Dodge,RAM","website":"www.withnelldodge.net","address":"2650 Commercial St SE","city":"Salem","state":"OR","zip":97302,"latitude":44.915878,"longitude":-123.0446889,"phone_number_service":"5034687887","phone_number_main":"5036102095","service_hours":"Mo-Fr 07:30 - 17:30","utc_offset":"-420","gplace_id":null,"gplace_url":"https://maps.google.com/?cid=15853164776469773299","dealerID":74626,"trusted":false,"image_id":"v1597283974/dodge.png","phone":"5034687887","cityStateSlug":"salem.or","slug":"Salem.OR/withnell+dodge+ram","location":"44.915878,-123.0446889","brandsList":["dodge","ram"]},{"id":11792,"crm_id":67078810,"name":"Power Buick GMC of Salem","dealerSlug":"power+buick+gmc+of+salem","city_state_slug":"Salem.OR","brand":"Buick,GMC","website":"www.buyatpower.com","address":"3675 Market St. NE","city":"Salem","state":"OR","zip":97305,"latitude":44.951318,"longitude":-122.989079,"phone_number_service":"5039674853","phone_number_main":"8335398658","service_hours":"Mo-Sa 08:00 - 17:00","utc_offset":"-420","gplace_id":null,"gplace_url":"https://maps.google.com/?cid=7055266143318577693","dealerID":74627,"trusted":false,"image_id":"v1597283981/buick_RM.png","phone":"5039674853","cityStateSlug":"salem.or","slug":"Salem.OR/power+buick+gmc+of+salem","location":"44.951318,-122.989079","brandsList":["buick","gmc"]},{"id":13266,"crm_id":67078813,"name":"Skyline's Keizer Ford","dealerSlug":"skylines+keizer+ford","city_state_slug":"Keizer.OR","brand":"Ford","website":"www.skylineforddirect.com","address":"3555 River Rd N","city":"Keizer","state":"OR","zip":97303,"latitude":44.9775007,"longitude":-123.0281155,"phone_number_service":"5034634853","phone_number_main":"5034634853","service_hours":"Mo-Fr 07:00 - 18:00 | Sa 08:00 - 17:00","utc_offset":"-420","gplace_id":null,"gplace_url":"https://maps.google.com/?cid=13067777003594277104","dealerID":74628,"trusted":false,"image_id":"v1597283967/ford_RM.png","phone":"5034634853","cityStateSlug":"keizer.or","slug":"Keizer.OR/skylines+keizer+ford","location":"44.9775007,-123.0281155","brandsList":["ford"]},{"id":12420,"crm_id":67078816,"name":"Roberson's Albany Ford","dealerSlug":"robersons+albany+ford","city_state_slug":"Albany.OR","brand":"Ford","website":"www.robersonalbanyford.com","address":"1920 Pacific Blvd SW","city":"Albany","state":"OR","zip":97321,"latitude":44.621808,"longitude":-123.1118859,"phone_number_service":"5419265555","phone_number_main":"5419265555","service_hours":"Mo-Fr 07:30 - 17:30","utc_offset":"-420","gplace_id":null,"gplace_url":"https://maps.google.com/?cid=14413774116967838415","dealerID":74629,"trusted":false,"image_id":"v1597283967/ford_RM.png","phone":"5419265555","cityStateSlug":"albany.or","slug":"Albany.OR/robersons+albany+ford","location":"44.621808,-123.1118859","brandsList":["ford"]},{"id":172,"crm_id":67078822,"name":"Albany Chrysler Dodge Jeep RAM","dealerSlug":"albany+chrysler+dodge+jeep+ram","city_state_slug":"Albany.OR","brand":"Chrysler,Dodge,Jeep,RAM","website":"www.albanychryslerdodgejeepram.com","address":"2315 Santiam Hwy SE","city":"Albany","state":"OR","zip":97322,"latitude":44.6331792,"longitude":-123.0765303,"phone_number_service":"5415902149","phone_number_main":"5419679105","service_hours":"Mo-Fr 08:00 - 17:00","utc_offset":"-420","gplace_id":null,"gplace_url":"https://maps.google.com/?cid=10050741777102588309","dealerID":74630,"trusted":false,"image_id":"v1597283975/chrysler_RM.png","phone":"5415902149","cityStateSlug":"albany.or","slug":"Albany.OR/albany+chrysler+dodge+jeep+ram","location":"44.6331792,-123.0765303","brandsList":["chrysler","dodge","jeep","ram"]},{"id":11791,"crm_id":67078825,"name":"Power Buick GMC of Corvallis","dealerSlug":"power+buick+gmc+of+corvallis","city_state_slug":"Corvallis.OR","brand":"Buick,GMC","website":"www.powercorvallis.com","address":"810 NW Buchanan Ave","city":"Corvallis","state":"OR","zip":97330,"latitude":44.5749987,"longitude":-123.2609964,"phone_number_service":"8664181217","phone_number_main":"5417571415","service_hours":"Mo-Fr 08:00 - 17:00 | Sa 08:00 - 13:00","utc_offset":"-420","gplace_id":null,"gplace_url":"https://maps.google.com/?cid=4681347301590609982","dealerID":74631,"trusted":false,"image_id":"v1597283981/buick_RM.png","phone":"8664181217","cityStateSlug":"corvallis.or","slug":"Corvallis.OR/power+buick+gmc+of+corvallis","location":"44.5749987,-123.2609964","brandsList":["buick","gmc"]},{"id":14447,"crm_id":67078828,"name":"Toyota of Corvallis","dealerSlug":"toyota+of+corvallis","city_state_slug":"Corvallis.OR","brand":"Toyota","website":"www.toyotaofcorvallis.com","address":"800 NW 5th St","city":"Corvallis","state":"OR","zip":97330,"latitude":44.572261,"longitude":-123.2597079,"phone_number_service":"5417541515","phone_number_main":"5417541515","service_hours":"Mo-Fr 07:00 - 18:00 | Sa 08:00 - 16:00","utc_offset":"-420","gplace_id":null,"gplace_url":"https://maps.google.com/?cid=11561273314163439210","dealerID":74632,"trusted":false,"image_id":"v1597284039/toyota_ms.png","phone":"5417541515","cityStateSlug":"corvallis.or","slug":"Corvallis.OR/toyota+of+corvallis","location":"44.572261,-123.2597079","brandsList":["toyota"]},{"id":13916,"crm_id":67078831,"name":"Sunwest Honda","dealerSlug":"sunwest+honda","city_state_slug":"Newport.OR","brand":"Honda","website":"www.sunwesthonda.com","address":"1030 N Coast Hwy","city":"Newport","state":"OR","zip":97365,"latitude":44.6437806,"longitude":-124.0526988,"phone_number_service":"5412658547","phone_number_main":"5412658547","service_hours":"Mo-Fr 07:30 - 17:30","utc_offset":"-420","gplace_id":null,"gplace_url":"https://maps.google.com/?cid=3508177027392764076","dealerID":74633,"trusted":false,"image_id":"v1597284047/honda_ms.png","phone":"5412658547","cityStateSlug":"newport.or","slug":"Newport.OR/sunwest+honda","location":"44.6437806,-124.0526988","brandsList":["honda"]},{"id":11796,"crm_id":67078834,"name":"Power Ford Lincoln","dealerSlug":"power+ford+lincoln","city_state_slug":"Newport.OR","brand":"Ford,Lincoln","website":"www.powerford.com","address":"1107 N Coast Hwy","city":"Newport","state":"OR","zip":97365,"latitude":44.645141,"longitude":-124.0536339,"phone_number_service":"5417359397","phone_number_main":"5412654601","service_hours":"Mo-Fr 08:00 - 17:00 | Sa 08:00 - 13:00","utc_offset":"-420","gplace_id":null,"gplace_url":"https://maps.google.com/?cid=8473591372465087005","dealerID":74634,"trusted":false,"image_id":"v1597283967/ford_RM.png","phone":"5417359397","cityStateSlug":"newport.or","slug":"Newport.OR/power+ford+lincoln","location":"44.645141,-124.0536339","brandsList":["ford","lincoln"]},{"id":11794,"crm_id":67078837,"name":"Power Chevrolet Buick GMC Cadillac","dealerSlug":"power+chevrolet+buick+gmc+cadillac","city_state_slug":"Newport.OR","brand":"Buick,Cadillac,Chevrolet,GMC","website":"www.powergmofnewport.com","address":"1422 N Coast Hwy","city":"Newport","state":"OR","zip":97365,"latitude":44.6477844,"longitude":-124.0523307,"phone_number_service":"5412723459","phone_number_main":"5412657731","service_hours":"Mo-Fr 07:30 - 17:30 | Sa 08:00 - 13:00","utc_offset":"-420","gplace_id":null,"gplace_url":"https://maps.google.com/?cid=4713909284579308334","dealerID":74635,"trusted":false,"image_id":"v1597283981/buick_RM.png","phone":"5412723459","cityStateSlug":"newport.or","slug":"Newport.OR/power+chevrolet+buick+gmc+cadillac","location":"44.6477844,-124.0523307","brandsList":["buick","cadillac","chevrolet","gmc"]},{"id":14514,"crm_id":67078840,"name":"Toyota Of Newport","dealerSlug":"toyota+of+newport","city_state_slug":"Newport.OR","brand":"Toyota","website":"www.newporttoyota.com","address":"3234 SW Coast Hwy","city":"Newport","state":"OR","zip":97366,"latitude":44.6142096,"longitude":-124.0504892,"phone_number_service":"5418673885","phone_number_main":"5418673885","service_hours":"Mo-Fr 07:00 - 18:00 | Sa 08:00 - 16:00","utc_offset":"-420","gplace_id":null,"gplace_url":"https://maps.google.com/?cid=5150426655762471260","dealerID":74636,"trusted":false,"image_id":"v1597284039/toyota_ms.png","phone":"5418673885","cityStateSlug":"newport.or","slug":"Newport.OR/toyota+of+newport","location":"44.6142096,-124.0504892","brandsList":["toyota"]},{"id":8895,"crm_id":67078843,"name":"Lithia Nissan of Eugene","dealerSlug":"lithia+nissan+of+eugene","city_state_slug":"Eugene.OR","brand":"Nissan","website":"www.lithianissaneugene.com","address":"2060 Martin Luther King Jr Blvd","city":"Eugene","state":"OR","zip":97401,"latitude":44.0590377,"longitude":-123.0810426,"phone_number_service":"8887206534","phone_number_main":"5412255411","service_hours":"Mo-Fr 07:30 - 18:00 | Sa 08:00 - 16:00","utc_offset":"-420","gplace_id":null,"gplace_url":"https://maps.google.com/?cid=13573961910561086480","dealerID":74637,"trusted":false,"image_id":"v1597283926/nissan_RM.png","phone":"8887206534","cityStateSlug":"eugene.or","slug":"Eugene.OR/lithia+nissan+of+eugene","location":"44.0590377,-123.0810426","brandsList":["nissan"]},{"id":7826,"crm_id":67078846,"name":"Kendall Lincoln of Eugene","dealerSlug":"kendall+lincoln+of+eugene","city_state_slug":"Eugene.OR","brand":"Lincoln","website":"www.kendalllincolnofeugene.com","address":"344 Goodpasture Island Rd","city":"Eugene","state":"OR","zip":97401,"latitude":44.073115,"longitude":-123.107046,"phone_number_service":"8886891422","phone_number_main":"8337613954","service_hours":"Mo-Fr 07:00 - 18:00","utc_offset":"-420","gplace_id":null,"gplace_url":"https://maps.google.com/?cid=4747092242330306560","dealerID":74638,"trusted":false,"image_id":"v1597283942/lincoln_RM.png","phone":"8886891422","cityStateSlug":"eugene.or","slug":"Eugene.OR/kendall+lincoln+of+eugene","location":"44.073115,-123.107046","brandsList":["lincoln"]},{"id":7821,"crm_id":67078849,"name":"Kendall Honda","dealerSlug":"kendall+honda","city_state_slug":"Eugene.OR","brand":"Honda","website":"www.kendallhonda.com","address":"846 Goodpasture Island Rd","city":"Eugene","state":"OR","zip":97401,"latitude":44.0856817,"longitude":-123.1074102,"phone_number_service":"5414856111","phone_number_main":"8559815504","service_hours":"Mo-Fr 07:00 - 18:00","utc_offset":"-420","gplace_id":null,"gplace_url":"https://maps.google.com/?cid=5464839631503284305","dealerID":74639,"trusted":false,"image_id":"v1597284047/honda_ms.png","phone":"5414856111","cityStateSlug":"eugene.or","slug":"Eugene.OR/kendall+honda","location":"44.0856817,-123.1074102","brandsList":["honda"]},{"id":13149,"crm_id":67078852,"name":"Sheppard Motors","dealerSlug":"sheppard+motors","city_state_slug":"Eugene.OR","brand":"Volkswagen","website":"www.sheppardmotors.com","address":"2300 W 7th Ave","city":"Eugene","state":"OR","zip":97402,"latitude":44.0532315,"longitude":-123.1282507,"phone_number_service":"8774680212","phone_number_main":"5413438811","service_hours":"Mo-Fr 07:30 - 17:30","utc_offset":"-420","gplace_id":null,"gplace_url":"https://maps.google.com/?cid=9849304011825982834","dealerID":74640,"trusted":false,"image_id":"v1597283902/volkswagen.png","phone":"8774680212","cityStateSlug":"eugene.or","slug":"Eugene.OR/sheppard+motors","location":"44.0532315,-123.1282507","brandsList":["volkswagen"]},{"id":3116,"crm_id":67078855,"name":"Coast Auto Center","dealerSlug":"coast+auto+center","city_state_slug":"Brookings.OR","brand":"Buick,Chevrolet,GMC","website":"www.coastautocenter.net","address":"530 Chetco Ave","city":"Brookings","state":"OR","zip":97415,"latitude":42.0531944,"longitude":-124.2803489,"phone_number_service":"5414695321","phone_number_main":"8003429438","service_hours":"Mo-Fr 07:30 - 17:30","utc_offset":"-420","gplace_id":null,"gplace_url":"https://maps.google.com/?cid=9489683545002582356","dealerID":74641,"trusted":false,"image_id":"v1597283981/buick_RM.png","phone":"5414695321","cityStateSlug":"brookings.or","slug":"Brookings.OR/coast+auto+center","location":"42.0531944,-124.2803489","brandsList":["buick","chevrolet","gmc"]},{"id":5716,"crm_id":67078858,"name":"Graham Bay Area Cjdr","dealerSlug":"graham+bay+area+cjdr","city_state_slug":"Coos-Bay.OR","brand":"Chrysler,Dodge,Jeep,RAM","website":"www.goseegraham.com","address":"1400 Ocean Boulevard","city":"Coos Bay","state":"OR","zip":97420,"latitude":43.3900149,"longitude":-124.2632138,"phone_number_service":"5414350069","phone_number_main":"5418885594","service_hours":"Mo-Fr 07:30 - 17:00","utc_offset":"-420","gplace_id":null,"gplace_url":"https://maps.google.com/?cid=11497679061839388977","dealerID":74642,"trusted":false,"image_id":"v1597283975/chrysler_RM.png","phone":"5414350069","cityStateSlug":"coos-bay.or","slug":"Coos-Bay.OR/graham+bay+area+cjdr","location":"43.3900149,-124.2632138","brandsList":["chrysler","dodge","jeep","ram"]},{"id":7611,"crm_id":67078861,"name":"Johnston Motor Co","dealerSlug":"johnston+motor+co","city_state_slug":"Florence.OR","brand":"Ford","website":"www.johnstonmotorcompany.com","address":"2150 Hwy. 101","city":"Florence","state":"OR","zip":97439,"latitude":43.9855969,"longitude":-124.100747,"phone_number_service":"5419973475","phone_number_main":"5419973475","service_hours":"Mo-Fr 08:00 - 1700","utc_offset":"-420","gplace_id":null,"gplace_url":"https://maps.google.com/?cid=7160981090178810831","dealerID":74643,"trusted":false,"image_id":"v1597283967/ford_RM.png","phone":"5419973475","cityStateSlug":"florence.or","slug":"Florence.OR/johnston+motor+co","location":"43.9855969,-124.100747","brandsList":["ford"]},{"id":7827,"crm_id":67078864,"name":"Kendall Subaru","dealerSlug":"kendall+subaru","city_state_slug":"Eugene.OR","brand":"Subaru","website":"www.kendallsubaruonline.com","address":"20 Coburg Rd","city":"Eugene","state":"OR","zip":97401,"latitude":44.0612861,"longitude":-123.0819778,"phone_number_service":"8884141537","phone_number_main":"8559815552","service_hours":"Mo-Fr 07:00 - 18:00","utc_offset":"-420","gplace_id":null,"gplace_url":"https://maps.google.com/?cid=1023626355739434240","dealerID":74644,"trusted":false,"image_id":"v1597283982/subaru_ms.png","phone":"8884141537","cityStateSlug":"eugene.or","slug":"Eugene.OR/kendall+subaru","location":"44.0612861,-123.0819778","brandsList":["subaru"]},{"id":7809,"crm_id":67078867,"name":"Ken Ware Chevrolet Buick GMC Cadillac","dealerSlug":"ken+ware+chevrolet+buick+gmc+cadillac","city_state_slug":"North-Bend.OR","brand":"Buick,Cadillac,Chevrolet,GMC","website":"www.kenware.net","address":"1595 Newmark St","city":"North Bend","state":"OR","zip":97459,"latitude":43.3906866,"longitude":-124.2345363,"phone_number_service":"8666158016","phone_number_main":"5419822574","service_hours":"Mo-Fr 07:30 - 17:00","utc_offset":"-420","gplace_id":null,"gplace_url":"https://maps.google.com/?cid=2664693999147889389","dealerID":74645,"trusted":false,"image_id":"v1597283981/buick_RM.png","phone":"8666158016","cityStateSlug":"north-bend.or","slug":"North-Bend.OR/ken+ware+chevrolet+buick+gmc+cadillac","location":"43.3906866,-124.2345363","brandsList":["buick","cadillac","chevrolet","gmc"]},{"id":3079,"crm_id":67078870,"name":"Clint Newell Toyota","dealerSlug":"clint+newell+toyota","city_state_slug":"Roseburg.OR","brand":"Toyota","website":"clintnewelltoyota.com","address":"1481 NE Stephens St","city":"Roseburg","state":"OR","zip":97470,"latitude":43.227632,"longitude":-123.3485211,"phone_number_service":"5416737000","phone_number_main":"5416737000","service_hours":"Mo-Fr 07:30 - 17:30","utc_offset":"-420","gplace_id":null,"gplace_url":"https://maps.google.com/?cid=3000295869794798300","dealerID":74646,"trusted":false,"image_id":"v1597284039/toyota_ms.png","phone":"5416737000","cityStateSlug":"roseburg.or","slug":"Roseburg.OR/clint+newell+toyota","location":"43.227632,-123.3485211","brandsList":["toyota"]},{"id":8864,"crm_id":67078873,"name":"Lithia Chrysler Dodge Jeep RAM FIAT of Roseburg","dealerSlug":"lithia+chrysler+dodge+jeep+ram+fiat+of+roseburg","city_state_slug":"Roseburg.OR","brand":"Chrysler,Dodge,Jeep,RAM,Fiat","website":"www.lithiadodgeroseburg.com","address":"1600 NE Airport Rd","city":"Roseburg","state":"OR","zip":97470,"latitude":43.2296761,"longitude":-123.3525937,"phone_number_service":"8444134892","phone_number_main":"5413784945","service_hours":"Mo-Fr 08:30 - 18:30 | Sa 08:30 - 18:30 | Su 10:00 - 17:00","utc_offset":"-420","gplace_id":null,"gplace_url":"https://maps.google.com/?cid=5884969107097415763","dealerID":74647,"trusted":false,"image_id":"v1597283975/chrysler_RM.png","phone":"8444134892","cityStateSlug":"roseburg.or","slug":"Roseburg.OR/lithia+chrysler+dodge+jeep+ram+fiat+of+roseburg","location":"43.2296761,-123.3525937","brandsList":["chrysler","dodge","jeep","ram","fiat"]},{"id":8883,"crm_id":67078876,"name":"Lithia Ford Lincoln of Roseburg","dealerSlug":"lithia+ford+lincoln+of+roseburg","city_state_slug":"Roseburg.OR","brand":"Ford,Lincoln","website":"www.lithiafordroseburg.com","address":"1650 N.E. Stephens","city":"Roseburg","state":"OR","zip":97470,"latitude":43.2295224,"longitude":-123.352453,"phone_number_service":"8669814052","phone_number_main":"5415374643","service_hours":"Mo-Fr 07:30 - 17:30 | Sa 08:00 - 16:00","utc_offset":"-420","gplace_id":null,"gplace_url":"https://maps.google.com/?cid=12933325328580161825","dealerID":74648,"trusted":false,"image_id":"v1597283967/ford_RM.png","phone":"8669814052","cityStateSlug":"roseburg.or","slug":"Roseburg.OR/lithia+ford+lincoln+of+roseburg","location":"43.2295224,-123.352453","brandsList":["ford","lincoln"]},{"id":8910,"crm_id":67078879,"name":"Lithia Toyota of Springfield","dealerSlug":"lithia+toyota+of+springfield","city_state_slug":"Springfield.OR","brand":"Toyota","website":"www.lithiatoyotaspringfield.com","address":"163 S 9th St","city":"Springfield","state":"OR","zip":97477,"latitude":44.0454386,"longitude":-123.0135014,"phone_number_service":"8774684053","phone_number_main":"5412255452","service_hours":"Mo-Fr 07:00 - 18:00 | Sa 08:00 - 17:00","utc_offset":"-420","gplace_id":null,"gplace_url":"https://maps.google.com/?cid=16583713554694589952","dealerID":74649,"trusted":false,"image_id":"v1597284039/toyota_ms.png","phone":"8774684053","cityStateSlug":"springfield.or","slug":"Springfield.OR/lithia+toyota+of+springfield","location":"44.0454386,-123.0135014","brandsList":["toyota"]},{"id":8897,"crm_id":67078882,"name":"Lithia Nissan of Medford","dealerSlug":"lithia+nissan+of+medford","city_state_slug":"Medford.OR","brand":"Nissan","website":"www.lithianissanmedford.com","address":"4560 Grumman Dr","city":"Medford","state":"OR","zip":97504,"latitude":42.3800695,"longitude":-122.8580035,"phone_number_service":"5412992131","phone_number_main":"5419303025","service_hours":"Mo-Fr 07:30 - 18:00 | Sa 08:00 - 16:00","utc_offset":"-420","gplace_id":null,"gplace_url":"https://maps.google.com/?cid=4793464538686513309","dealerID":74650,"trusted":false,"image_id":"v1597283926/nissan_RM.png","phone":"5412992131","cityStateSlug":"medford.or","slug":"Medford.OR/lithia+nissan+of+medford","location":"42.3800695,-122.8580035","brandsList":["nissan"]},{"id":3458,"crm_id":67078888,"name":"Crater Lake Mazda","dealerSlug":"crater+lake+mazda","city_state_slug":"Medford.OR","brand":"Mazda","website":"www.craterlakemazda.com","address":"2517 Biddle Rd","city":"Medford","state":"OR","zip":97504,"latitude":42.3544299,"longitude":-122.8761628,"phone_number_service":"8332077076","phone_number_main":"5413260933","service_hours":"Mo-Sa 07:30 - 17:30 | Su 11:00 - 15:00","utc_offset":"-420","gplace_id":null,"gplace_url":"https://maps.google.com/?cid=9679157419705878369","dealerID":74651,"trusted":false,"image_id":"v1597283937/mazda.png","phone":"8332077076","cityStateSlug":"medford.or","slug":"Medford.OR/crater+lake+mazda","location":"42.3544299,-122.8761628","brandsList":["mazda"]},{"id":3457,"crm_id":67078891,"name":"Crater Lake Ford Lincoln","dealerSlug":"crater+lake+ford+lincoln","city_state_slug":"Medford.OR","brand":"Ford,Lincoln","website":"www.craterlakemotors.com","address":"2611 Biddle Rd","city":"Medford","state":"OR","zip":97504,"latitude":42.3556018,"longitude":-122.8770022,"phone_number_service":"8332491001","phone_number_main":"5418876176","service_hours":"Mo-Fr 07:30 - 17:30 | Sa 09:00 - 16:00 | Su 11:00 - 15:00","utc_offset":"-420","gplace_id":null,"gplace_url":"https://maps.google.com/?cid=2823911011323778129","dealerID":74652,"trusted":false,"image_id":"v1597283967/ford_RM.png","phone":"8332491001","cityStateSlug":"medford.or","slug":"Medford.OR/crater+lake+ford+lincoln","location":"42.3556018,-122.8770022","brandsList":["ford","lincoln"]},{"id":13413,"crm_id":67078894,"name":"Southern Oregon Subaru","dealerSlug":"southern+oregon+subaru","city_state_slug":"Medford.OR","brand":"Subaru","website":"www.sosubaru.com","address":"3103 Biddle Rd","city":"Medford","state":"OR","zip":97504,"latitude":42.362254,"longitude":-122.876619,"phone_number_service":"8662869022","phone_number_main":"5412452000","service_hours":"Mo-Fr 07:30 - 18:00 | Sa 08:00 - 14:00","utc_offset":"-420","gplace_id":null,"gplace_url":"https://maps.google.com/?cid=1606493095224715261","dealerID":74653,"trusted":false,"image_id":"v1597283982/subaru_ms.png","phone":"8662869022","cityStateSlug":"medford.or","slug":"Medford.OR/southern+oregon+subaru","location":"42.362254,-122.876619","brandsList":["subaru"]},{"id":8885,"crm_id":67078897,"name":"Lithia Honda in Medford","dealerSlug":"lithia+honda+in+medford","city_state_slug":"Medford.OR","brand":"Honda","website":"www.lithiahondamedford.com","address":"4095 Crater Lake Hwy","city":"Medford","state":"OR","zip":97504,"latitude":42.3760626,"longitude":-122.8573499,"phone_number_service":"8882870458","phone_number_main":"5419303021","service_hours":"Mo-Fr 07:00 - 17:00 | Sa 07:00 - 17:00","utc_offset":"-420","gplace_id":null,"gplace_url":"https://maps.google.com/?cid=3761998281550401834","dealerID":74654,"trusted":false,"image_id":"v1597284047/honda_ms.png","phone":"8882870458","cityStateSlug":"medford.or","slug":"Medford.OR/lithia+honda+in+medford","location":"42.3760626,-122.8573499","brandsList":["honda"]},{"id":14060,"crm_id":67078900,"name":"TC Chevrolet","dealerSlug":"tc+chevrolet","city_state_slug":"Ashland.OR","brand":"Chevrolet","website":"www.tcchevy.com","address":"2045 Hwy 99 N","city":"Ashland","state":"OR","zip":97520,"latitude":42.219623,"longitude":-122.7398373,"phone_number_service":"5412018697","phone_number_main":"5412018698","service_hours":"Mo-Fr 07:30 - 17:30","utc_offset":"-420","gplace_id":null,"gplace_url":"https://maps.google.com/?cid=6358706655472635701","dealerID":74655,"trusted":false,"image_id":"v1597284079/chevy_ms.png","phone":"5412018697","cityStateSlug":"ashland.or","slug":"Ashland.OR/tc+chevrolet","location":"42.219623,-122.7398373","brandsList":["chevrolet"]},{"id":8874,"crm_id":67078903,"name":"Lithia Chrysler Jeep Dodge RAM of Grants Pass","dealerSlug":"lithia+chrysler+jeep+dodge+ram+of+grants+pass","city_state_slug":"Grants-Pass.OR","brand":"Chrysler,Dodge,Jeep,RAM","website":"www.lithiagrantspass.com","address":"1421 N.E. 6th St","city":"Grants Pass","state":"OR","zip":97526,"latitude":42.4537128,"longitude":-123.3216325,"phone_number_service":"8444916821","phone_number_main":"8662206313","service_hours":"Mo-Fr 07:00 - 18:00 | Sa 08:00 - 16:00","utc_offset":"-420","gplace_id":null,"gplace_url":"https://maps.google.com/?cid=9185133323960709830","dealerID":51500,"trusted":true,"image_id":"v1597283975/chrysler_RM.png","phone":"8444916821","cityStateSlug":"grants-pass.or","slug":"Grants-Pass.OR/lithia+chrysler+jeep+dodge+ram+of+grants+pass","location":"42.4537128,-123.3216325","brandsList":["chrysler","dodge","jeep","ram"]},{"id":7438,"crm_id":67078906,"name":"Jim Sigel Chevrolet","dealerSlug":"jim+sigel+chevrolet","city_state_slug":"Grants-Pass.OR","brand":"Chevrolet","website":"www.jimsigelchevrolet.com/","address":"1601 NE 7th St","city":"Grants Pass","state":"OR","zip":97526,"latitude":42.4560752,"longitude":-123.3200295,"phone_number_service":"5412263255","phone_number_main":"5414760811","service_hours":"Mo-Fr 07:30-17:30","utc_offset":"-420","gplace_id":null,"gplace_url":"https://maps.google.com/?cid=16718724719886240716","dealerID":74657,"trusted":false,"image_id":"v1597284079/chevy_ms.png","phone":"5412263255","cityStateSlug":"grants-pass.or","slug":"Grants-Pass.OR/jim+sigel+chevrolet","location":"42.4560752,-123.3200295","brandsList":["chevrolet"]},{"id":7439,"crm_id":67078909,"name":"Jim Sigel Honda","dealerSlug":"jim+sigel+honda","city_state_slug":"Grants-Pass.OR","brand":"Honda","website":"www.jimsigelhonda.com/","address":"1601 NE 7th St","city":"Grants Pass","state":"OR","zip":97526,"latitude":42.4560752,"longitude":-123.3200295,"phone_number_service":"5412263164","phone_number_main":"5414760811","service_hours":"Mo-Fr 07:30-17:30","utc_offset":"-420","gplace_id":null,"gplace_url":"https://maps.google.com/?cid=16718724719886240716","dealerID":74658,"trusted":false,"image_id":"v1597284047/honda_ms.png","phone":"5412263164","cityStateSlug":"grants-pass.or","slug":"Grants-Pass.OR/jim+sigel+honda","location":"42.4560752,-123.3200295","brandsList":["honda"]},{"id":7440,"crm_id":67078912,"name":"Jim Sigel Nissan","dealerSlug":"jim+sigel+nissan","city_state_slug":"Grants-Pass.OR","brand":"Nissan","website":"www.jimsigelnissan.com/","address":"1601 NE 7th St","city":"Grants Pass","state":"OR","zip":97526,"latitude":42.4560752,"longitude":-123.3200295,"phone_number_service":"5412263141","phone_number_main":"5414760811","service_hours":"Mo-Fr 07:30-17:30","utc_offset":"-420","gplace_id":null,"gplace_url":"https://maps.google.com/?cid=16718724719886240716","dealerID":74659,"trusted":false,"image_id":"v1597283926/nissan_RM.png","phone":"5412263141","cityStateSlug":"grants-pass.or","slug":"Grants-Pass.OR/jim+sigel+nissan","location":"42.4560752,-123.3200295","brandsList":["nissan"]},{"id":10223,"crm_id":67078918,"name":"Mock's Mazda","dealerSlug":"mocks+mazda","city_state_slug":"Grants-Pass.OR","brand":"Mazda","website":"mocksmazda.com","address":"913 SE 6th St","city":"Grants Pass","state":"OR","zip":97526,"latitude":42.4325326,"longitude":-123.3300185,"phone_number_service":"8332393967","phone_number_main":"5414766656","service_hours":"Mo-Fr 07:00 - 17:30 | Sa 09:00 - 15:00","utc_offset":"-420","gplace_id":null,"gplace_url":"https://maps.google.com/?cid=725208664033072105","dealerID":74660,"trusted":false,"image_id":"v1597283937/mazda.png","phone":"8332393967","cityStateSlug":"grants-pass.or","slug":"Grants-Pass.OR/mocks+mazda","location":"42.4325326,-123.3300185","brandsList":["mazda"]},{"id":6022,"crm_id":67078921,"name":"Hall Motor Company GM","dealerSlug":"hall+motor+company+gm","city_state_slug":"Lakeview.OR","brand":"Buick,Chevrolet,GMC","website":"www.hallmotorcompanygm.com","address":"1700 N 4th St","city":"Lakeview","state":"OR","zip":97630,"latitude":42.1938149,"longitude":-120.3580493,"phone_number_service":"8772499489","phone_number_main":"8778174698","service_hours":"Mo-Fr 08:00 - 17:00","utc_offset":"-420","gplace_id":null,"gplace_url":"https://maps.google.com/?cid=1720793800641526587","dealerID":74661,"trusted":false,"image_id":"v1597283981/buick_RM.png","phone":"8772499489","cityStateSlug":"lakeview.or","slug":"Lakeview.OR/hall+motor+company+gm","location":"42.1938149,-120.3580493","brandsList":["buick","chevrolet","gmc"]},{"id":8893,"crm_id":67078924,"name":"Lithia Nissan of Bend","dealerSlug":"lithia+nissan+of+bend","city_state_slug":"Bend.OR","brand":"Nissan","website":"www.lithianissanbend.com/","address":"1835 US-20","city":"Bend","state":"OR","zip":97701,"latitude":44.0554275,"longitude":-121.2776336,"phone_number_service":"5416786650","phone_number_main":"5416786720","service_hours":"Mo-Fr 07:00 - 18:00","utc_offset":"-420","gplace_id":null,"gplace_url":"https://maps.google.com/?cid=13121742127995006032","dealerID":74662,"trusted":false,"image_id":"v1597283926/nissan_RM.png","phone":"5416786650","cityStateSlug":"bend.or","slug":"Bend.OR/lithia+nissan+of+bend","location":"44.0554275,-121.2776336","brandsList":["nissan"]},{"id":8868,"crm_id":67078927,"name":"Lithia Chrysler Dodge Jeep RAM of Bend","dealerSlug":"lithia+chrysler+dodge+jeep+ram+of+bend","city_state_slug":"Bend.OR","brand":"Chrysler,Dodge,Jeep,RAM","website":"www.lithiacdjrbend.com/","address":"1865 NE Hwy 20","city":"Bend","state":"OR","zip":97701,"latitude":44.054557,"longitude":-121.276561,"phone_number_service":"5416786850","phone_number_main":"5416786820","service_hours":"Mo-Fr 07:00 - 18:00","utc_offset":"-420","gplace_id":null,"gplace_url":"https://maps.google.com/?cid=12740326845465175918","dealerID":74663,"trusted":false,"image_id":"v1597283975/chrysler_RM.png","phone":"5416786850","cityStateSlug":"bend.or","slug":"Bend.OR/lithia+chrysler+dodge+jeep+ram+of+bend","location":"44.054557,-121.276561","brandsList":["chrysler","dodge","jeep","ram"]},{"id":12413,"crm_id":67078930,"name":"Robberson Ford","dealerSlug":"robberson+ford","city_state_slug":"Bend.OR","brand":"Ford","website":"www.robbersonford.com","address":"2100 NE 3rd St","city":"Bend","state":"OR","zip":97701,"latitude":44.0711071,"longitude":-121.3015542,"phone_number_service":"5413824521","phone_number_main":"5413824521","service_hours":"Mo-Fr 07:00 - 18:00 | Sa 08:00 - 17:00","utc_offset":"-420","gplace_id":null,"gplace_url":"https://maps.google.com/?cid=6823134421655806380","dealerID":74664,"trusted":false,"image_id":"v1597283967/ford_RM.png","phone":"5413824521","cityStateSlug":"bend.or","slug":"Bend.OR/robberson+ford","location":"44.0711071,-121.3015542","brandsList":["ford"]},{"id":2871,"crm_id":67078933,"name":"Chevrolet Cadillac of Bend","dealerSlug":"chevrolet+cadillac+of+bend","city_state_slug":"Bend.OR","brand":"Cadillac,Chevrolet","website":"www.bendchevrolet.com","address":"345 NE 3rd St","city":"Bend","state":"OR","zip":97701,"latitude":44.053699,"longitude":-121.3032384,"phone_number_service":"5416935105","phone_number_main":"5414089394","service_hours":"Mo-Fr 07:00 - 18:00 | Sa 07:30 - 16:30","utc_offset":"-420","gplace_id":null,"gplace_url":"https://maps.google.com/?cid=15923077493299060564","dealerID":74665,"trusted":false,"image_id":"v1597283980/cadillac.png","phone":"5416935105","cityStateSlug":"bend.or","slug":"Bend.OR/chevrolet+cadillac+of+bend","location":"44.053699,-121.3032384","brandsList":["cadillac","chevrolet"]},{"id":13321,"crm_id":67078942,"name":"Smolich Volvo Cars","dealerSlug":"smolich+volvo+cars","city_state_slug":"Bend.OR","brand":"Volvo","website":"www.smolichvolvocars.com","address":"20630 Grandview Dr","city":"Bend","state":"OR","zip":97701,"latitude":44.1154897,"longitude":-121.2920054,"phone_number_service":"8777473087","phone_number_main":"5417492156","service_hours":"Mo-Fr  08:00 - 16:00","utc_offset":"-420","gplace_id":null,"gplace_url":"https://maps.google.com/?cid=15619675616151412922","dealerID":74666,"trusted":false,"image_id":"v1597283901/volvo.jpg","phone":"8777473087","cityStateSlug":"bend.or","slug":"Bend.OR/smolich+volvo+cars","location":"44.1154897,-121.2920054","brandsList":["volvo"]},{"id":2335,"crm_id":67078945,"name":"Burns Ford","dealerSlug":"burns+ford","city_state_slug":"Burns.OR","brand":"Ford","website":"www.burnsfordinc.com","address":"188 N Broadway Ave","city":"Burns","state":"OR","zip":97720,"latitude":43.5873107,"longitude":-119.0557174,"phone_number_service":"5415733673","phone_number_main":"5415736014","service_hours":"Mo-Fr 07:00 - 17:30","utc_offset":"-420","gplace_id":null,"gplace_url":"https://maps.google.com/?cid=3425268966152177392","dealerID":74667,"trusted":false,"image_id":"v1597283967/ford_RM.png","phone":"5415733673","cityStateSlug":"burns.or","slug":"Burns.OR/burns+ford","location":"43.5873107,-119.0557174","brandsList":["ford"]},{"id":15669,"crm_id":67078948,"name":"Wright Ford","dealerSlug":"wright+ford","city_state_slug":"Redmond.OR","brand":"Ford","website":"www.wrightfordinc.net","address":"1835 S Hwy 97","city":"Redmond","state":"OR","zip":97756,"latitude":44.2589802,"longitude":-121.1805384,"phone_number_service":"5415482138","phone_number_main":"5415482138","service_hours":"Mo-Fr 07:30 - 17:00","utc_offset":"-420","gplace_id":null,"gplace_url":"https://maps.google.com/?cid=18242778552664629394","dealerID":74668,"trusted":false,"image_id":"v1597283967/ford_RM.png","phone":"5415482138","cityStateSlug":"redmond.or","slug":"Redmond.OR/wright+ford","location":"44.2589802,-121.1805384","brandsList":["ford"]},{"id":981,"crm_id":67078951,"name":"Baker Garage","dealerSlug":"baker+garage","city_state_slug":"Baker-City.OR","brand":"Buick,Chevrolet,GMC","website":"www.bakercitygmsales.com","address":"1740-80 Washington Ave","city":"Baker City","state":"OR","zip":97814,"latitude":44.7773704,"longitude":-117.8279078,"phone_number_service":"5412050703","phone_number_main":"5412494361","service_hours":"Mo-Fr 07:30 - 17:30","utc_offset":"-420","gplace_id":null,"gplace_url":"https://maps.google.com/?cid=695835527526521282","dealerID":74669,"trusted":false,"image_id":"v1597283981/buick_RM.png","phone":"5412050703","cityStateSlug":"baker-city.or","slug":"Baker-City.OR/baker+garage","location":"44.7773704,-117.8279078","brandsList":["buick","chevrolet","gmc"]},{"id":980,"crm_id":67078954,"name":"Baker City Auto Ranch","dealerSlug":"baker+city+auto+ranch","city_state_slug":"Baker-City.OR","brand":"Chrysler,Dodge,Jeep,RAM","website":"www.bakercityautoranch.com","address":"2514 10th St","city":"Baker City","state":"OR","zip":97814,"latitude":44.7822014,"longitude":-117.8397657,"phone_number_service":"5412393887","phone_number_main":"5415234122","service_hours":"Mo-Fr 07:30 - 17:30  | Sa 08:00 - 15:00","utc_offset":"-420","gplace_id":null,"gplace_url":"https://maps.google.com/?cid=1313064286043744934","dealerID":74670,"trusted":false,"image_id":"v1597283975/chrysler_RM.png","phone":"5412393887","cityStateSlug":"baker-city.or","slug":"Baker-City.OR/baker+city+auto+ranch","location":"44.7822014,-117.8397657","brandsList":["chrysler","dodge","jeep","ram"]},{"id":10096,"crm_id":67078957,"name":"Milligan Motors","dealerSlug":"milligan+motors","city_state_slug":"Enterprise.OR","brand":"Chevrolet","website":"www.milliganmotors.net","address":"202 E North St","city":"Enterprise","state":"OR","zip":97828,"latitude":45.426176,"longitude":-117.2755709,"phone_number_service":"5412635265","phone_number_main":"5414263128","service_hours":"Mo-Fr 08:00 - 17:00","utc_offset":"-420","gplace_id":null,"gplace_url":"https://maps.google.com/?cid=8406147825789385420","dealerID":74671,"trusted":false,"image_id":"v1597284079/chevy_ms.png","phone":"5412635265","cityStateSlug":"enterprise.or","slug":"Enterprise.OR/milligan+motors","location":"45.426176,-117.2755709","brandsList":["chevrolet"]},{"id":12506,"crm_id":67078960,"name":"Rogers Toyota of Hermiston","dealerSlug":"rogers+toyota+of+hermiston","city_state_slug":"Hermiston.OR","brand":"Toyota","website":"www.toyotaofhermiston.com","address":"1550 N 1st St","city":"Hermiston","state":"OR","zip":97838,"latitude":45.8525971,"longitude":-119.2898906,"phone_number_service":"5415676461","phone_number_main":"5415676461","service_hours":"Mo-Fr  08:00 - 17:30 | Sa 08:00 - 17:00","utc_offset":"-420","gplace_id":null,"gplace_url":"https://maps.google.com/?cid=10695619441479037821","dealerID":74672,"trusted":false,"image_id":"v1597284039/toyota_ms.png","phone":"5415676461","cityStateSlug":"hermiston.or","slug":"Hermiston.OR/rogers+toyota+of+hermiston","location":"45.8525971,-119.2898906","brandsList":["toyota"]},{"id":6104,"crm_id":67078963,"name":"Harley Swain Subaru","dealerSlug":"harley+swain+subaru","city_state_slug":"Hermiston.OR","brand":"Subaru","website":"www.harleyswainsubaru.com","address":"1915 N 1st St","city":"Hermiston","state":"OR","zip":97838,"latitude":45.85778,"longitude":-119.2907378,"phone_number_service":"8887026101","phone_number_main":"5415679696","service_hours":"Mo-Fr 08:00 - 17:00","utc_offset":"-420","gplace_id":null,"gplace_url":"https://maps.google.com/?cid=3092157310470512401","dealerID":74673,"trusted":false,"image_id":"v1597283982/subaru_ms.png","phone":"8887026101","cityStateSlug":"hermiston.or","slug":"Hermiston.OR/harley+swain+subaru","location":"45.85778,-119.2907378","brandsList":["subaru"]},{"id":13976,"crm_id":67078969,"name":"Swain Motors","dealerSlug":"swain+motors","city_state_slug":"Hermiston.OR","brand":"GMC","website":"www.swainmotors.com","address":"80406 US-395","city":"Hermiston","state":"OR","zip":97838,"latitude":45.86641,"longitude":-119.292537,"phone_number_service":"8774000460","phone_number_main":"8773535855","service_hours":"Mo-Fr 08:00 - 17:00","utc_offset":"-420","gplace_id":null,"gplace_url":"https://maps.google.com/?cid=4240545393657202685","dealerID":74674,"trusted":false,"image_id":"v1597283963/gmc_RM.png","phone":"8774000460","cityStateSlug":"hermiston.or","slug":"Hermiston.OR/swain+motors","location":"45.86641,-119.292537","brandsList":["gmc"]},{"id":8570,"crm_id":67079539,"name":"Legacy Chrysler Jeep Dodge RAM","dealerSlug":"legacy+chrysler+jeep+dodge+ram","city_state_slug":"Island-City.OR","brand":"Chrysler,Dodge,Jeep,RAM","website":"www.legacychryslerjeepdodgeram.net","address":"10705 Island Ave","city":"Island City","state":"OR","zip":97850,"latitude":45.339427,"longitude":-118.051733,"phone_number_service":"8669792109","phone_number_main":"5419627099","service_hours":"Mo-Fr 07:30 - 18:00 | Sa 09:00 - 17:00","utc_offset":"-420","gplace_id":null,"gplace_url":"https://maps.google.com/?cid=2434289539023908301","dealerID":74812,"trusted":false,"image_id":"v1597283975/chrysler_RM.png","phone":"8669792109","cityStateSlug":"island-city.or","slug":"Island-City.OR/legacy+chrysler+jeep+dodge+ram","location":"45.339427,-118.051733","brandsList":["chrysler","dodge","jeep","ram"]},{"id":9683,"crm_id":69649309,"name":"Mercedes-Benz of Bend","dealerSlug":"mercedes+benz+of+bend","city_state_slug":"Bend.OR","brand":"Mercedes-Benz","website":"www.mbofbend.com","address":"61440 S Hwy 97","city":"Bend","state":"OR","zip":97702,"latitude":44.0314252,"longitude":-121.3086507,"phone_number_service":"5417492500","phone_number_main":"8559815538","service_hours":"Mo-Fr 08:00 - 17:00","utc_offset":"-420","gplace_id":null,"gplace_url":"https://maps.google.com/?cid=9202507443776779939","dealerID":50467,"trusted":true,"image_id":"v1597283934/mercedes_RM.png","phone":"5417492500","cityStateSlug":"bend.or","slug":"Bend.OR/mercedes+benz+of+bend","location":"44.0314252,-121.3086507","brandsList":["mercedes-benz"]},{"id":9725,"crm_id":69716650,"name":"Mercedes-Benz of Eugene","dealerSlug":"mercedes+benz+of+eugene","city_state_slug":"Eugene.OR","brand":"Mercedes-Benz","website":"www.mbeugene.com","address":"2200 Martin Luther King Jr Blvd","city":"Eugene","state":"OR","zip":97401,"latitude":44.0593027,"longitude":-123.078737,"phone_number_service":"5416878888","phone_number_main":"5416878888","service_hours":"Mo-Fr 07:30 - 17:30","utc_offset":"-420","gplace_id":null,"gplace_url":"https://maps.google.com/?cid=8528969694817197015","dealerID":50450,"trusted":true,"image_id":"v1597283934/mercedes_RM.png","phone":"5416878888","cityStateSlug":"eugene.or","slug":"Eugene.OR/mercedes+benz+of+eugene","location":"44.0593027,-123.078737","brandsList":["mercedes-benz"]},{"id":9827,"crm_id":70279345,"name":"Mercedes-Benz of Salem","dealerSlug":"mercedes+benz+of+salem","city_state_slug":"Salem.OR","brand":"Mercedes-Benz","website":"www.mercedesofsalem.com","address":"2405 Commercial St SE","city":"Salem","state":"OR","zip":97302,"latitude":44.917996,"longitude":-123.045114,"phone_number_service":"8773060089","phone_number_main":"5035885000","service_hours":"Mo-Fr 07:00 - 17:30","utc_offset":"-420","gplace_id":null,"gplace_url":"https://maps.google.com/?cid=10782934062595638231","dealerID":50464,"trusted":true,"image_id":"v1597283934/mercedes_RM.png","phone":"8773060089","cityStateSlug":"salem.or","slug":"Salem.OR/mercedes+benz+of+salem","location":"44.917996,-123.045114","brandsList":["mercedes-benz"]},{"id":10222,"crm_id":71553940,"name":"Mock Ford Sales","dealerSlug":"mock+ford+sales","city_state_slug":"Grants-Pass.OR","brand":"Ford","website":"www.mockfordsales.com","address":"913 SE 6th St","city":"Grants Pass","state":"OR","zip":97526,"latitude":42.432844,"longitude":-123.3299968,"phone_number_service":"5412919352","phone_number_main":"5414766656","service_hours":"Mo-Fr 07:00 - 17:30","utc_offset":"-420","gplace_id":null,"gplace_url":"https://maps.google.com/?cid=3305033053862916456","dealerID":75023,"trusted":false,"image_id":"v1597283967/ford_RM.png","phone":"5412919352","cityStateSlug":"grants-pass.or","slug":"Grants-Pass.OR/mock+ford+sales","location":"42.432844,-123.3299968","brandsList":["ford"]},{"id":9431,"crm_id":71554132,"name":"Mazda of Gladstone","dealerSlug":"mazda+of+gladstone","city_state_slug":"Gladstone.OR","brand":"Mazda","website":"www.mazdaofgladstone.com","address":"19405 SE McLoughlin Blvd","city":"Gladstone","state":"OR","zip":97027,"latitude":45.380241,"longitude":-122.60491,"phone_number_service":"5036529110","phone_number_main":"5036529101","service_hours":"Mo-Fr 07:30 - 18:00 | Sa 08:00 - 17:00","utc_offset":"-420","gplace_id":null,"gplace_url":"https://maps.google.com/?cid=10164531736848192476","dealerID":75024,"trusted":false,"image_id":"v1597283937/mazda.png","phone":"5036529110","cityStateSlug":"gladstone.or","slug":"Gladstone.OR/mazda+of+gladstone","location":"45.380241,-122.60491","brandsList":["mazda"]},{"id":6417,"crm_id":71554171,"name":"Herzog-Meier Mazda","dealerSlug":"herzog+meier+mazda","city_state_slug":"Beaverton.OR","brand":"Mazda","website":"www.beavertonmazda.com","address":"14105 SW Tualatin Valley Hwy","city":"Beaverton","state":"OR","zip":97005,"latitude":45.4898987,"longitude":-122.8223087,"phone_number_service":"5039941839","phone_number_main":"5036193300","service_hours":"Mo-Fr 07:00 - 18:00 | Sa 08:00 - 17:00","utc_offset":"-420","gplace_id":null,"gplace_url":"https://maps.google.com/?cid=5952286809446061882","dealerID":75025,"trusted":false,"image_id":"v1597283937/mazda.png","phone":"5039941839","cityStateSlug":"beaverton.or","slug":"Beaverton.OR/herzog+meier+mazda","location":"45.4898987,-122.8223087","brandsList":["mazda"]},{"id":14360,"crm_id":71554234,"name":"Tonkin Mazda of Portland","dealerSlug":"tonkin+mazda+of+portland","city_state_slug":"Portland.OR","brand":"Mazda","website":"www.rontonkinmazda.com","address":"750 SE 122nd Ave","city":"Portland","state":"OR","zip":97233,"latitude":45.5165889,"longitude":-122.5359005,"phone_number_service":"8558864562","phone_number_main":"5032572420","service_hours":"Mo-Fr 07:30 - 18:00 | Sa 07:30 - 17:00","utc_offset":"-420","gplace_id":null,"gplace_url":"https://maps.google.com/?cid=10398377491803270588","dealerID":75026,"trusted":false,"image_id":"v1597283937/mazda.png","phone":"8558864562","cityStateSlug":"portland.or","slug":"Portland.OR/tonkin+mazda+of+portland","location":"45.5165889,-122.5359005","brandsList":["mazda"]},{"id":2367,"crm_id":78072688,"name":"Butler Hyundai","dealerSlug":"butler+hyundai","city_state_slug":"Medford.OR","brand":"Hyundai","website":"butlerhyundai.com","address":"5000 Crater Lake Ave","city":"Medford","state":"OR","zip":97504,"latitude":42.3897007,"longitude":-122.8549385,"phone_number_service":"5412504159","phone_number_main":"5412455335","service_hours":"Mo-Sa 07:30 - 17:30","utc_offset":"-420","gplace_id":null,"gplace_url":"https://maps.google.com/?cid=1115783073627201491","dealerID":75192,"trusted":false,"image_id":"v1597283959/hyundai_RM.png","phone":"5412504159","cityStateSlug":"medford.or","slug":"Medford.OR/butler+hyundai","location":"42.3897007,-122.8549385","brandsList":["hyundai"]},{"id":4006,"crm_id":84156633,"name":"Dick Hannah Hyundai of Portland","dealerSlug":"dick+hannah+hyundai+of+portland","city_state_slug":"Portland.OR","brand":"Hyundai","website":"www.hyundaiofportland.com","address":"12345 E Burnside St","city":"Portland","state":"OR","zip":97233,"latitude":45.5230556,"longitude":-122.5363889,"phone_number_service":"5035637408","phone_number_main":"5036229614","service_hours":"Mo-Fr 08:00 - 17:00 | Sa 08:00 - 17:00","utc_offset":"-420","gplace_id":null,"gplace_url":"https://maps.google.com/?cid=1961405790408807948","dealerID":75308,"trusted":false,"image_id":"v1597283959/hyundai_RM.png","phone":"5035637408","cityStateSlug":"portland.or","slug":"Portland.OR/dick+hannah+hyundai+of+portland","location":"45.5230556,-122.5363889","brandsList":["hyundai"]},{"id":7817,"crm_id":84191965,"name":"Kendall Ford of Eugene","dealerSlug":"kendall+ford+of+eugene","city_state_slug":"Eugene.OR","brand":"Ford","website":"www.kendallford.com","address":"344 Goodpasture Island Rd","city":"Eugene","state":"OR","zip":97401,"latitude":44.0732612,"longitude":-123.1068664,"phone_number_service":"8884611067","phone_number_main":"8559815490","service_hours":"Mo-Fr 07:00 - 18:00","utc_offset":"-420","gplace_id":null,"gplace_url":"https://maps.google.com/?cid=2304404508010292747","dealerID":75309,"trusted":false,"image_id":"v1597283967/ford_RM.png","phone":"8884611067","cityStateSlug":"eugene.or","slug":"Eugene.OR/kendall+ford+of+eugene","location":"44.0732612,-123.1068664","brandsList":["ford"]},{"id":15553,"crm_id":84192501,"name":"Wilson Motors","dealerSlug":"wilson+motors","city_state_slug":"Corvallis.OR","brand":"Ford","website":"www.wilsonmotorsonline.net","address":"1105 NW 5th St","city":"Corvallis","state":"OR","zip":97330,"latitude":44.5748477,"longitude":-123.2581414,"phone_number_service":"8886419279","phone_number_main":"5417524201","service_hours":"Mo-Fr 07:00 - 18:00 | Sa 08:00 - 12:00","utc_offset":"-420","gplace_id":null,"gplace_url":"https://maps.google.com/?cid=16681114099331557327","dealerID":75310,"trusted":false,"image_id":"v1597283967/ford_RM.png","phone":"8886419279","cityStateSlug":"corvallis.or","slug":"Corvallis.OR/wilson+motors","location":"44.5748477,-123.2581414","brandsList":["ford"]},{"id":6477,"crm_id":84193229,"name":"Hillyer's Stayton Ford","dealerSlug":"hillyers+stayton+ford","city_state_slug":"Aumsville.OR","brand":"Ford","website":"www.hillyerstaytonford.com","address":"11361 Mill Creek Rd SE","city":"Aumsville","state":"OR","zip":97325,"latitude":44.83151,"longitude":-122.8277341,"phone_number_service":"8772348878","phone_number_main":"5037694747","service_hours":"Mo-Fr 08:00 - 18:00","utc_offset":"-420","gplace_id":null,"gplace_url":"https://maps.google.com/?cid=8332181067816943133","dealerID":75311,"trusted":false,"image_id":"v1597283967/ford_RM.png","phone":"8772348878","cityStateSlug":"aumsville.or","slug":"Aumsville.OR/hillyers+stayton+ford","location":"44.83151,-122.8277341","brandsList":["ford"]},{"id":7829,"crm_id":87208228,"name":"Kendall Toyota of Bend","dealerSlug":"kendall+toyota+of+bend","city_state_slug":"Bend.OR","brand":"Toyota","website":"www.toyotaofbend.com","address":"61430 S Hwy 97","city":"Bend","state":"OR","zip":97702,"latitude":44.0308723,"longitude":-121.3086242,"phone_number_service":"5413824040","phone_number_main":"5416337134","service_hours":"Mo-Fr 07:30-18:00","utc_offset":"-420","gplace_id":null,"gplace_url":"https://maps.google.com/?cid=11867234658582932286","dealerID":75477,"trusted":false,"image_id":"v1597284039/toyota_ms.png","phone":"5413824040","cityStateSlug":"bend.or","slug":"Bend.OR/kendall+toyota+of+bend","location":"44.0308723,-121.3086242","brandsList":["toyota"]},{"id":12574,"crm_id":90083320,"name":"Ron Tonkin Toyota","dealerSlug":"ron+tonkin+toyota","city_state_slug":"Portland.OR","brand":"Toyota","website":"www.tonkintoyota.com","address":"750 SE 122nd Ave","city":"Portland","state":"OR","zip":97233,"latitude":45.5167728,"longitude":-122.5352948,"phone_number_service":"8553896092","phone_number_main":"5032550177","service_hours":"Mo-Fr 07:30 - 19:00 | Sa 07:30-17:00","utc_offset":"-420","gplace_id":null,"gplace_url":"https://maps.google.com/?cid=10290198290235405873","dealerID":75717,"trusted":false,"image_id":"v1597284039/toyota_ms.png","phone":"8553896092","cityStateSlug":"portland.or","slug":"Portland.OR/ron+tonkin+toyota","location":"45.5167728,-122.5352948","brandsList":["toyota"]},{"id":14359,"crm_id":90083404,"name":"Tonkin Gladstone Hyundai","dealerSlug":"tonkin+gladstone+hyundai","city_state_slug":"Gladstone.OR","brand":"Hyundai","website":"www.tonkingladstonehyundai.com","address":"19300 SE McLoughlin Blvd","city":"Gladstone","state":"OR","zip":97027,"latitude":45.3830971,"longitude":-122.6059155,"phone_number_service":"8776095266","phone_number_main":"5032585700","service_hours":"Mo-Fr 08:00 - 17:00","utc_offset":"-420","gplace_id":null,"gplace_url":"https://maps.google.com/?cid=13252392978317793388","dealerID":75718,"trusted":false,"image_id":"v1597283959/hyundai_RM.png","phone":"8776095266","cityStateSlug":"gladstone.or","slug":"Gladstone.OR/tonkin+gladstone+hyundai","location":"45.3830971,-122.6059155","brandsList":["hyundai"]},{"id":12572,"crm_id":90083443,"name":"Ron Tonkin Hyundai","dealerSlug":"ron+tonkin+hyundai","city_state_slug":"Gresham.OR","brand":"Hyundai","website":"www.rontonkinhyundai.com","address":"675 NE Burnside Rd","city":"Gresham","state":"OR","zip":97030,"latitude":45.5079842,"longitude":-122.4246909,"phone_number_service":"9712543485","phone_number_main":"5032585588","service_hours":"Mo-Fr 08:00 - 17:00","utc_offset":"-420","gplace_id":null,"gplace_url":"https://maps.google.com/?cid=16214461838983763083","dealerID":75719,"trusted":false,"image_id":"v1597283959/hyundai_RM.png","phone":"9712543485","cityStateSlug":"gresham.or","slug":"Gresham.OR/ron+tonkin+hyundai","location":"45.5079842,-122.4246909","brandsList":["hyundai"]},{"id":12571,"crm_id":90083584,"name":"Ron Tonkin Honda","dealerSlug":"ron+tonkin+honda","city_state_slug":"Portland.OR","brand":"Honda","website":"www.rontonkinhonda.com","address":"300 SE 122nd Ave","city":"Portland","state":"OR","zip":97233,"latitude":45.5204323,"longitude":-122.5363423,"phone_number_service":"5032558345","phone_number_main":"5032558345","service_hours":"Mo-Sa 08:00 - 17:00","utc_offset":"-420","gplace_id":null,"gplace_url":"https://maps.google.com/?cid=9021183224779841521","dealerID":75720,"trusted":false,"image_id":"v1597284047/honda_ms.png","phone":"5032558345","cityStateSlug":"portland.or","slug":"Portland.OR/ron+tonkin+honda","location":"45.5204323,-122.5363423","brandsList":["honda"]},{"id":14362,"crm_id":92671471,"name":"Tonkin Wilsonville Nissan","dealerSlug":"tonkin+wilsonville+nissan","city_state_slug":"Wilsonville.OR","brand":"Nissan","website":"www.tonkinwilsonvillenissan.com","address":"26700 SW 95th Ave #9206","city":"Wilsonville","state":"OR","zip":97070,"latitude":45.3267448,"longitude":-122.7711351,"phone_number_service":"5032222277","phone_number_main":"5032222277","service_hours":"Mo-Fr 07:00 - 19:00 | Sa 08:00 - 17:00","utc_offset":"-420","gplace_id":null,"gplace_url":"https://maps.google.com/?cid=17221976343906561277","dealerID":76148,"trusted":false,"image_id":"v1597283926/nissan_RM.png","phone":"5032222277","cityStateSlug":"wilsonville.or","slug":"Wilsonville.OR/tonkin+wilsonville+nissan","location":"45.3267448,-122.7711351","brandsList":["nissan"]},{"id":1793,"crm_id":96183289,"name":"BMW Portland","dealerSlug":"bmw+portland","city_state_slug":"Portland.OR","brand":"BMW","website":"www.bmwportland.com","address":"2001 SW Jefferson St","city":"Portland","state":"OR","zip":97201,"latitude":45.5191272,"longitude":-122.6955032,"phone_number_service":"8887738812","phone_number_main":"9713404590","service_hours":"Mo-Fr 07:00 - 18:00 | Sa 08:00 - 16:00","utc_offset":"-420","gplace_id":null,"gplace_url":"https://maps.google.com/?cid=14029590542470314731","dealerID":51188,"trusted":true,"image_id":"v1597283982/bmw_RM.png","phone":"8887738812","cityStateSlug":"portland.or","slug":"Portland.OR/bmw+portland","location":"45.5191272,-122.6955032","brandsList":["bmw"]},{"id":7814,"crm_id":111070552,"name":"Kendall BMW Of Bend","dealerSlug":"kendall+bmw+of+bend","city_state_slug":"Bend.OR","brand":"BMW","website":"www.kendallbmwofbend.com","address":"1000 Division St","city":"Bend","state":"OR","zip":97702,"latitude":44.0401066,"longitude":-121.3055136,"phone_number_service":"5413821711","phone_number_main":"8559828894","service_hours":"Mo-Fr 07:30 - 18:00","utc_offset":"-420","gplace_id":null,"gplace_url":"https://maps.google.com/?cid=3566591764180787526","dealerID":76783,"trusted":false,"image_id":"v1597283982/bmw_RM.png","phone":"5413821711","cityStateSlug":"bend.or","slug":"Bend.OR/kendall+bmw+of+bend","location":"44.0401066,-121.3055136","brandsList":["bmw"]},{"id":13982,"crm_id":113935012,"name":"Swickard Honda","dealerSlug":"swickard+honda","city_state_slug":"Gladstone.OR","brand":"Honda","website":"www.swickardhonda.com","address":"19400 SE McLoughlin Blvd","city":"Gladstone","state":"OR","zip":97027,"latitude":45.3809769,"longitude":-122.6040554,"phone_number_service":"5039465052","phone_number_main":"5038994197","service_hours":"Mo-Sa 7:00 - 18:00","utc_offset":"-420","gplace_id":null,"gplace_url":"https://maps.google.com/?cid=15833423914306499907","dealerID":51809,"trusted":true,"image_id":"v1597284047/honda_ms.png","phone":"5039465052","cityStateSlug":"gladstone.or","slug":"Gladstone.OR/swickard+honda","location":"45.3809769,-122.6040554","brandsList":["honda"]},{"id":13917,"crm_id":114886476,"name":"Sunwest Mazda","dealerSlug":"sunwest+mazda","city_state_slug":"Newport.OR","brand":"Mazda","website":"sunwestmazda.com","address":"1030 N Coast Hwy","city":"Newport","state":"OR","zip":97365,"latitude":44.6436893,"longitude":-124.0527386,"phone_number_service":"5412658547","phone_number_main":"5412658547","service_hours":"Mo-Fr 07:30 - 17:30","utc_offset":"-420","gplace_id":null,"gplace_url":"https://maps.google.com/?cid=13030815090966700674","dealerID":76931,"trusted":false,"image_id":"v1597283937/mazda.png","phone":"5412658547","cityStateSlug":"newport.or","slug":"Newport.OR/sunwest+mazda","location":"44.6436893,-124.0527386","brandsList":["mazda"]},{"id":1159,"crm_id":115352268,"name":"Beaverton Hyundai","dealerSlug":"beaverton+hyundai","city_state_slug":"Beaverton.OR","brand":"Hyundai","website":"www.beavertonhyundai.com","address":"13255 SW Farmington Rd","city":"Beaverton","state":"OR","zip":97005,"latitude":45.4877,"longitude":-122.8129,"phone_number_service":"5033081795","phone_number_main":"8778120866","service_hours":"Mo-Fr 07:00 - 18:00 | Sa 08:00 - 16:00","utc_offset":"-420","gplace_id":null,"gplace_url":"https://maps.google.com/?cid=7676332705704055080","dealerID":77008,"trusted":false,"image_id":"v1597283959/hyundai_RM.png","phone":"5033081795","cityStateSlug":"beaverton.or","slug":"Beaverton.OR/beaverton+hyundai","location":"45.4877,-122.8129","brandsList":["hyundai"]},{"id":4026,"crm_id":115356519,"name":"Dick's Hillsboro Hyundai","dealerSlug":"dicks+hillsboro+hyundai","city_state_slug":"Hillsboro.OR","brand":"Hyundai","website":"www.dickshillsborohyundai.com","address":"2871 SE Tualatin Valley Hwy","city":"Hillsboro","state":"OR","zip":97123,"latitude":45.5042432,"longitude":-122.9522471,"phone_number_service":"8668438515","phone_number_main":"5036087456","service_hours":"Mo-Fr 07:30 - 18:00 | Sa 08:00 - 16:00","utc_offset":"-420","gplace_id":null,"gplace_url":"https://maps.google.com/?cid=14052556185632650007","dealerID":77011,"trusted":false,"image_id":"v1597283959/hyundai_RM.png","phone":"8668438515","cityStateSlug":"hillsboro.or","slug":"Hillsboro.OR/dicks+hillsboro+hyundai","location":"45.5042432,-122.9522471","brandsList":["hyundai"]},{"id":6808,"crm_id":115356882,"name":"Hyundai of Albany","dealerSlug":"hyundai+of+albany","city_state_slug":"Albany.OR","brand":"Hyundai","website":"www.hyundaiofalbany.com","address":"2425 Santiam Hwy SE","city":"Albany","state":"OR","zip":97322,"latitude":44.6331553,"longitude":-123.0758971,"phone_number_service":"5419679105","phone_number_main":"5419679105","service_hours":"Mo-Fr 08:00 - 17:00","utc_offset":"-420","gplace_id":null,"gplace_url":"https://maps.google.com/?cid=9670914204947854851","dealerID":77012,"trusted":false,"image_id":"v1597283959/hyundai_RM.png","phone":"5419679105","cityStateSlug":"albany.or","slug":"Albany.OR/hyundai+of+albany","location":"44.6331553,-123.0758971","brandsList":["hyundai"]},{"id":13148,"crm_id":115357169,"name":"Sheppard Hyundai","dealerSlug":"sheppard+hyundai","city_state_slug":"Eugene.OR","brand":"Hyundai","website":"www.sheppardhyundai.com","address":"2300 W 7th Ave","city":"Eugene","state":"OR","zip":97402,"latitude":44.0528031,"longitude":-123.1283,"phone_number_service":"5417628846","phone_number_main":"5413438811","service_hours":"Mo-Fr 07:30 - 17:30","utc_offset":"-420","gplace_id":null,"gplace_url":"https://maps.google.com/?cid=11193683958119112508","dealerID":77013,"trusted":false,"image_id":"v1597283959/hyundai_RM.png","phone":"5417628846","cityStateSlug":"eugene.or","slug":"Eugene.OR/sheppard+hyundai","location":"44.0528031,-123.1283","brandsList":["hyundai"]},{"id":14090,"crm_id":115357701,"name":"Team Hyundai of Bend","dealerSlug":"team+hyundai+of+bend","city_state_slug":"Bend.OR","brand":"Hyundai","website":"www.goteamhyundai.com","address":"2250 NE Hwy 20","city":"Bend","state":"OR","zip":97701,"latitude":44.055534,"longitude":-121.2695539,"phone_number_service":"5413594493","phone_number_main":"5417494025","service_hours":"Mo-Fr 07:30 - 18:00 | Sa 08:00 - 16:00","utc_offset":"-420","gplace_id":null,"gplace_url":"https://maps.google.com/?cid=2718821728875151900","dealerID":77014,"trusted":false,"image_id":"v1597283959/hyundai_RM.png","phone":"5413594493","cityStateSlug":"bend.or","slug":"Bend.OR/team+hyundai+of+bend","location":"44.055534,-121.2695539","brandsList":["hyundai"]},{"id":15589,"crm_id":115357726,"name":"Withnell Hyundai","dealerSlug":"withnell+hyundai","city_state_slug":"Salem.OR","brand":"Hyundai","website":"www.withnellhyundai.net","address":"1996 Mission St SE","city":"Salem","state":"OR","zip":97302,"latitude":44.9263389,"longitude":-123.0208444,"phone_number_service":"8886388777","phone_number_main":"8886705792","service_hours":"Mo-Fr 07:30 - 17:30","utc_offset":"-420","gplace_id":null,"gplace_url":"https://maps.google.com/?cid=9026547988314701366","dealerID":77015,"trusted":false,"image_id":"v1597283959/hyundai_RM.png","phone":"8886388777","cityStateSlug":"salem.or","slug":"Salem.OR/withnell+hyundai","location":"44.9263389,-123.0208444","brandsList":["hyundai"]},{"id":4009,"crm_id":115365974,"name":"Dick Hannah Volkswagen of Portland","dealerSlug":"dick+hannah+volkswagen+of+portland","city_state_slug":"Portland.OR","brand":"Volkswagen","website":"www.vwofportland.com","address":"12345 E Burnside St","city":"Portland","state":"OR","zip":97233,"latitude":45.52302,"longitude":-122.5363337,"phone_number_service":"5038629869","phone_number_main":"5036229507","service_hours":"Mo-Sa 8:00-17:00","utc_offset":"-420","gplace_id":null,"gplace_url":"https://maps.google.com/?cid=13790804396427742738","dealerID":77016,"trusted":false,"image_id":"v1597283902/volkswagen.png","phone":"5038629869","cityStateSlug":"portland.or","slug":"Portland.OR/dick+hannah+volkswagen+of+portland","location":"45.52302,-122.5363337","brandsList":["volkswagen"]},{"id":8891,"crm_id":115853538,"name":"Lithia Medford Volkswagen","dealerSlug":"lithia+medford+volkswagen","city_state_slug":"Medford.OR","brand":"Volkswagen","website":"www.lithiavwmedford.com","address":"4606 Grumman Dr","city":"Medford","state":"OR","zip":97504,"latitude":42.381494,"longitude":-122.8568036,"phone_number_service":"8669845962","phone_number_main":"5412272298","service_hours":"Mo-Fr 07:30 - 18:00 | Sa 07:30 - 18:00","utc_offset":"-420","gplace_id":null,"gplace_url":"https://maps.google.com/?cid=6106841237836676603","dealerID":77229,"trusted":false,"image_id":"v1597283902/volkswagen.png","phone":"8669845962","cityStateSlug":"medford.or","slug":"Medford.OR/lithia+medford+volkswagen","location":"42.381494,-122.8568036","brandsList":["volkswagen"]}]