[{"id":15899,"crm_id":999,"name":"Autogermana MINI","dealerSlug":"autogermana+mini","city_state_slug":"Hato-Rey.PR","brand":"MINI","website":"www.autogermanamini.com","address":"298 Avenue Chardon","city":"Hato Rey","state":"PR","zip":918,"latitude":18.423702,"longitude":-66.067332,"phone_number_service":"","phone_number_main":"","service_hours":"","utc_offset":"","gplace_id":0,"gplace_url":"","dealerID":61058,"trusted":false,"image_id":"v1597283930/mini_RM.png","phone":null,"cityStateSlug":"hato-rey.pr","slug":"Hato-Rey.PR/autogermana+mini","location":"18.423702,-66.067332","brandsList":["mini"]},{"id":16476,"crm_id":999,"name":"Garage Isla Verde","dealerSlug":"garage+isla+verde","city_state_slug":"Carolina.PR","brand":"Mercedes-Benz","website":"www.islaverde.mercedesdealer.com","address":"Ave Baldorioty De Castro","city":"Carolina","state":"PR","zip":979,"latitude":18.4353,"longitude":-66.0143,"phone_number_service":"7876201313","phone_number_main":"7876201313","service_hours":"","utc_offset":"","gplace_id":0,"gplace_url":"","dealerID":61711,"trusted":false,"image_id":"v1597283934/mercedes_RM.png","phone":"7876201313","cityStateSlug":"carolina.pr","slug":"Carolina.PR/garage+isla+verde","location":"18.4353,-66.0143","brandsList":["mercedes-benz"]},{"id":15886,"crm_id":999,"name":"Audi San Juan","dealerSlug":"audi+san+juan","city_state_slug":"San-Juan.PR","brand":"Audi","website":"www.sanjuanaudi.com","address":"Kennedy Ave. Km 3.8 Marginal J.F.","city":"San Juan","state":"PR","zip":920,"latitude":18.4219,"longitude":-66.0976,"phone_number_service":"","phone_number_main":"","service_hours":"Mo-Sa 09:00 - 17:00","utc_offset":"","gplace_id":0,"gplace_url":"","dealerID":61736,"trusted":false,"image_id":"v1597283985/audi_RM.png","phone":null,"cityStateSlug":"san-juan.pr","slug":"San-Juan.PR/audi+san+juan","location":"18.4219,-66.0976","brandsList":["audi"]}]