[{"id":16875,"crm_id":999,"name":"Langway Toyota of Newport","dealerSlug":"langway+toyota+of+newport","city_state_slug":"Middletown.RI","brand":"Toyota","website":"www.langwaytoyotaofnewport.com","address":"285 East Main Road","city":"Middletown","state":"RI","zip":2842,"latitude":41.519263,"longitude":-71.291446,"phone_number_service":"2696848200","phone_number_main":"","service_hours":"Mo-Th 07:30 - 19:30 | Fr 07:30 - 18:00 | Sa 07:30 - 17:00 | Su 11:00 - 16:00","utc_offset":"","gplace_id":0,"gplace_url":"","dealerID":60090,"trusted":false,"image_id":"v1597284039/toyota_ms.png","phone":"2696848200","cityStateSlug":"middletown.ri","slug":"Middletown.RI/langway+toyota+of+newport","location":"41.519263,-71.291446","brandsList":["toyota"]},{"id":16874,"crm_id":999,"name":"Langway Nissan Of Newport","dealerSlug":"langway+nissan+of+newport","city_state_slug":"Middletown.RI","brand":"Nissan","website":"www.langwaynissanofnewport.com","address":"295 EAST MAIN ROAD","city":"Middletown","state":"RI","zip":2842,"latitude":41.5186553,"longitude":-71.2910189,"phone_number_service":"4016195050","phone_number_main":"","service_hours":"Mo-Fr 10:00 - 17:00\n | Sa 10:00 - 16:30\n | Su Closed","utc_offset":"","gplace_id":0,"gplace_url":"","dealerID":61054,"trusted":false,"image_id":"v1597283926/nissan_RM.png","phone":"4016195050","cityStateSlug":"middletown.ri","slug":"Middletown.RI/langway+nissan+of+newport","location":"41.5186553,-71.2910189","brandsList":["nissan"]},{"id":17222,"crm_id":999,"name":"Ocean Chrysler Dodge Jeep RAM","dealerSlug":"ocean+chrysler+dodge+jeep+ram","city_state_slug":"Westerly.RI","brand":"Chrysler,Dodge,Jeep,RAM","website":"www.oceanwesterly.com","address":"9 Post Rd","city":"Westerly","state":"RI","zip":2891,"latitude":41.356283,"longitude":-71.806622,"phone_number_service":"4015962077","phone_number_main":"","service_hours":"Mo-Sa 09:00 - 18:00 | Su Closed","utc_offset":"","gplace_id":0,"gplace_url":"","dealerID":61656,"trusted":false,"image_id":"v1597283975/chrysler_RM.png","phone":"4015962077","cityStateSlug":"westerly.ri","slug":"Westerly.RI/ocean+chrysler+dodge+jeep+ram","location":"41.356283,-71.806622","brandsList":["chrysler","dodge","jeep","ram"]},{"id":1011,"crm_id":61603843,"name":"Balise Toyota of Warwick","dealerSlug":"balise+toyota+of+warwick","city_state_slug":"Warwick.RI","brand":"Toyota","website":"www.balisetoyotaofwarwick.com","address":"1400 Post Rd","city":"Warwick","state":"RI","zip":2888,"latitude":41.7420823,"longitude":-71.4294422,"phone_number_service":"4012058295","phone_number_main":"4013525911","service_hours":"Mo-Fr 07:00 - 19:00 | Sa 07:30 - 18:00","utc_offset":"-240","gplace_id":null,"gplace_url":"https://maps.google.com/?cid=7258363915828809498","dealerID":50870,"trusted":true,"image_id":"v1597284039/toyota_ms.png","phone":"4012058295","cityStateSlug":"warwick.ri","slug":"Warwick.RI/balise+toyota+of+warwick","location":"41.7420823,-71.4294422","brandsList":["toyota"]},{"id":5873,"crm_id":66709156,"name":"Grieco Toyota","dealerSlug":"grieco+toyota","city_state_slug":"East-Providence.RI","brand":"Toyota","website":"www.griecotoyota.com","address":"415 Taunton Ave","city":"East Providence","state":"RI","zip":2914,"latitude":41.820686,"longitude":-71.362866,"phone_number_service":"8558238231","phone_number_main":"4012274004","service_hours":"Mo-Th 07:30 - 19:00 | Fr 07:30 - 18:00 | Sa 07:30 - 17:00","utc_offset":"-240","gplace_id":null,"gplace_url":"https://maps.google.com/?cid=9840590034296724967","dealerID":62709,"trusted":false,"image_id":"v1597284039/toyota_ms.png","phone":"8558238231","cityStateSlug":"east-providence.ri","slug":"East-Providence.RI/grieco+toyota","location":"41.820686,-71.362866","brandsList":["toyota"]},{"id":5871,"crm_id":66709252,"name":"Grieco Honda","dealerSlug":"grieco+honda","city_state_slug":"Johnston.RI","brand":"Honda","website":"www.griecohonda.com","address":"1880 Hartford Ave","city":"Johnston","state":"RI","zip":2919,"latitude":41.8271411,"longitude":-71.5144236,"phone_number_service":"8884593797","phone_number_main":"8884593797","service_hours":"Mo-Fr 07:30 - 17:30 | Sa 07:30 - 16:00","utc_offset":"-240","gplace_id":null,"gplace_url":"https://maps.google.com/?cid=10892723784363980487","dealerID":62710,"trusted":false,"image_id":"v1597284047/honda_ms.png","phone":"8884593797","cityStateSlug":"johnston.ri","slug":"Johnston.RI/grieco+honda","location":"41.8271411,-71.5144236","brandsList":["honda"]},{"id":12983,"crm_id":67035070,"name":"Scott Volkswagen","dealerSlug":"scott+volkswagen","city_state_slug":"East-Providence.RI","brand":"Volkswagen","website":"www.scottvw.com","address":"777 Taunton Ave","city":"East Providence","state":"RI","zip":2914,"latitude":41.8219645,"longitude":-71.3519361,"phone_number_service":"8556121235","phone_number_main":"4014385555","service_hours":"Mo-Fr  08:00 - 17:00 | Sa 08:00 - 13:00 | Sun 09:00 - 18:00","utc_offset":"-240","gplace_id":null,"gplace_url":"https://maps.google.com/?cid=3412541066376244652","dealerID":63603,"trusted":false,"image_id":"v1597283902/volkswagen.png","phone":"8556121235","cityStateSlug":"east-providence.ri","slug":"East-Providence.RI/scott+volkswagen","location":"41.8219645,-71.3519361","brandsList":["volkswagen"]},{"id":13459,"crm_id":67035493,"name":"Speedcraft Acura","dealerSlug":"speedcraft+acura","city_state_slug":"West-Warwick.RI","brand":"Acura","website":"www.speedcraftacura.com","address":"883 Quaker Ln","city":"West Warwick","state":"RI","zip":2893,"latitude":41.6728592,"longitude":-71.500597,"phone_number_service":"4018242363","phone_number_main":"4013043100","service_hours":"Mo-Fr 08:00 - 17:30 | Sa 08:00 - 12:00","utc_offset":"-240","gplace_id":null,"gplace_url":"https://maps.google.com/?cid=13797241335464141223","dealerID":63723,"trusted":false,"image_id":"v1597283988/acura.png","phone":"4018242363","cityStateSlug":"west-warwick.ri","slug":"West-Warwick.RI/speedcraft+acura","location":"41.6728592,-71.500597","brandsList":["acura"]},{"id":300,"crm_id":67035835,"name":"Anchor Nissan","dealerSlug":"anchor+nissan","city_state_slug":"North-Smithfield.RI","brand":"Nissan","website":"www.anchor-nissan.com","address":"1041 Eddie Dowling Hwy","city":"North Smithfield","state":"RI","zip":2896,"latitude":41.9605613,"longitude":-71.4945578,"phone_number_service":"4017675000","phone_number_main":"4017675000","service_hours":"Mo-Fr 08:00 - 18:00 | Sa 08:00 - 16:00","utc_offset":"-240","gplace_id":null,"gplace_url":"https://maps.google.com/?cid=982776783406656448","dealerID":63818,"trusted":false,"image_id":"v1597283926/nissan_RM.png","phone":"4017675000","cityStateSlug":"north-smithfield.ri","slug":"North-Smithfield.RI/anchor+nissan","location":"41.9605613,-71.4945578","brandsList":["nissan"]},{"id":12758,"crm_id":67036249,"name":"Saccucci Honda","dealerSlug":"saccucci+honda","city_state_slug":"Middletown.RI","brand":"Honda","website":"www.saccuccihonda.com","address":"1350 W Main Rd","city":"Middletown","state":"RI","zip":2842,"latitude":41.5359278,"longitude":-71.2931389,"phone_number_service":"8667472619","phone_number_main":"4018474737","service_hours":"Mo-Fr  08:00 - 17:00 | Sa 09:00 - 15:00","utc_offset":"-240","gplace_id":null,"gplace_url":"https://maps.google.com/?cid=10475593256994137904","dealerID":63926,"trusted":false,"image_id":"v1597284047/honda_ms.png","phone":"8667472619","cityStateSlug":"middletown.ri","slug":"Middletown.RI/saccucci+honda","location":"41.5359278,-71.2931389","brandsList":["honda"]},{"id":8758,"crm_id":67039003,"name":"Lexus of Warwick","dealerSlug":"lexus+of+warwick","city_state_slug":"Warwick.RI","brand":"Lexus","website":"www.lexusofwarwick.com","address":"1095 Centerville Rd","city":"Warwick","state":"RI","zip":2886,"latitude":41.6972198,"longitude":-71.500285,"phone_number_service":"8883182119","phone_number_main":"4012294433","service_hours":"Mo-Fr 07:30 - 17:00 | Sa 08:00 - 16:00","utc_offset":"-240","gplace_id":null,"gplace_url":"https://maps.google.com/?cid=17577415228052256022","dealerID":64694,"trusted":false,"image_id":"v1597284042/lexus_ms.png","phone":"8883182119","cityStateSlug":"warwick.ri","slug":"Warwick.RI/lexus+of+warwick","location":"41.6972198,-71.500285","brandsList":["lexus"]},{"id":4913,"crm_id":67042465,"name":"Flood Ford of East Greenwich","dealerSlug":"flood+ford+of+east+greenwich","city_state_slug":"East-Greenwich.RI","brand":"Ford","website":"www.floodauto.net","address":"2545 S County Trail","city":"East Greenwich","state":"RI","zip":2818,"latitude":41.6296136,"longitude":-71.494588,"phone_number_service":"8558476029","phone_number_main":"4018844000","service_hours":"Mo-Fr 07:30 - 18:00 | Sa 07:30 - 16:30","utc_offset":"-240","gplace_id":null,"gplace_url":"https://maps.google.com/?cid=6969266719870238902","dealerID":65608,"trusted":false,"image_id":"v1597283967/ford_RM.png","phone":"8558476029","cityStateSlug":"east-greenwich.ri","slug":"East-Greenwich.RI/flood+ford+of+east+greenwich","location":"41.6296136,-71.494588","brandsList":["ford"]},{"id":1714,"crm_id":67042471,"name":"BMW Of Newport","dealerSlug":"bmw+of+newport","city_state_slug":"Middletown.RI","brand":"BMW","website":"www.bmwofnewport.com","address":"1215 W Main Rd","city":"Middletown","state":"RI","zip":2842,"latitude":41.53218,"longitude":-71.2928431,"phone_number_service":"8885837132","phone_number_main":"4012271303","service_hours":"Mo-Sa 07:30 - 17:00","utc_offset":"-240","gplace_id":null,"gplace_url":"https://maps.google.com/?cid=12542133585786464840","dealerID":51478,"trusted":true,"image_id":"v1597283982/bmw_RM.png","phone":"8885837132","cityStateSlug":"middletown.ri","slug":"Middletown.RI/bmw+of+newport","location":"41.53218,-71.2928431","brandsList":["bmw"]},{"id":10660,"crm_id":67042480,"name":"Newport Chrysler Dodge Jeep RAM","dealerSlug":"newport+chrysler+dodge+jeep+ram","city_state_slug":"Middletown.RI","brand":"Chrysler,Dodge,Jeep,RAM","website":"www.newportchryslerdodgejeep.com","address":"310 W Main Rd","city":"Middletown","state":"RI","zip":2842,"latitude":41.5141361,"longitude":-71.3017972,"phone_number_service":"4013674174","phone_number_main":"4018462323","service_hours":"Mo-Fr 08:00 - 16:00 | Sa 08:00 - 12:00","utc_offset":"-240","gplace_id":null,"gplace_url":"https://maps.google.com/?cid=5049772220989896690","dealerID":65613,"trusted":false,"image_id":"v1597283975/chrysler_RM.png","phone":"4013674174","cityStateSlug":"middletown.ri","slug":"Middletown.RI/newport+chrysler+dodge+jeep+ram","location":"41.5141361,-71.3017972","brandsList":["chrysler","dodge","jeep","ram"]},{"id":976,"crm_id":67042486,"name":"Bailey's Motor Sales","dealerSlug":"baileys+motor+sales","city_state_slug":"North-Kingstown.RI","brand":"Chrysler,Dodge,Jeep,RAM","website":"www.baileysmotor.net","address":"425 Ten Rod Rd","city":"North Kingstown","state":"RI","zip":2852,"latitude":41.5711958,"longitude":-71.4778929,"phone_number_service":"4013722083","phone_number_main":"4012958855","service_hours":"Mo-Fr 07:30 - 17:00 | Sa 07:30 - 15:00","utc_offset":"-240","gplace_id":null,"gplace_url":"https://maps.google.com/?cid=9357345966700360687","dealerID":65615,"trusted":false,"image_id":"v1597283975/chrysler_RM.png","phone":"4013722083","cityStateSlug":"north-kingstown.ri","slug":"North-Kingstown.RI/baileys+motor+sales","location":"41.5711958,-71.4778929","brandsList":["chrysler","dodge","jeep","ram"]},{"id":13590,"crm_id":67042492,"name":"Steingold Volvo Cars","dealerSlug":"steingold+volvo+cars","city_state_slug":"Pawtucket.RI","brand":"Volvo","website":"www.steingold.com","address":"766 Broadway","city":"Pawtucket","state":"RI","zip":2861,"latitude":41.8937422,"longitude":-71.3719538,"phone_number_service":"4013127632","phone_number_main":"4017234700","service_hours":"Mo-Fr  08:00 - 17:00","utc_offset":"-240","gplace_id":null,"gplace_url":"https://maps.google.com/?cid=10810822981768158057","dealerID":65617,"trusted":false,"image_id":"v1597283901/volvo.jpg","phone":"4013127632","cityStateSlug":"pawtucket.ri","slug":"Pawtucket.RI/steingold+volvo+cars","location":"41.8937422,-71.3719538","brandsList":["volvo"]},{"id":14988,"crm_id":67042501,"name":"Viti+Mercedes+Benz","dealerSlug":"viti+mercedes+benz","city_state_slug":"Tiverton.RI","brand":"Mercedes-Benz","website":"www.vitimb.com","address":"975 Fish Rd","city":"Tiverton","state":"RI","zip":2878,"latitude":41.6427938,"longitude":-71.1882962,"phone_number_service":"8779927353","phone_number_main":"8669806224","service_hours":"Mo-Fr 07:00 - 17:30 | Sa 09:00 - 15:00","utc_offset":"-240","gplace_id":null,"gplace_url":"https://maps.google.com/?cid=3531773598393558274","dealerID":65620,"trusted":false,"image_id":"v1597283934/mercedes_RM.png","phone":"8779927353","cityStateSlug":"tiverton.ri","slug":"Tiverton.RI/viti+mercedes+benz","location":"41.6427938,-71.1882962","brandsList":["mercedes-benz"]},{"id":13461,"crm_id":67042507,"name":"Speedcraft Volkswagen","dealerSlug":"speedcraft+volkswagen","city_state_slug":"Wakefield.RI","brand":"Volkswagen","website":"www.speedcraftvw.com","address":"104 Old Tower Hill Rd","city":"Wakefield","state":"RI","zip":2879,"latitude":41.4424593,"longitude":-71.4846514,"phone_number_service":"4017833305","phone_number_main":"4017923300","service_hours":"Mo-Fr 07:30 - 17:00","utc_offset":"-240","gplace_id":null,"gplace_url":"https://maps.google.com/?cid=506108184079606604","dealerID":65622,"trusted":false,"image_id":"v1597283902/volkswagen.png","phone":"4017833305","cityStateSlug":"wakefield.ri","slug":"Wakefield.RI/speedcraft+volkswagen","location":"41.4424593,-71.4846514","brandsList":["volkswagen"]},{"id":4915,"crm_id":67042513,"name":"Flood Mazda","dealerSlug":"flood+mazda","city_state_slug":"Wakefield.RI","brand":"Mazda","website":"www.floodmazda.com","address":"220 Old Tower Hill Rd","city":"Wakefield","state":"RI","zip":2879,"latitude":41.4438856,"longitude":-71.4809469,"phone_number_service":"4015933588","phone_number_main":"4012844700","service_hours":"Mo-Fr 07:30 - 18:00 | Sa 07:30 - 16:00","utc_offset":"-240","gplace_id":null,"gplace_url":"https://maps.google.com/?cid=13842058323489138267","dealerID":65624,"trusted":false,"image_id":"v1597283937/mazda.png","phone":"4015933588","cityStateSlug":"wakefield.ri","slug":"Wakefield.RI/flood+mazda","location":"41.4438856,-71.4809469","brandsList":["mazda"]},{"id":11298,"crm_id":67042522,"name":"Paul Masse Chevrolet South","dealerSlug":"paul+masse+chevrolet+south","city_state_slug":"Wakefield.RI","brand":"Chevrolet","website":"www.paulmassewakefield.com","address":"399 Main St","city":"Wakefield","state":"RI","zip":2879,"latitude":41.4374716,"longitude":-71.5010498,"phone_number_service":"4015153734","phone_number_main":"4015154904","service_hours":"Mo-Fr 08:00 - 19:00 | Sa 08:00 - 14:00","utc_offset":"-240","gplace_id":null,"gplace_url":"https://maps.google.com/?cid=7249048660655639168","dealerID":65625,"trusted":false,"image_id":"v1597284079/chevy_ms.png","phone":"4015153734","cityStateSlug":"wakefield.ri","slug":"Wakefield.RI/paul+masse+chevrolet+south","location":"41.4374716,-71.5010498","brandsList":["chevrolet"]},{"id":4914,"crm_id":67042528,"name":"Flood Ford of Narragansett","dealerSlug":"flood+ford+of+narragansett","city_state_slug":"Narragansett.RI","brand":"Ford","website":"www.floodford.net","address":"21 Woodruff Ave","city":"Narragansett","state":"RI","zip":2882,"latitude":41.431565,"longitude":-71.482521,"phone_number_service":"8445489511","phone_number_main":"4015152700","service_hours":"Mo-Fr 07:30 - 18:00 | Sa 07:30 - 16:30","utc_offset":"-240","gplace_id":null,"gplace_url":"https://maps.google.com/?cid=12093476508403293277","dealerID":65627,"trusted":false,"image_id":"v1597283967/ford_RM.png","phone":"8445489511","cityStateSlug":"narragansett.ri","slug":"Narragansett.RI/flood+ford+of+narragansett","location":"41.431565,-71.482521","brandsList":["ford"]},{"id":989,"crm_id":67042534,"name":"Bald Hill Kia","dealerSlug":"bald+hill+kia","city_state_slug":"Warwick.RI","brand":"Kia","website":"www.baldhillkia.com","address":"1021 Bald Hill Rd","city":"Warwick","state":"RI","zip":2886,"latitude":41.7111272,"longitude":-71.4904905,"phone_number_service":"8778607175","phone_number_main":"8447071516","service_hours":"Mo-Fr 08:00 - 17:00 | Sa 08:00 - 14:00","utc_offset":"-240","gplace_id":null,"gplace_url":"https://maps.google.com/?cid=12795938748800359277","dealerID":65629,"trusted":false,"image_id":"v1597283948/kia_RM.png","phone":"8778607175","cityStateSlug":"warwick.ri","slug":"Warwick.RI/bald+hill+kia","location":"41.7111272,-71.4904905","brandsList":["kia"]},{"id":988,"crm_id":67042537,"name":"Bald Hill Dodge Chrysler Jeep RAM","dealerSlug":"bald+hill+dodge+chrysler+jeep+ram","city_state_slug":"Warwick.RI","brand":"Chrysler,Dodge,Jeep,RAM","website":"www.baldhilldodgechrysler.net","address":"1035 Bald Hill Rd","city":"Warwick","state":"RI","zip":2886,"latitude":41.710283,"longitude":-71.490994,"phone_number_service":"4012503324","phone_number_main":"8448474671","service_hours":"Mo-Fr 08:00 - 17:00 | Sa 08:00 - 12:00","utc_offset":"-240","gplace_id":null,"gplace_url":"https://maps.google.com/?cid=3553982036044726029","dealerID":50568,"trusted":true,"image_id":"v1597283975/chrysler_RM.png","phone":"4012503324","cityStateSlug":"warwick.ri","slug":"Warwick.RI/bald+hill+dodge+chrysler+jeep+ram","location":"41.710283,-71.490994","brandsList":["chrysler","dodge","jeep","ram"]},{"id":6955,"crm_id":67042543,"name":"Infiniti of Warwick","dealerSlug":"infiniti+of+warwick","city_state_slug":"Warwick.RI","brand":"INFINITI","website":"www.infinitiofwarwick.com","address":"1085 Centerville Rd","city":"Warwick","state":"RI","zip":2886,"latitude":41.6985011,"longitude":-71.5003383,"phone_number_service":"8773612409","phone_number_main":"4012505912","service_hours":"Mo-Fr 07:30 - 17:00","utc_offset":"-240","gplace_id":null,"gplace_url":"https://maps.google.com/?cid=1371993312465834904","dealerID":65632,"trusted":false,"image_id":"v1597283957/infiniti_RM.png","phone":"8773612409","cityStateSlug":"warwick.ri","slug":"Warwick.RI/infiniti+of+warwick","location":"41.6985011,-71.5003383","brandsList":["infiniti"]},{"id":7181,"crm_id":67042552,"name":"Jake Kaplan's Jaguar","dealerSlug":"jake+kaplans+jaguar","city_state_slug":"Warwick.RI","brand":"Jaguar","website":"www.jakekaplansjaguar.com","address":"1346 Bald Hill Rd","city":"Warwick","state":"RI","zip":2886,"latitude":41.702507,"longitude":-71.493903,"phone_number_service":"8554743447","phone_number_main":"4014612000","service_hours":"Mo-Fr 08:00 - 16:30","utc_offset":"-240","gplace_id":null,"gplace_url":"https://maps.google.com/?cid=2023225704577209928","dealerID":65635,"trusted":false,"image_id":"v1597283954/jaguar_RM.png","phone":"8554743447","cityStateSlug":"warwick.ri","slug":"Warwick.RI/jake+kaplans+jaguar","location":"41.702507,-71.493903","brandsList":["jaguar"]},{"id":8360,"crm_id":67042558,"name":"Land Rover Warwick","dealerSlug":"land+rover+warwick","city_state_slug":"Warwick.RI","brand":"Land Rover","website":"www.landroverwarwick.com","address":"1346 Bald Hill Rd","city":"Warwick","state":"RI","zip":2886,"latitude":41.7025916,"longitude":-71.4941522,"phone_number_service":"8554743447","phone_number_main":"4014612000","service_hours":"Mo-Fr 08:00 - 16:00","utc_offset":"-240","gplace_id":null,"gplace_url":"https://maps.google.com/?cid=13805497442422987089","dealerID":65637,"trusted":false,"image_id":"v1597283945/landrover_RM.png","phone":"8554743447","cityStateSlug":"warwick.ri","slug":"Warwick.RI/land+rover+warwick","location":"41.7025916,-71.4941522","brandsList":["land rover"]},{"id":6315,"crm_id":67042564,"name":"Herb Chambers Cadillac of Warwick","dealerSlug":"herb+chambers+cadillac+of+warwick","city_state_slug":"Warwick.RI","brand":"Cadillac","website":"www.herbchamberscadillacofwarwick.com","address":"1511 Bald Hill Rd Rte. 2","city":"Warwick","state":"RI","zip":2886,"latitude":41.699929,"longitude":-71.497201,"phone_number_service":"4014416375","phone_number_main":"4018215800","service_hours":"Mo-Fr 07:00 - 18:00 | Sa 07:00 - 16:00","utc_offset":"-240","gplace_id":null,"gplace_url":"https://maps.google.com/?cid=14788977166350177169","dealerID":65639,"trusted":false,"image_id":"v1597283980/cadillac.png","phone":"4014416375","cityStateSlug":"warwick.ri","slug":"Warwick.RI/herb+chambers+cadillac+of+warwick","location":"41.699929,-71.497201","brandsList":["cadillac"]},{"id":1780,"crm_id":67042570,"name":"BMW of Warwick","dealerSlug":"bmw+of+warwick","city_state_slug":"Warwick.RI","brand":"BMW","website":"www.bmwofwarwick.com","address":"1515 Bald Hill Rd","city":"Warwick","state":"RI","zip":2886,"latitude":41.6990325,"longitude":-71.4976487,"phone_number_service":"8773612363","phone_number_main":"4012989457","service_hours":"Mo-Fr 07:30 - 17:00 |Sa 08:00 - 16:00","utc_offset":"-240","gplace_id":null,"gplace_url":"https://maps.google.com/?cid=6254510630343369501","dealerID":51157,"trusted":true,"image_id":"v1597283982/bmw_RM.png","phone":"8773612363","cityStateSlug":"warwick.ri","slug":"Warwick.RI/bmw+of+warwick","location":"41.6990325,-71.4976487","brandsList":["bmw"]},{"id":673,"crm_id":67042579,"name":"Audi Warwick","dealerSlug":"audi+warwick","city_state_slug":"Warwick.RI","brand":"Audi","website":"www.audiwarwick.com","address":"1517 Bald Hill Rd D","city":"Warwick","state":"RI","zip":2886,"latitude":41.6985602,"longitude":-71.4990554,"phone_number_service":"8447836251","phone_number_main":"4012445436","service_hours":"Mo-Fr 07:30 - 17:00","utc_offset":"-240","gplace_id":null,"gplace_url":"https://maps.google.com/?cid=3989306477504607985","dealerID":65644,"trusted":false,"image_id":"v1597283985/audi_RM.png","phone":"8447836251","cityStateSlug":"warwick.ri","slug":"Warwick.RI/audi+warwick","location":"41.6985602,-71.4990554","brandsList":["audi"]},{"id":9868,"crm_id":67042585,"name":"Mercedes-Benz of Warwick","dealerSlug":"mercedes+benz+of+warwick","city_state_slug":"Warwick.RI","brand":"Mercedes-Benz","website":"www.mercedesbenzofwarwick.com","address":"1557 Bald Hill Rd","city":"Warwick","state":"RI","zip":2886,"latitude":41.6975598,"longitude":-71.4982979,"phone_number_service":"8776229538","phone_number_main":"4013542747","service_hours":"Mo-Fr 07:30 - 17:00 | Sa 08:00 - 16:00","utc_offset":"-240","gplace_id":null,"gplace_url":"https://maps.google.com/?cid=15753407781868290892","dealerID":65646,"trusted":false,"image_id":"v1597283934/mercedes_RM.png","phone":"8776229538","cityStateSlug":"warwick.ri","slug":"Warwick.RI/mercedes+benz+of+warwick","location":"41.6975598,-71.4982979","brandsList":["mercedes-benz"]},{"id":996,"crm_id":67042591,"name":"Balise Chevrolet of Warwick","dealerSlug":"balise+chevrolet+of+warwick","city_state_slug":"Warwick.RI","brand":"Chevrolet","website":"www.balisechevroletri.com","address":"1338 Post Rd","city":"Warwick","state":"RI","zip":2888,"latitude":41.7436607,"longitude":-71.4280093,"phone_number_service":"8775530957","phone_number_main":"8772146563","service_hours":"Mo-Fr 08:00 - 17:00 | Sa 08:00 - 14:30","utc_offset":"-240","gplace_id":null,"gplace_url":"https://maps.google.com/?cid=262065648496416605","dealerID":65648,"trusted":false,"image_id":"v1597284079/chevy_ms.png","phone":"8775530957","cityStateSlug":"warwick.ri","slug":"Warwick.RI/balise+chevrolet+of+warwick","location":"41.7436607,-71.4280093","brandsList":["chevrolet"]},{"id":14790,"crm_id":67042594,"name":"Valenti Toyota","dealerSlug":"valenti+toyota","city_state_slug":"Westerly.RI","brand":"Toyota","website":"www.valentitoyota.com","address":"6 Langworthy Rd","city":"Westerly","state":"RI","zip":2891,"latitude":41.35035,"longitude":-71.766873,"phone_number_service":"4013227200","phone_number_main":"4013227200","service_hours":"Mo-Fr  08:00 - 17:00 | Sa 08:00 - 16:00","utc_offset":"-240","gplace_id":null,"gplace_url":"https://maps.google.com/?cid=13847489468166884407","dealerID":65649,"trusted":false,"image_id":"v1597284039/toyota_ms.png","phone":"4013227200","cityStateSlug":"westerly.ri","slug":"Westerly.RI/valenti+toyota","location":"41.35035,-71.766873","brandsList":["toyota"]},{"id":14027,"crm_id":67042600,"name":"Tasca Chrysler Dodge Jeep RAM FIAT","dealerSlug":"tasca+chrysler+dodge+jeep+ram+fiat","city_state_slug":"Johnston.RI","brand":"Chrysler,Dodge,Jeep,RAM,Fiat","website":"www.tascacdjrf.com/","address":"1667 Hartford Ave","city":"Johnston","state":"RI","zip":2919,"latitude":41.8272407,"longitude":-71.512151,"phone_number_service":"4014003875","phone_number_main":"4015962077","service_hours":"Mo-Fr 07:30 - 16:00 | Sa 08:00-12:00","utc_offset":"-240","gplace_id":null,"gplace_url":"https://maps.google.com/?cid=9015242195934820763","dealerID":65651,"trusted":false,"image_id":"v1597283975/chrysler_RM.png","phone":"4014003875","cityStateSlug":"johnston.ri","slug":"Johnston.RI/tasca+chrysler+dodge+jeep+ram+fiat","location":"41.8272407,-71.512151","brandsList":["chrysler","dodge","jeep","ram","fiat"]},{"id":1000,"crm_id":67042609,"name":"Balise Honda of West Warwick","dealerSlug":"balise+honda+of+west+warwick","city_state_slug":"West-Warwick.RI","brand":"Honda","website":"www.balisehondawestwarwick.com","address":"509 Quaker Ln","city":"West Warwick","state":"RI","zip":2893,"latitude":41.6804816,"longitude":-71.5007179,"phone_number_service":"4012294086","phone_number_main":"4018222000","service_hours":"Mo-Fr 07:00 - 18:00 (Express open 8-5) | Sa 07:00 - 16:00 (Express open 8-3:30)","utc_offset":"-240","gplace_id":null,"gplace_url":"https://maps.google.com/?cid=1834550391713709558","dealerID":51134,"trusted":true,"image_id":"v1597284047/honda_ms.png","phone":"4012294086","cityStateSlug":"west-warwick.ri","slug":"West-Warwick.RI/balise+honda+of+west+warwick","location":"41.6804816,-71.5007179","brandsList":["honda"]},{"id":1012,"crm_id":67042615,"name":"Balise Volkswagen","dealerSlug":"balise+volkswagen","city_state_slug":"West-Warwick.RI","brand":"Volkswagen","website":"www.balisevolkswagenri.com","address":"525 Quaker Ln","city":"West Warwick","state":"RI","zip":2893,"latitude":41.679474,"longitude":-71.501234,"phone_number_service":"4012058387","phone_number_main":"4013525912","service_hours":"Mo-Fr 07:00 - 18:00 | Sa 07:00 - 16:00","utc_offset":"-240","gplace_id":null,"gplace_url":"https://maps.google.com/?cid=3823150857619385802","dealerID":65656,"trusted":false,"image_id":"v1597283902/volkswagen.png","phone":"4012058387","cityStateSlug":"west-warwick.ri","slug":"West-Warwick.RI/balise+volkswagen","location":"41.679474,-71.501234","brandsList":["volkswagen"]},{"id":13460,"crm_id":67042621,"name":"Speedcraft Nissan","dealerSlug":"speedcraft+nissan","city_state_slug":"West-Warwick.RI","brand":"Nissan","website":"www.speedcraftnissan.com","address":"885 Quaker Ln","city":"West Warwick","state":"RI","zip":2893,"latitude":41.6719713,"longitude":-71.5004879,"phone_number_service":"4018242233","phone_number_main":"4013043400","service_hours":"Mo-Fr  08:00 - 17:00 | Sa 08:00 - 12:00","utc_offset":"-240","gplace_id":null,"gplace_url":"https://maps.google.com/?cid=12920301173489873712","dealerID":65658,"trusted":false,"image_id":"v1597283926/nissan_RM.png","phone":"4018242233","cityStateSlug":"west-warwick.ri","slug":"West-Warwick.RI/speedcraft+nissan","location":"41.6719713,-71.5004879","brandsList":["nissan"]},{"id":14026,"crm_id":67042627,"name":"Tasca Chevrolet","dealerSlug":"tasca+chevrolet","city_state_slug":"Woonsocket.RI","brand":"Chevrolet","website":"tascachevy.com","address":"114 Fortin Dr","city":"Woonsocket","state":"RI","zip":2895,"latitude":41.9925798,"longitude":-71.485742,"phone_number_service":"8772196286","phone_number_main":"4017693000","service_hours":"Mo-Fr 07:00 - 16:00 | Sa 08:00 - 12:00","utc_offset":"-240","gplace_id":null,"gplace_url":"https://maps.google.com/?cid=10049458423508570979","dealerID":65660,"trusted":false,"image_id":"v1597284079/chevy_ms.png","phone":"8772196286","cityStateSlug":"woonsocket.ri","slug":"Woonsocket.RI/tasca+chevrolet","location":"41.9925798,-71.485742","brandsList":["chevrolet"]},{"id":14025,"crm_id":67042633,"name":"Tasca Buick GMC","dealerSlug":"tasca+buick+gmc","city_state_slug":"Woonsocket.RI","brand":"Buick,GMC","website":"tascabuickgmc.com","address":"55 Fortin Dr","city":"Woonsocket","state":"RI","zip":2895,"latitude":41.99216,"longitude":-71.4875471,"phone_number_service":"4012294021","phone_number_main":"4012294021","service_hours":"Mo-Fr 07:00 - 16:00 | Sa 08:00 - 12:00","utc_offset":"-240","gplace_id":null,"gplace_url":"https://maps.google.com/?cid=9243920932358332134","dealerID":65661,"trusted":false,"image_id":"v1597283981/buick_RM.png","phone":"4012294021","cityStateSlug":"woonsocket.ri","slug":"Woonsocket.RI/tasca+buick+gmc","location":"41.99216,-71.4875471","brandsList":["buick","gmc"]},{"id":11297,"crm_id":67042642,"name":"Paul Masse Chevrolet","dealerSlug":"paul+masse+chevrolet","city_state_slug":"East-Providence.RI","brand":"Chevrolet","website":"www.paulmasseeastprovidence.com","address":"1111 Taunton Ave Route 44","city":"East Providence","state":"RI","zip":2914,"latitude":41.8237262,"longitude":-71.3455257,"phone_number_service":"4014416393","phone_number_main":"4016801261","service_hours":"Mo-Fr 07:00 - 18:00 | Sa 08:00 - 14:00","utc_offset":"-240","gplace_id":null,"gplace_url":"https://maps.google.com/?cid=6971561528336162263","dealerID":65664,"trusted":false,"image_id":"v1597284079/chevy_ms.png","phone":"4014416393","cityStateSlug":"east-providence.ri","slug":"East-Providence.RI/paul+masse+chevrolet","location":"41.8237262,-71.3455257","brandsList":["chevrolet"]},{"id":4516,"crm_id":67042648,"name":"Elmwood Chrysler Dodge Jeep RAM","dealerSlug":"elmwood+chrysler+dodge+jeep+ram","city_state_slug":"E-Providence.RI","brand":"Chrysler,Dodge,Jeep,RAM","website":"www.elmwoodcdjr.com","address":"625 Taunton Ave.","city":"E Providence","state":"RI","zip":2914,"latitude":41.8216169,"longitude":-71.3543815,"phone_number_service":"4014004414","phone_number_main":"4014380400","service_hours":"Mo-Fr 07:30 - 18:00 | Sa 07:30 - 14:00","utc_offset":"-240","gplace_id":null,"gplace_url":"https://maps.google.com/?cid=8375369349843750248","dealerID":65666,"trusted":false,"image_id":"v1597283975/chrysler_RM.png","phone":"4014004414","cityStateSlug":"e-providence.ri","slug":"E-Providence.RI/elmwood+chrysler+dodge+jeep+ram","location":"41.8216169,-71.3543815","brandsList":["chrysler","dodge","jeep","ram"]},{"id":13577,"crm_id":67042657,"name":"Stateline Nissan","dealerSlug":"stateline+nissan","city_state_slug":"East-Providence.RI","brand":"Nissan","website":"www.statelinenissanauto.com","address":"845 Taunton Ave","city":"East Providence","state":"RI","zip":2914,"latitude":41.822619,"longitude":-71.348915,"phone_number_service":"8886572426","phone_number_main":"4014322000","service_hours":"Mo-Fr 07:30 - 18:00 | Sa 07:30 - 16:00","utc_offset":"-240","gplace_id":null,"gplace_url":"https://maps.google.com/?cid=18064611867835372909","dealerID":51742,"trusted":true,"image_id":"v1597283926/nissan_RM.png","phone":"8886572426","cityStateSlug":"east-providence.ri","slug":"East-Providence.RI/stateline+nissan","location":"41.822619,-71.348915","brandsList":["nissan"]},{"id":6785,"crm_id":67042669,"name":"Hurd Auto Mall","dealerSlug":"hurd+auto+mall","city_state_slug":"Johnston.RI","brand":"Buick,Chevrolet,GMC","website":"www.hurdautomall.com","address":"1705 Hartford Ave","city":"Johnston","state":"RI","zip":2919,"latitude":41.8288873,"longitude":-71.5123434,"phone_number_service":"4014416386","phone_number_main":"4017516000","service_hours":"Mo-Fr 07:30 - 17:00 | Sa 07:30 - 14:00","utc_offset":"-240","gplace_id":null,"gplace_url":"https://maps.google.com/?cid=1485842713277983614","dealerID":65671,"trusted":false,"image_id":"v1597283981/buick_RM.png","phone":"4014416386","cityStateSlug":"johnston.ri","slug":"Johnston.RI/hurd+auto+mall","location":"41.8288873,-71.5123434","brandsList":["buick","chevrolet","gmc"]},{"id":14031,"crm_id":67042675,"name":"Tasca Mazda Cranston","dealerSlug":"tasca+mazda+cranston","city_state_slug":"Cranston.RI","brand":"Mazda","website":"www.tascamazdari.com","address":"1300 Pontiac Ave","city":"Cranston","state":"RI","zip":2920,"latitude":41.7480371,"longitude":-71.4518471,"phone_number_service":"8667820294","phone_number_main":"8669503858","service_hours":"Mo-Fr 08:00 - 16:00 | Sa 08:00 - 12:00","utc_offset":"-240","gplace_id":null,"gplace_url":"https://maps.google.com/?cid=559613755932096433","dealerID":65673,"trusted":false,"image_id":"v1597283937/mazda.png","phone":"8667820294","cityStateSlug":"cranston.ri","slug":"Cranston.RI/tasca+mazda+cranston","location":"41.7480371,-71.4518471","brandsList":["mazda"]},{"id":14033,"crm_id":67042681,"name":"Tasca Volvo Cars","dealerSlug":"tasca+volvo+cars","city_state_slug":"Cranston.RI","brand":"Volvo","website":"www.tascavolvo.com/","address":"1300 Pontiac Ave","city":"Cranston","state":"RI","zip":2920,"latitude":41.748301,"longitude":-71.4516937,"phone_number_service":"8888047186","phone_number_main":"8007882114","service_hours":"Mo-Fr 07:00 - 18:00 | Sa 08:00 - 12:00","utc_offset":"-240","gplace_id":null,"gplace_url":"https://maps.google.com/?cid=5272065385321158824","dealerID":65675,"trusted":false,"image_id":"v1597283901/volvo.jpg","phone":"8888047186","cityStateSlug":"cranston.ri","slug":"Cranston.RI/tasca+volvo+cars","location":"41.748301,-71.4516937","brandsList":["volvo"]},{"id":14541,"crm_id":87445171,"name":"Toyota of Smithfield","dealerSlug":"toyota+of+smithfield","city_state_slug":"Smithfield.RI","brand":"Toyota","website":"www.toyotaofsmithfield.com","address":"550 George Washington Hwy","city":"Smithfield","state":"RI","zip":2917,"latitude":41.9357249,"longitude":-71.4911563,"phone_number_service":"4012058394","phone_number_main":"4017230972","service_hours":"Mo-Sa 08:00 - 17:00","utc_offset":"-240","gplace_id":null,"gplace_url":"https://maps.google.com/?cid=1338283653037170577","dealerID":50871,"trusted":true,"image_id":"v1597284039/toyota_ms.png","phone":"4012058394","cityStateSlug":"smithfield.ri","slug":"Smithfield.RI/toyota+of+smithfield","location":"41.9357249,-71.4911563","brandsList":["toyota"]},{"id":9177,"crm_id":94389406,"name":"Majestic Honda","dealerSlug":"majestic+honda","city_state_slug":"Lincoln.RI","brand":"Honda","website":"www.majestichonda.com","address":"1300 Eddie Dowling Hwy","city":"Lincoln","state":"RI","zip":2865,"latitude":41.9545985,"longitude":-71.4875907,"phone_number_service":"4017621800","phone_number_main":"4017621800","service_hours":"Mo-Fr 07:30 - 17:00 | Sa 08:00-15:00","utc_offset":"-240","gplace_id":null,"gplace_url":"https://maps.google.com/?cid=4485485467360854688","dealerID":51127,"trusted":true,"image_id":"v1597284047/honda_ms.png","phone":"4017621800","cityStateSlug":"lincoln.ri","slug":"Lincoln.RI/majestic+honda","location":"41.9545985,-71.4875907","brandsList":["honda"]},{"id":10184,"crm_id":99757753,"name":"MINI of Warwick","dealerSlug":"mini+of+warwick","city_state_slug":"Warwick.RI","brand":"MINI","website":"www.miniofwarwick.com","address":"1515A Bald Hill Rd","city":"Warwick","state":"RI","zip":2886,"latitude":41.6990325,"longitude":-71.4976487,"phone_number_service":"8773613426","phone_number_main":"4012294373","service_hours":"Mo-Fr 07:30 - 17:00","utc_offset":"-240","gplace_id":null,"gplace_url":"https://maps.google.com/?cid=897388282043973293","dealerID":76486,"trusted":false,"image_id":"v1597283930/mini_RM.png","phone":"8773613426","cityStateSlug":"warwick.ri","slug":"Warwick.RI/mini+of+warwick","location":"41.6990325,-71.4976487","brandsList":["mini"]},{"id":14022,"crm_id":100664854,"name":"Tarbox Hyundai","dealerSlug":"tarbox+hyundai","city_state_slug":"North-Kingstown.RI","brand":"Hyundai","website":"www.tarboxhyundai.com","address":"3665 Quaker Ln","city":"North Kingstown","state":"RI","zip":2852,"latitude":41.5987444,"longitude":-71.4975194,"phone_number_service":"4013075547","phone_number_main":"4018261500","service_hours":"Mo-Sa 07:30 - 18:00 | Su 07:30-16:00 Express Lube Only","utc_offset":"-240","gplace_id":null,"gplace_url":"https://maps.google.com/?cid=11315794380021195411","dealerID":51437,"trusted":true,"image_id":"v1597283959/hyundai_RM.png","phone":"4013075547","cityStateSlug":"north-kingstown.ri","slug":"North-Kingstown.RI/tarbox+hyundai","location":"41.5987444,-71.4975194","brandsList":["hyundai"]},{"id":5872,"crm_id":100665463,"name":"Grieco Hyundai of Johnston","dealerSlug":"grieco+hyundai+of+johnston","city_state_slug":"Johnston.RI","brand":"Hyundai","website":"www.griecohyundai.com","address":"1890 Hartford Ave","city":"Johnston","state":"RI","zip":2919,"latitude":41.8277366,"longitude":-71.5150429,"phone_number_service":"8338584887","phone_number_main":"4017232200","service_hours":"Mo-Fr 07:30 - 17:30 | Sa 07:30 - 16:00","utc_offset":"-240","gplace_id":null,"gplace_url":"https://maps.google.com/?cid=4933131311061113564","dealerID":76529,"trusted":false,"image_id":"v1597283959/hyundai_RM.png","phone":"8338584887","cityStateSlug":"johnston.ri","slug":"Johnston.RI/grieco+hyundai+of+johnston","location":"41.8277366,-71.5150429","brandsList":["hyundai"]},{"id":6838,"crm_id":100665928,"name":"Hyundai Of Newport","dealerSlug":"hyundai+of+newport","city_state_slug":"Middletown.RI","brand":"Hyundai","website":"hyundaiofnewport.com","address":"1133 W Main Rd","city":"Middletown","state":"RI","zip":2842,"latitude":41.530059,"longitude":-71.293802,"phone_number_service":"8885749349","phone_number_main":"4016193700","service_hours":"Mo-Fr 08:00 - 17:00 | Sa 08:00 - 12:00","utc_offset":"-240","gplace_id":null,"gplace_url":"https://maps.google.com/?cid=3978929684180718691","dealerID":76530,"trusted":false,"image_id":"v1597283959/hyundai_RM.png","phone":"8885749349","cityStateSlug":"middletown.ri","slug":"Middletown.RI/hyundai+of+newport","location":"41.530059,-71.293802","brandsList":["hyundai"]},{"id":1007,"crm_id":105821782,"name":"Balise Nissan of Warwick","dealerSlug":"balise+nissan+of+warwick","city_state_slug":"Warwick.RI","brand":"Nissan","website":"www.balisenissanri.com","address":"1350 Post Rd","city":"Warwick","state":"RI","zip":2888,"latitude":41.7428097,"longitude":-71.4287261,"phone_number_service":"4013240590","phone_number_main":"4013525908","service_hours":"Mo-Fr  08:00 - 17:00 | Sa 08:00 - 14:00","utc_offset":"-240","gplace_id":null,"gplace_url":"https://maps.google.com/?cid=15371224991497250167","dealerID":51411,"trusted":true,"image_id":"v1597283926/nissan_RM.png","phone":"4013240590","cityStateSlug":"warwick.ri","slug":"Warwick.RI/balise+nissan+of+warwick","location":"41.7428097,-71.4287261","brandsList":["nissan"]},{"id":14023,"crm_id":106058818,"name":"Tarbox Toyota","dealerSlug":"tarbox+toyota","city_state_slug":"North-Kingstown.RI","brand":"Toyota","website":"www.tarboxtoyota.com","address":"3671 Quaker Ln","city":"North Kingstown","state":"RI","zip":2852,"latitude":41.6009092,"longitude":-71.4972014,"phone_number_service":"4012989853","phone_number_main":"4012940400","service_hours":"Mo-Th 07:30 - 20:00 | Fr-Sa 07:30 - 18:00 |Su 07:30 - 16:00","utc_offset":"-240","gplace_id":null,"gplace_url":"https://maps.google.com/?cid=4279504139876344255","dealerID":51438,"trusted":true,"image_id":"v1597284039/toyota_ms.png","phone":"4012989853","cityStateSlug":"north-kingstown.ri","slug":"North-Kingstown.RI/tarbox+toyota","location":"41.6009092,-71.4972014","brandsList":["toyota"]},{"id":1009,"crm_id":115475362,"name":"Balise Subaru","dealerSlug":"balise+subaru","city_state_slug":"West-Warwick.RI","brand":"Subaru","website":"www.balisesubaru.com","address":"561 Quaker Ln","city":"West Warwick","state":"RI","zip":2893,"latitude":41.6768395,"longitude":-71.5007629,"phone_number_service":"8778810367","phone_number_main":"4013525909","service_hours":"Mo-Fr 07:00 - 18:00 | Sa 07:00 - 15:00","utc_offset":"-240","gplace_id":null,"gplace_url":"https://maps.google.com/?cid=11077533404875555334","dealerID":77061,"trusted":false,"image_id":"v1597283982/subaru_ms.png","phone":"8778810367","cityStateSlug":"west-warwick.ri","slug":"West-Warwick.RI/balise+subaru","location":"41.6768395,-71.5007629","brandsList":["subaru"]},{"id":1262,"crm_id":115489024,"name":"Bentley Providence","dealerSlug":"bentley+providence","city_state_slug":"Warwick.RI","brand":"Bentley","website":"www.providencebentley.com","address":"1517-A Bald Hill Rd","city":"Warwick","state":"RI","zip":2886,"latitude":41.6984151,"longitude":-71.4990583,"phone_number_service":"8773612380","phone_number_main":"4018242281","service_hours":"Mo-Fr 07:30 - 17:00","utc_offset":"-240","gplace_id":null,"gplace_url":"https://maps.google.com/?cid=7093209769242127530","dealerID":77062,"trusted":false,"image_id":"v1597283990/bentley.png","phone":"8773612380","cityStateSlug":"warwick.ri","slug":"Warwick.RI/bentley+providence","location":"41.6984151,-71.4990583","brandsList":["bentley"]},{"id":11755,"crm_id":115489152,"name":"Porsche Warwick","dealerSlug":"porsche+warwick","city_state_slug":"Warwick.RI","brand":"Porsche","website":"www.porschewarwick.com","address":"1517-A Bald Hill Rd","city":"Warwick","state":"RI","zip":2886,"latitude":41.6984151,"longitude":-71.4990583,"phone_number_service":"8773612382","phone_number_main":"4013547473","service_hours":"Mo-Fr 07:30 - 17:00","utc_offset":"-240","gplace_id":null,"gplace_url":"https://maps.google.com/?cid=12841338807492754999","dealerID":77063,"trusted":false,"image_id":"v1597283919/porsche.jpg","phone":"8773612382","cityStateSlug":"warwick.ri","slug":"Warwick.RI/porsche+warwick","location":"41.6984151,-71.4990583","brandsList":["porsche"]}]