[{"id":17498,"crm_id":999,"name":"Scott Peterson Motors","dealerSlug":"scott+peterson+motors","city_state_slug":"Belle-Fourche.SD","brand":"Ford,Chrysler,Dodge,Jeep,RAM,Fiat","website":"www.scottpetersonmotor.com","address":"30 5th Ave","city":"Belle Fourche","state":"SD","zip":57717,"latitude":44.67855,"longitude":-103.853714,"phone_number_service":"6058922643","phone_number_main":"","service_hours":"Mo-Fr 07:30 - 18:00 | Sa 07:30 - 17:00 | Su Closed","utc_offset":"","gplace_id":0,"gplace_url":"","dealerID":60043,"trusted":false,"image_id":"v1597283967/ford_RM.png","phone":"6058922643","cityStateSlug":"belle-fourche.sd","slug":"Belle-Fourche.SD/scott+peterson+motors","location":"44.67855,-103.853714","brandsList":["ford","chrysler","dodge","jeep","ram","fiat"]},{"id":17499,"crm_id":999,"name":"Scott Peterson Motors","dealerSlug":"scott+peterson+motors","city_state_slug":"Belle-Fourche.SD","brand":"Ford","website":"www.scottpetersonmotor.com","address":"30 5th Avenue","city":"Belle Fourche","state":"SD","zip":57717,"latitude":44.679197,"longitude":-103.85375,"phone_number_service":"6058922643","phone_number_main":"","service_hours":"Mo-Fr 07:30 - 18:00 | Sa 07:30 - 17:00 | Su Closed","utc_offset":"","gplace_id":0,"gplace_url":"","dealerID":60044,"trusted":false,"image_id":"v1597283967/ford_RM.png","phone":"6058922643","cityStateSlug":"belle-fourche.sd","slug":"Belle-Fourche.SD/scott+peterson+motors","location":"44.679197,-103.85375","brandsList":["ford"]},{"id":16484,"crm_id":999,"name":"Gateway Ford Lincoln","dealerSlug":"gateway+ford+lincoln","city_state_slug":"Pierre.SD","brand":"Ford,Lincoln","website":"www.gatewayfordofpierre.com","address":"518 East Sioux Avenue","city":"Pierre","state":"SD","zip":57501,"latitude":44.363325,"longitude":-100.34749,"phone_number_service":"6052247378","phone_number_main":"","service_hours":"Mo-Fr 08:00 - 18:00 | Sa 08:00 - 17:00 | Su Closed","utc_offset":"","gplace_id":0,"gplace_url":"","dealerID":60171,"trusted":false,"image_id":"v1597283967/ford_RM.png","phone":"6052247378","cityStateSlug":"pierre.sd","slug":"Pierre.SD/gateway+ford+lincoln","location":"44.363325,-100.34749","brandsList":["ford","lincoln"]},{"id":16537,"crm_id":999,"name":"Groton Ford","dealerSlug":"groton+ford","city_state_slug":"Groton.SD","brand":"Ford","website":"www.grotonford.net","address":"1320 N. Broadway","city":"Groton","state":"SD","zip":57445,"latitude":45.458881,"longitude":-98.103608,"phone_number_service":"6053972311","phone_number_main":"","service_hours":"Mo-Fr 08:00 - 17:30 | Sa 08:00 - 13:00 | Su Closed","utc_offset":"","gplace_id":0,"gplace_url":"","dealerID":60172,"trusted":false,"image_id":"v1597283967/ford_RM.png","phone":"6053972311","cityStateSlug":"groton.sd","slug":"Groton.SD/groton+ford","location":"45.458881,-98.103608","brandsList":["ford"]},{"id":17500,"crm_id":999,"name":"Scott Peterson Motors of Sturgis","dealerSlug":"scott+peterson+motors+of+sturgis","city_state_slug":"Sturgis.SD","brand":"Ford","website":"www.scottpetersonmotorsofsturgis.net","address":"1 Ford Place","city":"Sturgis","state":"SD","zip":57785,"latitude":44.390818,"longitude":-103.503974,"phone_number_service":"6053473662","phone_number_main":"","service_hours":"Mo-Fr 07:30 - 18:00 | Sa 07:30 - 17:00 | Su Closed","utc_offset":"","gplace_id":0,"gplace_url":"","dealerID":60386,"trusted":false,"image_id":"v1597283967/ford_RM.png","phone":"6053473662","cityStateSlug":"sturgis.sd","slug":"Sturgis.SD/scott+peterson+motors+of+sturgis","location":"44.390818,-103.503974","brandsList":["ford"]},{"id":17779,"crm_id":999,"name":"Vermillion Ford","dealerSlug":"vermillion+ford","city_state_slug":"Vermillion.SD","brand":"Ford","website":"www.vermillionford.biz","address":"101 W Cherry Street","city":"Vermillion","state":"SD","zip":57069,"latitude":42.786942,"longitude":-96.934324,"phone_number_service":"6056248624","phone_number_main":"","service_hours":"Mo-Fr 07:30 - 17:30 | Sa 07:30 - 15:00 | Su Closed","utc_offset":"","gplace_id":0,"gplace_url":"","dealerID":60418,"trusted":false,"image_id":"v1597283967/ford_RM.png","phone":"6056248624","cityStateSlug":"vermillion.sd","slug":"Vermillion.SD/vermillion+ford","location":"42.786942,-96.934324","brandsList":["ford"]},{"id":16865,"crm_id":999,"name":"Lamb Motor Co.","dealerSlug":"lamb+motor+co","city_state_slug":"Onida.SD","brand":"Ford","website":"www.lambmotorco.com","address":"109 Main Street","city":"Onida","state":"SD","zip":57564,"latitude":44.707585,"longitude":-100.066163,"phone_number_service":"8009522222","phone_number_main":"","service_hours":"Mo-Fr 08:00 - 18:00 | Sa 08:00 - 17:00 | Su Closed","utc_offset":"","gplace_id":0,"gplace_url":"","dealerID":60473,"trusted":false,"image_id":"v1597283967/ford_RM.png","phone":"8009522222","cityStateSlug":"onida.sd","slug":"Onida.SD/lamb+motor+co","location":"44.707585,-100.066163","brandsList":["ford"]},{"id":16695,"crm_id":999,"name":"Iverson Cdjr Huron","dealerSlug":"iverson+cdjr+huron","city_state_slug":"Huron.SD","brand":"Chrysler,Dodge,Jeep,RAM","website":"www.iversonhuron.com","address":"121 Dakota Ave S","city":"Huron","state":"SD","zip":57350,"latitude":44.364734,"longitude":-98.214288,"phone_number_service":"6053528686","phone_number_main":"","service_hours":"Mo-Fr 08:00 - 18:00 | Sa 08:00 - 17:00 | Su Closed","utc_offset":"","gplace_id":0,"gplace_url":"","dealerID":60553,"trusted":false,"image_id":"v1597283975/chrysler_RM.png","phone":"6053528686","cityStateSlug":"huron.sd","slug":"Huron.SD/iverson+cdjr+huron","location":"44.364734,-98.214288","brandsList":["chrysler","dodge","jeep","ram"]},{"id":16993,"crm_id":999,"name":"McCormick Motors","dealerSlug":"mccormick+motors","city_state_slug":"Salem.SD","brand":"Ford","website":"www.mccormickmotorsford.com","address":"140 N Nebraska","city":"Salem","state":"SD","zip":57058,"latitude":43.724723,"longitude":-97.38868,"phone_number_service":"6054252442","phone_number_main":"","service_hours":"Mo-Fr 08:00 - 18:00 | Sa 08:00 - 16:00 | Su Closed","utc_offset":"","gplace_id":0,"gplace_url":"","dealerID":60627,"trusted":false,"image_id":"v1597283967/ford_RM.png","phone":"6054252442","cityStateSlug":"salem.sd","slug":"Salem.SD/mccormick+motors","location":"43.724723,-97.38868","brandsList":["ford"]},{"id":16569,"crm_id":999,"name":"Harry K Ford Store","dealerSlug":"harry+k+ford+store","city_state_slug":"Winner.SD","brand":"Ford","website":"www.harrykford.com","address":"1489 West South Dakota Highway 18","city":"Winner","state":"SD","zip":57580,"latitude":43.379873,"longitude":-99.878656,"phone_number_service":"6058422505","phone_number_main":"","service_hours":"Mo-Fr 08:00 - 18:00 | Sa 08:00 - 17:00 | Su Closed","utc_offset":"","gplace_id":0,"gplace_url":"","dealerID":60653,"trusted":false,"image_id":"v1597283967/ford_RM.png","phone":"6058422505","cityStateSlug":"winner.sd","slug":"Winner.SD/harry+k+ford+store","location":"43.379873,-99.878656","brandsList":["ford"]},{"id":17865,"crm_id":999,"name":"Willrodt Motor Company","dealerSlug":"willrodt+motor+company","city_state_slug":"Chamberlain.SD","brand":"Chrysler,Dodge,Jeep","website":"www.willrodtmotor.net","address":"200 West King Street","city":"Chamberlain","state":"SD","zip":57325,"latitude":43.810162,"longitude":-99.332741,"phone_number_service":"6057345584","phone_number_main":"","service_hours":"Mo-Fr 09:00 - 17:00 | Sa-Su Closed","utc_offset":"","gplace_id":0,"gplace_url":"","dealerID":60816,"trusted":false,"image_id":"v1597283975/chrysler_RM.png","phone":"6057345584","cityStateSlug":"chamberlain.sd","slug":"Chamberlain.SD/willrodt+motor+company","location":"43.810162,-99.332741","brandsList":["chrysler","dodge","jeep"]},{"id":17006,"crm_id":999,"name":"McKie Ford","dealerSlug":"mckie+ford","city_state_slug":"Rapid-City.SD","brand":"Ford","website":"www.mckieford.net","address":"2010 East Mall Drive","city":"Rapid City","state":"SD","zip":57701,"latitude":44.102938,"longitude":-103.178975,"phone_number_service":"6053481400","phone_number_main":"","service_hours":"Mo-Fr 08:00 - 18:00 | Sa 08:00 - 17:00 | Su Closed","utc_offset":"","gplace_id":0,"gplace_url":"","dealerID":60828,"trusted":false,"image_id":"v1597283967/ford_RM.png","phone":"6053481400","cityStateSlug":"rapid-city.sd","slug":"Rapid-City.SD/mckie+ford","location":"44.102938,-103.178975","brandsList":["ford"]},{"id":17146,"crm_id":999,"name":"Murdo Ford","dealerSlug":"murdo+ford","city_state_slug":"Murdo.SD","brand":"Ford","website":"","address":"219 South Main Street","city":"Murdo","state":"SD","zip":57559,"latitude":43.888901,"longitude":-100.7134,"phone_number_service":"6056692391","phone_number_main":"","service_hours":"","utc_offset":"","gplace_id":0,"gplace_url":"","dealerID":60890,"trusted":false,"image_id":"v1597283967/ford_RM.png","phone":"6056692391","cityStateSlug":"murdo.sd","slug":"Murdo.SD/murdo+ford","location":"43.888901,-100.7134","brandsList":["ford"]},{"id":16512,"crm_id":999,"name":"Granite Nissan","dealerSlug":"granite+nissan","city_state_slug":"Rapid-City.SD","brand":"Nissan","website":"www.granitenissan.com","address":"2626 E MALL DRIVE","city":"Rapid City","state":"SD","zip":57701,"latitude":44.1028025,"longitude":-103.1735494,"phone_number_service":"6053423400","phone_number_main":"","service_hours":"Mo-Fr 08:00 - 18:00\n | Sa 08:00 - 17:00\n | Su Closed","utc_offset":"","gplace_id":0,"gplace_url":"","dealerID":61003,"trusted":false,"image_id":"v1597283926/nissan_RM.png","phone":"6053423400","cityStateSlug":"rapid-city.sd","slug":"Rapid-City.SD/granite+nissan","location":"44.1028025,-103.1735494","brandsList":["nissan"]},{"id":16194,"crm_id":999,"name":"Country Ford","dealerSlug":"country+ford","city_state_slug":"Tyndall.SD","brand":"Ford","website":"www.tyndallford.com","address":"30320 Ford Avenue","city":"Tyndall","state":"SD","zip":57066,"latitude":42.99459,"longitude":-97.892248,"phone_number_service":"6055893362","phone_number_main":"","service_hours":"Mo-Fr 08:00 - 18:00 | Sa 08:00 - 14:30 | Su Closed","utc_offset":"","gplace_id":0,"gplace_url":"","dealerID":61086,"trusted":false,"image_id":"v1597283967/ford_RM.png","phone":"6055893362","cityStateSlug":"tyndall.sd","slug":"Tyndall.SD/country+ford","location":"42.99459,-97.892248","brandsList":["ford"]},{"id":16902,"crm_id":999,"name":"Lewis and Clark Ford Lincoln","dealerSlug":"lewis+and+clark+ford+lincoln","city_state_slug":"Yankton.SD","brand":"Ford,Lincoln","website":"www.lewisandclarkford.com","address":"316 Capital Street","city":"Yankton","state":"SD","zip":57078,"latitude":42.87078,"longitude":-97.390483,"phone_number_service":"6056642000","phone_number_main":"","service_hours":"Mo-Fr 08:00 - 18:00 | Sa 08:00 - 16:00 | Su Closed","utc_offset":"","gplace_id":0,"gplace_url":"","dealerID":61127,"trusted":false,"image_id":"v1597283967/ford_RM.png","phone":"6056642000","cityStateSlug":"yankton.sd","slug":"Yankton.SD/lewis+and+clark+ford+lincoln","location":"42.87078,-97.390483","brandsList":["ford","lincoln"]},{"id":15978,"crm_id":999,"name":"Billion Hyundai","dealerSlug":"billion+hyundai","city_state_slug":"Sioux-Falls.SD","brand":"Hyundai","website":"www.hyundaisiouxfalls.com","address":"3401 West 41St Street","city":"Sioux Falls","state":"SD","zip":52246,"latitude":43.5148252,"longitude":-96.7697233,"phone_number_service":"6053611818","phone_number_main":"","service_hours":"Mo-Fr 07:00 - 17:00 | Sa 07:00 - 24:00","utc_offset":"","gplace_id":0,"gplace_url":"","dealerID":61165,"trusted":false,"image_id":"v1597283959/hyundai_RM.png","phone":"6053611818","cityStateSlug":"sioux-falls.sd","slug":"Sioux-Falls.SD/billion+hyundai","location":"43.5148252,-96.7697233","brandsList":["hyundai"]},{"id":17086,"crm_id":999,"name":"Milbank Ford","dealerSlug":"milbank+ford","city_state_slug":"Milbank.SD","brand":"Ford","website":"www.milbankford.net","address":"502 Madison Street","city":"Milbank","state":"SD","zip":57252,"latitude":45.217919,"longitude":-96.646235,"phone_number_service":"6054324525","phone_number_main":"","service_hours":"Mo-Fr 08:00 - 18:00 | Sa 08:00 - 15:00 | Su Closed","utc_offset":"","gplace_id":0,"gplace_url":"","dealerID":61355,"trusted":false,"image_id":"v1597283967/ford_RM.png","phone":"6054324525","cityStateSlug":"milbank.sd","slug":"Milbank.SD/milbank+ford","location":"45.217919,-96.646235","brandsList":["ford"]},{"id":15974,"crm_id":999,"name":"Billion Chrysler Jeep Dodge RAM FIAT","dealerSlug":"billion+chrysler+jeep+dodge+ram+fiat","city_state_slug":"Sioux-Falls.SD","brand":"Chrysler,Dodge,Jeep,RAM,Fiat","website":"www.billionmotorschryslerjeep.com","address":"5910 S Louise Ave","city":"Sioux Falls","state":"SD","zip":57108,"latitude":43.49174,"longitude":-96.765836,"phone_number_service":"6053611919","phone_number_main":"","service_hours":"Mo-Th 08:00 - 20:00 | Fr 08:00 - 18:00 | Sa 09:00 - 18:00 | Su Closed","utc_offset":"","gplace_id":0,"gplace_url":"","dealerID":61429,"trusted":false,"image_id":"v1597283975/chrysler_RM.png","phone":"6053611919","cityStateSlug":"sioux-falls.sd","slug":"Sioux-Falls.SD/billion+chrysler+jeep+dodge+ram+fiat","location":"43.49174,-96.765836","brandsList":["chrysler","dodge","jeep","ram","fiat"]},{"id":16491,"crm_id":999,"name":"Gesswein Motors Incorporated","dealerSlug":"gesswein+motors+incorporated","city_state_slug":"Milbank.SD","brand":"Chrysler,Dodge,Jeep,RAM","website":"www.gessweinmotors.net","address":"802 S Dakota St","city":"Milbank","state":"SD","zip":57252,"latitude":45.213518,"longitude":-96.640292,"phone_number_service":"6054325501","phone_number_main":"","service_hours":"Mo-Fr 08:00 - 18:00 | Sa 08:00 - 16:00 | Su Closed","utc_offset":"","gplace_id":0,"gplace_url":"","dealerID":61587,"trusted":false,"image_id":"v1597283975/chrysler_RM.png","phone":"6054325501","cityStateSlug":"milbank.sd","slug":"Milbank.SD/gesswein+motors+incorporated","location":"45.213518,-96.640292","brandsList":["chrysler","dodge","jeep","ram"]},{"id":12689,"crm_id":67033639,"name":"Rushmore Honda","dealerSlug":"rushmore+honda","city_state_slug":"Rapid-City.SD","brand":"Honda","website":"rushmorehonda.com","address":"1632 E Mall Dr","city":"Rapid City","state":"SD","zip":57701,"latitude":44.1045124,"longitude":-103.1847453,"phone_number_service":"6053484468","phone_number_main":"6055539525","service_hours":"Mo-Fr 08:00 - 18:00 | Sa 08:00 - 14:00","utc_offset":"-360","gplace_id":null,"gplace_url":"https://maps.google.com/?cid=670490617586222334","dealerID":63210,"trusted":false,"image_id":"v1597284047/honda_ms.png","phone":"6053484468","cityStateSlug":"rapid-city.sd","slug":"Rapid-City.SD/rushmore+honda","location":"44.1045124,-103.1847453","brandsList":["honda"]},{"id":2173,"crm_id":67034542,"name":"Brookings Auto Mall","dealerSlug":"brookings+auto+mall","city_state_slug":"Brookings.SD","brand":"Buick,Chevrolet,GMC","website":"www.brookingsautomall.com","address":"2323 6th St","city":"Brookings","state":"SD","zip":57006,"latitude":44.312092,"longitude":-96.765076,"phone_number_service":"6056005576","phone_number_main":"6056926315","service_hours":"Mo-Fr 07:30 - 17:30","utc_offset":"-300","gplace_id":null,"gplace_url":"https://maps.google.com/?cid=18032647247098661682","dealerID":63464,"trusted":false,"image_id":"v1597283981/buick_RM.png","phone":"6056005576","cityStateSlug":"brookings.sd","slug":"Brookings.SD/brookings+auto+mall","location":"44.312092,-96.765076","brandsList":["buick","chevrolet","gmc"]},{"id":2156,"crm_id":67035736,"name":"Broadway Chrysler, Dodge, Jeep","dealerSlug":"broadway+chrysler+dodge+jeep","city_state_slug":"Yankton.SD","brand":"Chrysler,Dodge,Jeep,RAM","website":"www.broadwaychrysler.com","address":"2720 Broadway Ave","city":"Yankton","state":"SD","zip":57078,"latitude":42.9041538,"longitude":-97.3972063,"phone_number_service":"6052690326","phone_number_main":"6056658033","service_hours":"Mo-Fr 07:30 - 17:30 | Sa 07:30 - 16:00","utc_offset":"-300","gplace_id":null,"gplace_url":"https://maps.google.com/?cid=7889595992765144486","dealerID":63794,"trusted":false,"image_id":"v1597283975/chrysler_RM.png","phone":"6052690326","cityStateSlug":"yankton.sd","slug":"Yankton.SD/broadway+chrysler+dodge+jeep","location":"42.9041538,-97.3972063","brandsList":["chrysler","dodge","jeep","ram"]},{"id":8802,"crm_id":67036624,"name":"Liberty Hyundai Mazda","dealerSlug":"liberty+hyundai+mazda","city_state_slug":"Rapid-City.SD","brand":"Hyundai,Mazda","website":"www.libertysuperstores.com","address":"404 Cambell St","city":"Rapid City","state":"SD","zip":57701,"latitude":44.080475,"longitude":-103.190841,"phone_number_service":"8667516009","phone_number_main":"6055195902","service_hours":"Mo-Fr 08:00 - 17:00 | Sa 08:00 - 15:00","utc_offset":"-360","gplace_id":null,"gplace_url":"https://maps.google.com/?cid=15984354611373443313","dealerID":64029,"trusted":false,"image_id":"v1597283959/hyundai_RM.png","phone":"8667516009","cityStateSlug":"rapid-city.sd","slug":"Rapid-City.SD/liberty+hyundai+mazda","location":"44.080475,-103.190841","brandsList":["hyundai","mazda"]},{"id":1171,"crm_id":67037134,"name":"Beck Motor Company","dealerSlug":"beck+motor+company","city_state_slug":"Pierre.SD","brand":"Buick,Cadillac,Chevrolet","website":"www.beck-motors.com","address":"1905 N Garfield Ave","city":"Pierre","state":"SD","zip":57501,"latitude":44.3833274,"longitude":-100.3161697,"phone_number_service":"8772041157","phone_number_main":"6052245912","service_hours":"Mo-Fr 07:30 - 17:30 | Sa 08:00 - 12:00","utc_offset":"-300","gplace_id":null,"gplace_url":"https://maps.google.com/?cid=4568429645678774426","dealerID":64173,"trusted":false,"image_id":"v1597283981/buick_RM.png","phone":"8772041157","cityStateSlug":"pierre.sd","slug":"Pierre.SD/beck+motor+company","location":"44.3833274,-100.3161697","brandsList":["buick","cadillac","chevrolet"]},{"id":11940,"crm_id":67045387,"name":"Prostrollo Motor Sales","dealerSlug":"prostrollo+motor+sales","city_state_slug":"Huron.SD","brand":"Buick,Cadillac,Chevrolet,GMC","website":"www.prostrollo.com","address":"500 4th St NE","city":"Huron","state":"SD","zip":57350,"latitude":44.3694952,"longitude":-98.2063363,"phone_number_service":"8774774295","phone_number_main":"8664664515","service_hours":"Mo-Fr 08:00 - 17:00","utc_offset":"-300","gplace_id":null,"gplace_url":"https://maps.google.com/?cid=1895280832420555272","dealerID":66412,"trusted":false,"image_id":"v1597283981/buick_RM.png","phone":"8774774295","cityStateSlug":"huron.sd","slug":"Huron.SD/prostrollo+motor+sales","location":"44.3694952,-98.2063363","brandsList":["buick","cadillac","chevrolet","gmc"]},{"id":34,"crm_id":67046698,"name":"Aberdeen Chrysler Center","dealerSlug":"aberdeen+chrysler+center","city_state_slug":"Aberdeen.SD","brand":"Chrysler,Dodge,Jeep,RAM","website":"www.aberdeenchrysler.com","address":"901 Auto Plaza Dr","city":"Aberdeen","state":"SD","zip":57401,"latitude":45.4712948,"longitude":-98.5030726,"phone_number_service":"8666440740","phone_number_main":"8664330235","service_hours":"Mo-Fr 07:00 - 19:00 | Sa 08:00 - 17:00","utc_offset":"-300","gplace_id":null,"gplace_url":"https://maps.google.com/?cid=17326656644790276054","dealerID":66754,"trusted":false,"image_id":"v1597283975/chrysler_RM.png","phone":"8666440740","cityStateSlug":"aberdeen.sd","slug":"Aberdeen.SD/aberdeen+chrysler+center","location":"45.4712948,-98.5030726","brandsList":["chrysler","dodge","jeep","ram"]},{"id":14902,"crm_id":67047112,"name":"Vern Eide Ford Lincoln","dealerSlug":"vern+eide+ford+lincoln","city_state_slug":"Mitchell.SD","brand":"Ford,Lincoln","website":"www.verneideford.com","address":"2300 N Main St","city":"Mitchell","state":"SD","zip":57301,"latitude":43.7317777,"longitude":-98.024833,"phone_number_service":"6052923929","phone_number_main":"6059965614","service_hours":"Mo-Fr 07:30 - 18:00 | Sa 09:00-15:00","utc_offset":"-300","gplace_id":null,"gplace_url":"https://maps.google.com/?cid=1842622281407270244","dealerID":66861,"trusted":false,"image_id":"v1597283967/ford_RM.png","phone":"6052923929","cityStateSlug":"mitchell.sd","slug":"Mitchell.SD/vern+eide+ford+lincoln","location":"43.7317777,-98.024833","brandsList":["ford","lincoln"]},{"id":13251,"crm_id":67049497,"name":"Sioux Falls Toyota","dealerSlug":"sioux+falls+toyota","city_state_slug":"Sioux-Falls.SD","brand":"Toyota","website":"www.billionauto.com/sioux-falls-toyota","address":"4101 W. 12th St.","city":"Sioux Falls","state":"SD","zip":57106,"latitude":43.5431262,"longitude":-96.7749804,"phone_number_service":"8442353405","phone_number_main":"8442349512","service_hours":"Mo-Th 07:00 - 18:00 | Fr 07:00 - 17:30 | Sa 08:00 - 17:00","utc_offset":"-300","gplace_id":null,"gplace_url":"https://maps.google.com/?cid=12008140413001430153","dealerID":67510,"trusted":false,"image_id":"v1597284039/toyota_ms.png","phone":"8442353405","cityStateSlug":"sioux-falls.sd","slug":"Sioux-Falls.SD/sioux+falls+toyota","location":"43.5431262,-96.7749804","brandsList":["toyota"]},{"id":3948,"crm_id":67050481,"name":"Denny Menholt Rapid Chevrolet","dealerSlug":"denny+menholt+rapid+chevrolet","city_state_slug":"Rapid-City.SD","brand":"Chevrolet","website":"www.dennymenholtrapidchevrolet.com","address":"2323 E Mall Dr","city":"Rapid City","state":"SD","zip":57701,"latitude":44.101549,"longitude":-103.1760829,"phone_number_service":"6055934633","phone_number_main":"6053431282","service_hours":"Mo-Th 07:00 - 18:00 | Fr 07:00 - 17:30 | Sa 08:00 - 14:00","utc_offset":"-360","gplace_id":null,"gplace_url":"https://maps.google.com/?cid=17546201061078564731","dealerID":67788,"trusted":false,"image_id":"v1597284079/chevy_ms.png","phone":"6055934633","cityStateSlug":"rapid-city.sd","slug":"Rapid-City.SD/denny+menholt+rapid+chevrolet","location":"44.101549,-103.1760829","brandsList":["chevrolet"]},{"id":14760,"crm_id":67052563,"name":"Unzen Motors","dealerSlug":"unzen+motors","city_state_slug":"Milbank.SD","brand":"Buick,Chevrolet","website":"www.unzens.com","address":"506 S Dakota St","city":"Milbank","state":"SD","zip":57252,"latitude":45.2173369,"longitude":-96.6412584,"phone_number_service":"6054329516","phone_number_main":"8005685436","service_hours":"Mo-Fr 07:30 - 17:00 | Sa 08:00-13:00","utc_offset":"-300","gplace_id":null,"gplace_url":"https://maps.google.com/?cid=2403670944161665279","dealerID":68349,"trusted":false,"image_id":"v1597283981/buick_RM.png","phone":"6054329516","cityStateSlug":"milbank.sd","slug":"Milbank.SD/unzen+motors","location":"45.2173369,-96.6412584","brandsList":["buick","chevrolet"]},{"id":14901,"crm_id":67053979,"name":"Vern Eide Acura","dealerSlug":"vern+eide+acura","city_state_slug":"Sioux-Falls.SD","brand":"Acura","website":"verneideacura.com","address":"4030 S Grange Ave","city":"Sioux Falls","state":"SD","zip":57105,"latitude":43.5089577,"longitude":-96.7374821,"phone_number_service":"8008813055","phone_number_main":"6052719507","service_hours":"Mo-Fr 07:00 - 18:00 | Sa 08:00 - 16:00","utc_offset":"-300","gplace_id":null,"gplace_url":"https://maps.google.com/?cid=11472062280398390249","dealerID":68746,"trusted":false,"image_id":"v1597283988/acura.png","phone":"8008813055","cityStateSlug":"sioux-falls.sd","slug":"Sioux-Falls.SD/vern+eide+acura","location":"43.5089577,-96.7374821","brandsList":["acura"]},{"id":2427,"crm_id":67054159,"name":"Cadillac of Sioux Falls","dealerSlug":"cadillac+of+sioux+falls","city_state_slug":"Sioux-Falls.SD","brand":"Cadillac","website":"www.cadillacofsiouxfalls.com","address":"101 Carolyn Ave","city":"Sioux Falls","state":"SD","zip":57107,"latitude":43.5446742,"longitude":-96.7785879,"phone_number_service":"6056100712","phone_number_main":"6053365060","service_hours":"Mo-Fr 07:00 - 18:00 | Sa 08:00 - 17:00","utc_offset":"-300","gplace_id":null,"gplace_url":"https://maps.google.com/?cid=11529524135701794308","dealerID":68796,"trusted":false,"image_id":"v1597283980/cadillac.png","phone":"6056100712","cityStateSlug":"sioux-falls.sd","slug":"Sioux-Falls.SD/cadillac+of+sioux+falls","location":"43.5446742,-96.7785879","brandsList":["cadillac"]},{"id":15468,"crm_id":67054210,"name":"White's Queen City Motors","dealerSlug":"whites+queen+city+motors","city_state_slug":"Spearfish.SD","brand":"Buick,Chevrolet","website":"www.queencitymotors.com","address":"1900 North Ave","city":"Spearfish","state":"SD","zip":57783,"latitude":44.5027243,"longitude":-103.8578367,"phone_number_service":"8884833019","phone_number_main":"6053400519","service_hours":"Mo-Fr 07:30 - 17:30","utc_offset":"-360","gplace_id":null,"gplace_url":"https://maps.google.com/?cid=18046698901436658983","dealerID":68808,"trusted":false,"image_id":"v1597283981/buick_RM.png","phone":"8884833019","cityStateSlug":"spearfish.sd","slug":"Spearfish.SD/whites+queen+city+motors","location":"44.5027243,-103.8578367","brandsList":["buick","chevrolet"]},{"id":12947,"crm_id":67059004,"name":"Schulte Subaru","dealerSlug":"schulte+subaru","city_state_slug":"Sioux-Falls.SD","brand":"Subaru","website":"www.subaruofsiouxfalls.com","address":"7601 S Minnesota Ave","city":"Sioux Falls","state":"SD","zip":57108,"latitude":43.4758402,"longitude":-96.7281665,"phone_number_service":"8666804904","phone_number_main":"6052754040","service_hours":"Mo-Fr 07:30 - 17:30 | Sa 07:30-12:00","utc_offset":"-300","gplace_id":null,"gplace_url":"https://maps.google.com/?cid=3780561007513938469","dealerID":70127,"trusted":false,"image_id":"v1597283982/subaru_ms.png","phone":"8666804904","cityStateSlug":"sioux-falls.sd","slug":"Sioux-Falls.SD/schulte+subaru","location":"43.4758402,-96.7281665","brandsList":["subaru"]},{"id":7015,"crm_id":67059334,"name":"Iverson Chrysler Center","dealerSlug":"iverson+chrysler+center","city_state_slug":"Mitchell.SD","brand":"Chrysler,Dodge,Ford,Jeep,RAM","website":"www.iversonauto.com","address":"600 S Burr","city":"Mitchell","state":"SD","zip":57301,"latitude":43.7047396,"longitude":-98.0178714,"phone_number_service":"6059965683","phone_number_main":"6059965683","service_hours":"Mo-Fr 07:30 - 17:30 | Sa 07:30 - 16:00","utc_offset":"-300","gplace_id":null,"gplace_url":"https://maps.google.com/?cid=1257988948384916006","dealerID":70216,"trusted":false,"image_id":"v1597283975/chrysler_RM.png","phone":"6059965683","cityStateSlug":"mitchell.sd","slug":"Mitchell.SD/iverson+chrysler+center","location":"43.7047396,-98.0178714","brandsList":["chrysler","dodge","ford","jeep","ram"]},{"id":13100,"crm_id":67060576,"name":"Sharp Automotive","dealerSlug":"sharp+automotive","city_state_slug":"Watertown.SD","brand":"Chevrolet,GMC","website":"www.sharpautos.com","address":"1112 9th Ave SW","city":"Watertown","state":"SD","zip":57201,"latitude":44.8894734,"longitude":-97.133994,"phone_number_service":"6058868082","phone_number_main":"6058868082","service_hours":"Mo-Fr 07:30 - 17:30 | Sa 07:30 - 12:00","utc_offset":"-300","gplace_id":null,"gplace_url":"https://maps.google.com/?cid=3382674862954484074","dealerID":70555,"trusted":false,"image_id":"v1597284079/chevy_ms.png","phone":"6058868082","cityStateSlug":"watertown.sd","slug":"Watertown.SD/sharp+automotive","location":"44.8894734,-97.133994","brandsList":["chevrolet","gmc"]},{"id":3413,"crm_id":67060600,"name":"Courtesy Subaru","dealerSlug":"courtesy+subaru","city_state_slug":"Rapid-City.SD","brand":"Subaru","website":"www.courtesysubaru.com","address":"601 E Omaha St","city":"Rapid City","state":"SD","zip":57701,"latitude":44.0809353,"longitude":-103.2007571,"phone_number_service":"8885736330","phone_number_main":"6053427034","service_hours":"Mo-Fr 07:30 - 17:30 | Sa 08:00 - 17:00","utc_offset":"-360","gplace_id":null,"gplace_url":"https://maps.google.com/?cid=700168003925523802","dealerID":70562,"trusted":false,"image_id":"v1597283982/subaru_ms.png","phone":"8885736330","cityStateSlug":"rapid-city.sd","slug":"Rapid-City.SD/courtesy+subaru","location":"44.0809353,-103.2007571","brandsList":["subaru"]},{"id":7341,"crm_id":67068226,"name":"Jerry's Chevrolet Of Beresford","dealerSlug":"jerrys+chevrolet+of+beresford","city_state_slug":"Beresford.SD","brand":"Chevrolet","website":"www.jerryschevy.net","address":"306 N 16th St","city":"Beresford","state":"SD","zip":57004,"latitude":43.0831577,"longitude":-96.7896905,"phone_number_service":"6057636000","phone_number_main":"6057636000","service_hours":"Mo-Fr 07:30 18:00","utc_offset":"-300","gplace_id":null,"gplace_url":"https://maps.google.com/?cid=15725652340011267237","dealerID":72570,"trusted":false,"image_id":"v1597284079/chevy_ms.png","phone":"6057636000","cityStateSlug":"beresford.sd","slug":"Beresford.SD/jerrys+chevrolet+of+beresford","location":"43.0831577,-96.7896905","brandsList":["chevrolet"]},{"id":4468,"crm_id":67068229,"name":"Einspahr Auto Plaza","dealerSlug":"einspahr+auto+plaza","city_state_slug":"Brookings.SD","brand":"Ford","website":"www.e-autoplaza.net","address":"2020 8th St S","city":"Brookings","state":"SD","zip":57006,"latitude":44.2963369,"longitude":-96.7715525,"phone_number_service":"6056926106","phone_number_main":"6056926106","service_hours":"Mo-Fr 08:00 - 17:30 | Sa 08:00 - 12:00","utc_offset":"-300","gplace_id":null,"gplace_url":"https://maps.google.com/?cid=13938650895767666999","dealerID":72571,"trusted":false,"image_id":"v1597283967/ford_RM.png","phone":"6056926106","cityStateSlug":"brookings.sd","slug":"Brookings.SD/einspahr+auto+plaza","location":"44.2963369,-96.7715525","brandsList":["ford"]},{"id":11193,"crm_id":67068235,"name":"Parker Ford","dealerSlug":"parker+ford","city_state_slug":"Parker.SD","brand":"Ford","website":"www.parkerfordautos.com","address":"1075 E 6th St","city":"Parker","state":"SD","zip":57053,"latitude":43.4014746,"longitude":-97.1215194,"phone_number_service":"6052974851","phone_number_main":"6052974851","service_hours":"Mo-Fr 08:00 - 17:30 | Sa 08:00 - 12:00","utc_offset":"-300","gplace_id":null,"gplace_url":"https://maps.google.com/?cid=5622466843565226217","dealerID":72572,"trusted":false,"image_id":"v1597283967/ford_RM.png","phone":"6052974851","cityStateSlug":"parker.sd","slug":"Parker.SD/parker+ford","location":"43.4014746,-97.1215194","brandsList":["ford"]},{"id":7340,"crm_id":67068238,"name":"Jerry's Chevrolet Buick GMC","dealerSlug":"jerrys+chevrolet+buick+gmc","city_state_slug":"Vermillion.SD","brand":"Buick,Chevrolet,GMC","website":"www.jerrysvermillion.com","address":"209 W Cherry St","city":"Vermillion","state":"SD","zip":57069,"latitude":42.7870753,"longitude":-96.9358956,"phone_number_service":"6056244438","phone_number_main":"6056244438","service_hours":"Mo-Fr 07:30 - 18:00","utc_offset":"-300","gplace_id":null,"gplace_url":"https://maps.google.com/?cid=9385421482294154609","dealerID":72573,"trusted":false,"image_id":"v1597283981/buick_RM.png","phone":"6056244438","cityStateSlug":"vermillion.sd","slug":"Vermillion.SD/jerrys+chevrolet+buick+gmc","location":"42.7870753,-96.9358956","brandsList":["buick","chevrolet","gmc"]},{"id":2048,"crm_id":67068247,"name":"Boyer Ford Trucks Sioux Falls","dealerSlug":"boyer+ford+trucks+sioux+falls","city_state_slug":"Sioux-Falls.SD","brand":"Ford","website":"www.boyersiouxfalls.com","address":"2101 E Benson Rd","city":"Sioux Falls","state":"SD","zip":57104,"latitude":43.5855417,"longitude":-96.6999888,"phone_number_service":"8888269270","phone_number_main":"6053366100","service_hours":"Mo-Fr 07:00 - 22:00","utc_offset":"-300","gplace_id":null,"gplace_url":"https://maps.google.com/?cid=13985869029203693531","dealerID":72574,"trusted":false,"image_id":"v1597283967/ford_RM.png","phone":"8888269270","cityStateSlug":"sioux-falls.sd","slug":"Sioux-Falls.SD/boyer+ford+trucks+sioux+falls","location":"43.5855417,-96.6999888","brandsList":["ford"]},{"id":5720,"crm_id":67068256,"name":"Graham Volkswagen","dealerSlug":"graham+volkswagen","city_state_slug":"Sioux-Falls.SD","brand":"Volkswagen","website":"www.grahamvw.com","address":"801 W 41st St","city":"Sioux Falls","state":"SD","zip":57105,"latitude":43.5145,"longitude":-96.7356,"phone_number_service":"8884682203","phone_number_main":"8884659986","service_hours":"Mo-Fr 07:30 - 17:30 | Sa 07:30 - 12:00","utc_offset":"-300","gplace_id":null,"gplace_url":"https://maps.google.com/?cid=15694628013489471939","dealerID":72575,"trusted":false,"image_id":"v1597283902/volkswagen.png","phone":"8884682203","cityStateSlug":"sioux-falls.sd","slug":"Sioux-Falls.SD/graham+volkswagen","location":"43.5145,-96.7356","brandsList":["volkswagen"]},{"id":653,"crm_id":67068259,"name":"Audi Sioux Falls","dealerSlug":"audi+sioux+falls","city_state_slug":"Sioux-Falls.SD","brand":"Audi","website":"www.audisiouxfalls.com","address":"801 W 41st St","city":"Sioux Falls","state":"SD","zip":57105,"latitude":43.514481,"longitude":-96.7355055,"phone_number_service":"8886324381","phone_number_main":"8886917930","service_hours":"Mo-Fr 07:30 - 17:30 | Sa 07:30 - 12:00","utc_offset":"-300","gplace_id":null,"gplace_url":"https://maps.google.com/?cid=15723660887518764163","dealerID":72576,"trusted":false,"image_id":"v1597283985/audi_RM.png","phone":"8886324381","cityStateSlug":"sioux-falls.sd","slug":"Sioux-Falls.SD/audi+sioux+falls","location":"43.514481,-96.7355055","brandsList":["audi"]},{"id":1533,"crm_id":67068265,"name":"Billion Mazda","dealerSlug":"billion+mazda","city_state_slug":"Sioux-Falls.SD","brand":"Mazda","website":"www.billionmazdaofsiouxfalls.com","address":"3405 S Westport Ave","city":"Sioux Falls","state":"SD","zip":57106,"latitude":43.5138716,"longitude":-96.7683659,"phone_number_service":"8669873801","phone_number_main":"6053090973","service_hours":"Mo-Fr 07:30 - 17:30 | Sa 08:00 - 12:00","utc_offset":"-300","gplace_id":null,"gplace_url":"https://maps.google.com/?cid=16154466497448354064","dealerID":72577,"trusted":false,"image_id":"v1597283937/mazda.png","phone":"8669873801","cityStateSlug":"sioux-falls.sd","slug":"Sioux-Falls.SD/billion+mazda","location":"43.5138716,-96.7683659","brandsList":["mazda"]},{"id":13250,"crm_id":67068271,"name":"Sioux Falls Ford","dealerSlug":"sioux+falls+ford","city_state_slug":"Sioux-Falls.SD","brand":"Ford","website":"www.siouxfallsford.com","address":"4901 W 26th St","city":"Sioux Falls","state":"SD","zip":57106,"latitude":43.5272182,"longitude":-96.7873702,"phone_number_service":"8667801162","phone_number_main":"6053610361","service_hours":"Mo-Fr 07:00 - 19:00 | Sa 08:00 - 17:00","utc_offset":"-300","gplace_id":null,"gplace_url":"https://maps.google.com/?cid=6090565032574975176","dealerID":72578,"trusted":false,"image_id":"v1597283967/ford_RM.png","phone":"8667801162","cityStateSlug":"sioux-falls.sd","slug":"Sioux-Falls.SD/sioux+falls+ford","location":"43.5272182,-96.7873702","brandsList":["ford"]},{"id":13249,"crm_id":67068274,"name":"Sioux Falls Chevrolet","dealerSlug":"sioux+falls+chevrolet","city_state_slug":"Sioux-Falls.SD","brand":"Chevrolet","website":"www.billionauto.com/sioux-falls-chevrolet","address":"4200 W 12th St","city":"Sioux Falls","state":"SD","zip":57107,"latitude":43.544608,"longitude":-96.775733,"phone_number_service":"8442353401","phone_number_main":"6059778200","service_hours":"Mo-Fr 07:30 - 18:00 | Sa 08:00 - 17:00","utc_offset":"-300","gplace_id":null,"gplace_url":"https://maps.google.com/?cid=3218489636784170416","dealerID":72579,"trusted":false,"image_id":"v1597284079/chevy_ms.png","phone":"8442353401","cityStateSlug":"sioux-falls.sd","slug":"Sioux-Falls.SD/sioux+falls+chevrolet","location":"43.544608,-96.775733","brandsList":["chevrolet"]},{"id":9838,"crm_id":67068277,"name":"Mercedes-Benz of Sioux Falls","dealerSlug":"mercedes+benz+of+sioux+falls","city_state_slug":"Sioux-Falls.SD","brand":"Mercedes-Benz","website":"www.mercedes-benzofsiouxfalls.com","address":"4410 W 12th St #2","city":"Sioux Falls","state":"SD","zip":57107,"latitude":43.5452229,"longitude":-96.7782775,"phone_number_service":"8443278983","phone_number_main":"6053365060","service_hours":"Mo-Fr 07:00 - 18:00 | Sa 08:00 - 17:00","utc_offset":"-300","gplace_id":null,"gplace_url":"https://maps.google.com/?cid=1301705352463198603","dealerID":72580,"trusted":false,"image_id":"v1597283934/mercedes_RM.png","phone":"8443278983","cityStateSlug":"sioux-falls.sd","slug":"Sioux-Falls.SD/mercedes+benz+of+sioux+falls","location":"43.5452229,-96.7782775","brandsList":["mercedes-benz"]},{"id":1751,"crm_id":67068280,"name":"BMW of Sioux Falls","dealerSlug":"bmw+of+sioux+falls","city_state_slug":"Sioux-Falls.SD","brand":"BMW","website":"www.bmwofsiouxfalls.com","address":"101 Carolyn Ave","city":"Sioux Falls","state":"SD","zip":57107,"latitude":43.5454533,"longitude":-96.7783272,"phone_number_service":"8669803526","phone_number_main":"6052212000","service_hours":"Mo-Fr 07:00 - 18:00 | Sa 08:00 - 17:00","utc_offset":"-300","gplace_id":null,"gplace_url":"https://maps.google.com/?cid=9534150945795062708","dealerID":72581,"trusted":false,"image_id":"v1597283982/bmw_RM.png","phone":"8669803526","cityStateSlug":"sioux-falls.sd","slug":"Sioux-Falls.SD/bmw+of+sioux+falls","location":"43.5454533,-96.7783272","brandsList":["bmw"]},{"id":14903,"crm_id":67068289,"name":"Vern Eide Honda","dealerSlug":"vern+eide+honda","city_state_slug":"Sioux-Falls.SD","brand":"Honda","website":"www.verneidehonda.com","address":"5200 S Louise Ave","city":"Sioux Falls","state":"SD","zip":57108,"latitude":43.4984117,"longitude":-96.7698178,"phone_number_service":"6053629500","phone_number_main":"6052719505","service_hours":"Mo-Fr 07:00 - 18:00 | Sa 08:00 - 17:00","utc_offset":"-300","gplace_id":null,"gplace_url":"https://maps.google.com/?cid=10600600159604193776","dealerID":72582,"trusted":false,"image_id":"v1597284047/honda_ms.png","phone":"6053629500","cityStateSlug":"sioux-falls.sd","slug":"Sioux-Falls.SD/vern+eide+honda","location":"43.4984117,-96.7698178","brandsList":["honda"]},{"id":13103,"crm_id":67068295,"name":"Sharp Toyota","dealerSlug":"sharp+toyota","city_state_slug":"Watertown.SD","brand":"Toyota","website":"www.sharptoyota.com","address":"1112 9th Ave SW","city":"Watertown","state":"SD","zip":57201,"latitude":44.8896997,"longitude":-97.1340328,"phone_number_service":"6058868082","phone_number_main":"6058868081","service_hours":"Mo-Fr 07:30 - 17:30 | Sa 07:30-12:00","utc_offset":"-300","gplace_id":null,"gplace_url":"https://maps.google.com/?cid=10448700799867213482","dealerID":72583,"trusted":false,"image_id":"v1597284039/toyota_ms.png","phone":"6058868082","cityStateSlug":"watertown.sd","slug":"Watertown.SD/sharp+toyota","location":"44.8896997,-97.1340328","brandsList":["toyota"]},{"id":10926,"crm_id":67068301,"name":"O'Keefe Ford","dealerSlug":"okeefe+ford","city_state_slug":"De-Smet.SD","brand":"Ford","website":"www.okeefeford.com","address":"324 Calumet Ave SE","city":"De Smet","state":"SD","zip":57231,"latitude":44.3844111,"longitude":-97.5491816,"phone_number_service":"8004199146","phone_number_main":"6058549146","service_hours":"Mo-Fr 07:30 - 17:30 | Sa 08:00 - 12:00","utc_offset":"-300","gplace_id":null,"gplace_url":"https://maps.google.com/?cid=2036550821508785231","dealerID":72584,"trusted":false,"image_id":"v1597283967/ford_RM.png","phone":"8004199146","cityStateSlug":"de-smet.sd","slug":"De-Smet.SD/okeefe+ford","location":"44.3844111,-97.5491816","brandsList":["ford"]},{"id":3747,"crm_id":67068304,"name":"Dave Hahler Automotive","dealerSlug":"dave+hahler+automotive","city_state_slug":"Webster.SD","brand":"Buick,Chevrolet","website":"www.hahlerauto.com","address":"500 East, US-12","city":"Webster","state":"SD","zip":57274,"latitude":45.3406818,"longitude":-97.5133997,"phone_number_service":"6053454792","phone_number_main":"6053454792","service_hours":"Mo-Fr 08:00 - 17:30 | Sa 08:00 - 12:00","utc_offset":"-300","gplace_id":null,"gplace_url":"https://maps.google.com/?cid=4910705130782614186","dealerID":72585,"trusted":false,"image_id":"v1597283981/buick_RM.png","phone":"6053454792","cityStateSlug":"webster.sd","slug":"Webster.SD/dave+hahler+automotive","location":"45.3406818,-97.5133997","brandsList":["buick","chevrolet"]},{"id":15538,"crm_id":67068310,"name":"Willrodt Ford","dealerSlug":"willrodt+ford","city_state_slug":"Chamberlain.SD","brand":"Ford","website":"www.willrodtfordinc.com","address":"1100 King Ave","city":"Chamberlain","state":"SD","zip":57325,"latitude":43.7872524,"longitude":-99.3122323,"phone_number_service":"8667958132","phone_number_main":"6052345527","service_hours":"Mo-Fr  08:00 - 17:00","utc_offset":"-300","gplace_id":null,"gplace_url":"https://maps.google.com/?cid=10771182202748941332","dealerID":72586,"trusted":false,"image_id":"v1597283967/ford_RM.png","phone":"8667958132","cityStateSlug":"chamberlain.sd","slug":"Chamberlain.SD/willrodt+ford","location":"43.7872524,-99.3122323","brandsList":["ford"]},{"id":11556,"crm_id":67068313,"name":"Pioneer Garage","dealerSlug":"pioneer+garage","city_state_slug":"Highmore.SD","brand":"Ford","website":"www.pioneergarage.net","address":"525 Commercial Ave NE","city":"Highmore","state":"SD","zip":57345,"latitude":44.5268874,"longitude":-99.4408034,"phone_number_service":"8777019866","phone_number_main":"6058522122","service_hours":"Mo-Fr 08:00 - 17:30 | Sa 08:00 - 15:00","utc_offset":"-300","gplace_id":null,"gplace_url":"https://maps.google.com/?cid=15107827514685024194","dealerID":72587,"trusted":false,"image_id":"v1597283967/ford_RM.png","phone":"8777019866","cityStateSlug":"highmore.sd","slug":"Highmore.SD/pioneer+garage","location":"44.5268874,-99.4408034","brandsList":["ford"]},{"id":7016,"crm_id":67068316,"name":"Iverson Ford","dealerSlug":"iverson+ford","city_state_slug":"Huron.SD","brand":"Ford","website":"www.iversonford.com","address":"101 2nd St SW","city":"Huron","state":"SD","zip":57350,"latitude":44.3646666,"longitude":-98.2162569,"phone_number_service":"8888231398","phone_number_main":"6053526464","service_hours":"Mo-Fr 07:30 - 17:30 | Sa 07:30 - 16:00","utc_offset":"-300","gplace_id":null,"gplace_url":"https://maps.google.com/?cid=8179552315089558947","dealerID":72588,"trusted":false,"image_id":"v1597283967/ford_RM.png","phone":"8888231398","cityStateSlug":"huron.sd","slug":"Huron.SD/iverson+ford","location":"44.3646666,-98.2162569","brandsList":["ford"]},{"id":12398,"crm_id":67068319,"name":"Riverview Chevrolet Buick","dealerSlug":"riverview+chevrolet+buick","city_state_slug":"Oacoma.SD","brand":"Buick,Chevrolet","website":"www.riverviewfamily.com","address":"700 E Hwy 16","city":"Oacoma","state":"SD","zip":57365,"latitude":43.8033607,"longitude":-99.3866486,"phone_number_service":"6052346064","phone_number_main":"6052346064","service_hours":"Mo-Fr 08:00 - 17:30 | Sa 08:00 - 12:00","utc_offset":"-300","gplace_id":null,"gplace_url":"https://maps.google.com/?cid=10879752851764697324","dealerID":72589,"trusted":false,"image_id":"v1597283981/buick_RM.png","phone":"6052346064","cityStateSlug":"oacoma.sd","slug":"Oacoma.SD/riverview+chevrolet+buick","location":"43.8033607,-99.3866486","brandsList":["buick","chevrolet"]},{"id":13652,"crm_id":67068328,"name":"Steven Lust Cadillac","dealerSlug":"steven+lust+cadillac","city_state_slug":"Aberdeen.SD","brand":"Cadillac","website":"www.lustcadillac.com","address":"1314 6th Ave SW","city":"Aberdeen","state":"SD","zip":57401,"latitude":45.4599745,"longitude":-98.5079674,"phone_number_service":"6052694048","phone_number_main":"6052774261","service_hours":"Mo-Fr 07:30 - 17:30 | Sa 08:00 - 12:00","utc_offset":"-300","gplace_id":null,"gplace_url":"https://maps.google.com/?cid=4679163946971782551","dealerID":72591,"trusted":false,"image_id":"v1597283980/cadillac.png","phone":"6052694048","cityStateSlug":"aberdeen.sd","slug":"Aberdeen.SD/steven+lust+cadillac","location":"45.4599745,-98.5079674","brandsList":["cadillac"]},{"id":1138,"crm_id":67068334,"name":"Beadle Ford","dealerSlug":"beadle+ford","city_state_slug":"Bowdle.SD","brand":"Ford","website":"www.beadleford.net","address":"5023 4th Ave","city":"Bowdle","state":"SD","zip":57428,"latitude":45.4470522,"longitude":-99.6556022,"phone_number_service":"8668824677","phone_number_main":"6052856202","service_hours":"Mo-Fr 07:30 - 17:30 | Sa 08:00 - 12:00","utc_offset":"-300","gplace_id":null,"gplace_url":"https://maps.google.com/?cid=1724744286060214637","dealerID":72592,"trusted":false,"image_id":"v1597283967/ford_RM.png","phone":"8668824677","cityStateSlug":"bowdle.sd","slug":"Bowdle.SD/beadle+ford","location":"45.4470522,-99.6556022","brandsList":["ford"]},{"id":1139,"crm_id":67068337,"name":"Beadle's Chrysler Center","dealerSlug":"beadles+chrysler+center","city_state_slug":"Bowdle.SD","brand":"Chrysler,Dodge,Jeep,RAM","website":"www.beadleschryslercenter.com","address":"5023 4th Ave","city":"Bowdle","state":"SD","zip":57428,"latitude":45.4473986,"longitude":-99.654615,"phone_number_service":"6052155394","phone_number_main":"6052856202","service_hours":"Mo-Fr 07:30 - 17:30","utc_offset":"-300","gplace_id":null,"gplace_url":"https://maps.google.com/?cid=18445331636845992311","dealerID":72593,"trusted":false,"image_id":"v1597283975/chrysler_RM.png","phone":"6052155394","cityStateSlug":"bowdle.sd","slug":"Bowdle.SD/beadles+chrysler+center","location":"45.4473986,-99.654615","brandsList":["chrysler","dodge","jeep","ram"]},{"id":15315,"crm_id":67068346,"name":"Wegner Auto Company","dealerSlug":"wegner+auto+company","city_state_slug":"Pierre.SD","brand":"Chrysler,Dodge,Jeep,RAM","website":"www.wegnerauto.net","address":"330 E Sioux Ave","city":"Pierre","state":"SD","zip":57501,"latitude":44.3654566,"longitude":-100.3504035,"phone_number_service":"6052155783","phone_number_main":"6052249900","service_hours":"Mo-Fr 07:30 - 17:30 | Sa 08:00-13:00","utc_offset":"-300","gplace_id":null,"gplace_url":"https://maps.google.com/?cid=5038460912439187303","dealerID":72594,"trusted":false,"image_id":"v1597283975/chrysler_RM.png","phone":"6052155783","cityStateSlug":"pierre.sd","slug":"Pierre.SD/wegner+auto+company","location":"44.3654566,-100.3504035","brandsList":["chrysler","dodge","jeep","ram"]},{"id":11497,"crm_id":67068355,"name":"Philip Motor","dealerSlug":"philip+motor","city_state_slug":"Philip.SD","brand":"Ford","website":"www.philipmotor.net","address":"101 W Oak St","city":"Philip","state":"SD","zip":57567,"latitude":44.0384251,"longitude":-101.6657162,"phone_number_service":"8884661908","phone_number_main":"6058592585","service_hours":"Mo-Fr 08:00 - 17:30 | Sa 08:00 - 15:00","utc_offset":"-360","gplace_id":null,"gplace_url":"https://maps.google.com/?cid=3966734821579740423","dealerID":72595,"trusted":false,"image_id":"v1597283967/ford_RM.png","phone":"8884661908","cityStateSlug":"philip.sd","slug":"Philip.SD/philip+motor","location":"44.0384251,-101.6657162","brandsList":["ford"]},{"id":1140,"crm_id":67068358,"name":"Beadle's Sales","dealerSlug":"beadles+sales","city_state_slug":"Mobridge.SD","brand":"Chrysler,Dodge,Jeep,RAM,Fiat","website":"www.beadlessales.com","address":"1404 E Grand Crossing","city":"Mobridge","state":"SD","zip":57601,"latitude":45.5374107,"longitude":-100.413313,"phone_number_service":"8664950730","phone_number_main":"6058453671","service_hours":"Mo-Fr 07:30 - 17:30","utc_offset":"-300","gplace_id":null,"gplace_url":"https://maps.google.com/?cid=14149551071612465550","dealerID":72596,"trusted":false,"image_id":"v1597283975/chrysler_RM.png","phone":"8664950730","cityStateSlug":"mobridge.sd","slug":"Mobridge.SD/beadles+sales","location":"45.5374107,-100.413313","brandsList":["chrysler","dodge","jeep","ram","fiat"]},{"id":1141,"crm_id":67068361,"name":"Beadles Chevrolet Buick GMC","dealerSlug":"beadles+chevrolet+buick+gmc","city_state_slug":"Mobridge.SD","brand":"Buick,Chevrolet,GMC","website":"www.beadlechevy.com","address":"2200 US-12","city":"Mobridge","state":"SD","zip":57601,"latitude":45.5538949,"longitude":-100.4501448,"phone_number_service":"8667719711","phone_number_main":"6058457277","service_hours":"Mo-Fr 07:30 - 17:30","utc_offset":"-300","gplace_id":null,"gplace_url":"https://maps.google.com/?cid=7616354907486423957","dealerID":72597,"trusted":false,"image_id":"v1597283981/buick_RM.png","phone":"8667719711","cityStateSlug":"mobridge.sd","slug":"Mobridge.SD/beadles+chevrolet+buick+gmc","location":"45.5538949,-100.4501448","brandsList":["buick","chevrolet","gmc"]},{"id":3949,"crm_id":67068367,"name":"Denny Menholt Toyota","dealerSlug":"denny+menholt+toyota","city_state_slug":"Rapid-City.SD","brand":"Toyota","website":"www.dennymenholttoyota.com","address":"1920 E Mall Dr","city":"Rapid City","state":"SD","zip":57701,"latitude":44.1031779,"longitude":-103.1814119,"phone_number_service":"6053422490","phone_number_main":"6053422490","service_hours":"Mo-Th 07:30 - 18:00 | Fr 07:30 - 17:30 | Sa 08:00 - 14:00","utc_offset":"-360","gplace_id":null,"gplace_url":"https://maps.google.com/?cid=605737832776342912","dealerID":72598,"trusted":false,"image_id":"v1597284039/toyota_ms.png","phone":"6053422490","cityStateSlug":"rapid-city.sd","slug":"Rapid-City.SD/denny+menholt+toyota","location":"44.1031779,-103.1814119","brandsList":["toyota"]},{"id":8806,"crm_id":67068376,"name":"Liberty Mitsubishi","dealerSlug":"liberty+mitsubishi","city_state_slug":"Rapid-City.SD","brand":"Mitsubishi","website":"www.libertymitsubishi.com","address":"600 CAMBELL","city":"Rapid City","state":"SD","zip":57701,"latitude":44.0769,"longitude":-103.1931887,"phone_number_service":"8888406799","phone_number_main":"6057216060","service_hours":"Mo-Fr 08:00 - 17:00 | Sa 08:00 - 15:00","utc_offset":"-360","gplace_id":null,"gplace_url":"https://maps.google.com/?cid=1632509071937668665","dealerID":72599,"trusted":false,"image_id":"v1597283928/mitsubishi.png","phone":"8888406799","cityStateSlug":"rapid-city.sd","slug":"Rapid-City.SD/liberty+mitsubishi","location":"44.0769,-103.1931887","brandsList":["mitsubishi"]},{"id":8809,"crm_id":67068379,"name":"Liberty Volkswagen","dealerSlug":"liberty+volkswagen","city_state_slug":"Rapid-City.SD","brand":"Volkswagen","website":"www.liberty-vw.com","address":"600 Cambell Street","city":"Rapid City","state":"SD","zip":57701,"latitude":44.0769,"longitude":-103.1931887,"phone_number_service":"8778222690","phone_number_main":"6057216060","service_hours":"Mo-Fr 08:00 - 17:00 | Sa 08:00 - 15:00","utc_offset":"-360","gplace_id":null,"gplace_url":"https://maps.google.com/?cid=1632509071937668665","dealerID":72600,"trusted":false,"image_id":"v1597283902/volkswagen.png","phone":"8778222690","cityStateSlug":"rapid-city.sd","slug":"Rapid-City.SD/liberty+volkswagen","location":"44.0769,-103.1931887","brandsList":["volkswagen"]},{"id":6396,"crm_id":67068382,"name":"Hersruds Of Belle Fourche","dealerSlug":"hersruds+of+belle+fourche","city_state_slug":"Belle-Fourche.SD","brand":"Buick,Chevrolet,GMC","website":"www.hersrudsofbellefourche.com","address":"10961 US Highway 212 West","city":"Belle Fourche","state":"SD","zip":57717,"latitude":44.6847361,"longitude":-103.8600592,"phone_number_service":"8668541714","phone_number_main":"6058928609","service_hours":"Mo-Fr 07:30 - 17:30 | Sa 08:00 - 13:00","utc_offset":"-360","gplace_id":null,"gplace_url":"https://maps.google.com/?cid=1001434307962594996","dealerID":72601,"trusted":false,"image_id":"v1597283981/buick_RM.png","phone":"8668541714","cityStateSlug":"belle-fourche.sd","slug":"Belle-Fourche.SD/hersruds+of+belle+fourche","location":"44.6847361,-103.8600592","brandsList":["buick","chevrolet","gmc"]},{"id":13454,"crm_id":67068385,"name":"Spearfish Motors","dealerSlug":"spearfish+motors","city_state_slug":"Spearfish.SD","brand":"Cadillac,GMC","website":"www.spearfishmotors.com","address":"1910 N Main St","city":"Spearfish","state":"SD","zip":57783,"latitude":44.5040399,"longitude":-103.8600592,"phone_number_service":"6056447735","phone_number_main":"6053400525","service_hours":"Mo-Fr 07:30 - 17:30 | Sa 08:00-12:00","utc_offset":"-360","gplace_id":null,"gplace_url":"https://maps.google.com/?cid=17608837341213865681","dealerID":72602,"trusted":false,"image_id":"v1597283980/cadillac.png","phone":"6056447735","cityStateSlug":"spearfish.sd","slug":"Spearfish.SD/spearfish+motors","location":"44.5040399,-103.8600592","brandsList":["cadillac","gmc"]},{"id":15460,"crm_id":67068388,"name":"White's Canyon Ford","dealerSlug":"whites+canyon+ford","city_state_slug":"Spearfish.SD","brand":"Ford","website":"www.whitescanyonford.com","address":"2751 Colorado Blvd.","city":"Spearfish","state":"SD","zip":57783,"latitude":44.4750172,"longitude":-103.8131153,"phone_number_service":"6057991094","phone_number_main":"6056424400","service_hours":"Mo-Fr  08:00 - 17:30","utc_offset":"-360","gplace_id":null,"gplace_url":"https://maps.google.com/?cid=8186598649180520618","dealerID":72603,"trusted":false,"image_id":"v1597283967/ford_RM.png","phone":"6057991094","cityStateSlug":"spearfish.sd","slug":"Spearfish.SD/whites+canyon+ford","location":"44.4750172,-103.8131153","brandsList":["ford"]},{"id":7660,"crm_id":67068391,"name":"Juneks Chrysler Jeep Dodge RAM","dealerSlug":"juneks+chrysler+jeep+dodge+ram","city_state_slug":"Spearfish.SD","brand":"Chrysler,Dodge,Jeep,RAM","website":"www.juneks.com","address":"644 W Jackson Blvd","city":"Spearfish","state":"SD","zip":57783,"latitude":44.49139,"longitude":-103.867816,"phone_number_service":"6052914078","phone_number_main":"6056447773","service_hours":"Mo-Fr 07:30 - 17:30 | Sa 07:30 - 16:00","utc_offset":"-360","gplace_id":null,"gplace_url":"https://maps.google.com/?cid=2478972399670314114","dealerID":72604,"trusted":false,"image_id":"v1597283975/chrysler_RM.png","phone":"6052914078","cityStateSlug":"spearfish.sd","slug":"Spearfish.SD/juneks+chrysler+jeep+dodge+ram","location":"44.49139,-103.867816","brandsList":["chrysler","dodge","jeep","ram"]},{"id":15271,"crm_id":81243985,"name":"Watertown Ford","dealerSlug":"watertown+ford","city_state_slug":"Watertown.SD","brand":"Ford","website":"www.watertownford.net","address":"1600 9th Ave SE","city":"Watertown","state":"SD","zip":57201,"latitude":44.8896008,"longitude":-97.0898074,"phone_number_service":"8882513546","phone_number_main":"6058865844","service_hours":"Mo-Fr 07:30 - 19:00 | Sa 08:00 - 17:00","utc_offset":"-300","gplace_id":null,"gplace_url":"https://maps.google.com/?cid=3549744205849259939","dealerID":75253,"trusted":false,"image_id":"v1597283967/ford_RM.png","phone":"8882513546","cityStateSlug":"watertown.sd","slug":"Watertown.SD/watertown+ford","location":"44.8896008,-97.0898074","brandsList":["ford"]},{"id":8793,"crm_id":85599040,"name":"Liberty Chrysler Jeep Fiat","dealerSlug":"liberty+chrysler+jeep+fiat","city_state_slug":"Rapid-City.SD","brand":"Chrysler,Dodge,Jeep,RAM,Fiat","website":"www.libertychryslercenter.com","address":"1101 E Omaha St","city":"Rapid City","state":"SD","zip":57701,"latitude":44.0807788,"longitude":-103.1926499,"phone_number_service":"8003634386","phone_number_main":"6055195902","service_hours":"Mo-Fr 07:00 - 17:30 | Sa 08:00 - 15:00","utc_offset":"-360","gplace_id":null,"gplace_url":"https://maps.google.com/?cid=15984354611373443313","dealerID":75348,"trusted":false,"image_id":"v1597283975/chrysler_RM.png","phone":"8003634386","cityStateSlug":"rapid-city.sd","slug":"Rapid-City.SD/liberty+chrysler+jeep+fiat","location":"44.0807788,-103.1926499","brandsList":["chrysler","dodge","jeep","ram","fiat"]}]