[{"id":17147,"crm_id":999,"name":"Murdock Volkswagen of Logan","dealerSlug":"murdock+volkswagen+of+logan","city_state_slug":"Logan.UT","brand":"Volkswagen","website":"","address":"3181 N Main St","city":"Logan","state":"UT","zip":84341,"latitude":41.7907,"longitude":-111.835,"phone_number_service":"3095432224","phone_number_main":"","service_hours":"","utc_offset":"","gplace_id":0,"gplace_url":"","dealerID":60105,"trusted":false,"image_id":"v1597283902/volkswagen.png","phone":"3095432224","cityStateSlug":"logan.ut","slug":"Logan.UT/murdock+volkswagen+of+logan","location":"41.7907,-111.835","brandsList":["volkswagen"]},{"id":16847,"crm_id":999,"name":"L & L Motor Company","dealerSlug":"l+and+l+motor+company","city_state_slug":"Roosevelt.UT","brand":"Chrysler,Dodge,Jeep,RAM","website":"www.llmotor.net","address":"191 North 200 East","city":"Roosevelt","state":"UT","zip":84066,"latitude":40.302044,"longitude":-109.989008,"phone_number_service":"4357222233","phone_number_main":"","service_hours":"Mo-Fr 08:00 - 18:00 | Sa 10:00 - 16:00 | Su Closed","utc_offset":"","gplace_id":0,"gplace_url":"","dealerID":60138,"trusted":false,"image_id":"v1597283975/chrysler_RM.png","phone":"4357222233","cityStateSlug":"roosevelt.ut","slug":"Roosevelt.UT/l+and+l+motor+company","location":"40.302044,-109.989008","brandsList":["chrysler","dodge","jeep","ram"]},{"id":16846,"crm_id":999,"name":"L & L Motor Co.","dealerSlug":"l+and+l+motor+co","city_state_slug":"Roosevelt.UT","brand":"Ford","website":"www.llmotorcoinc.com","address":"193 East 200 North","city":"Roosevelt","state":"UT","zip":84066,"latitude":40.302139,"longitude":-109.989268,"phone_number_service":"4357222233","phone_number_main":"","service_hours":"Mo-Fr 08:00 - 17:30 | Sa 08:00 - 12:00 | Su Closed","utc_offset":"","gplace_id":0,"gplace_url":"","dealerID":60139,"trusted":false,"image_id":"v1597283967/ford_RM.png","phone":"4357222233","cityStateSlug":"roosevelt.ut","slug":"Roosevelt.UT/l+and+l+motor+co","location":"40.302139,-109.989268","brandsList":["ford"]},{"id":16408,"crm_id":999,"name":"Findlay Subaru","dealerSlug":"findlay+subaru","city_state_slug":"Saint-George.UT","brand":"Subaru","website":"FindlaySubaruStGeorge.dealer.subaru.com","address":"1453 Sunland Dr","city":"Saint George","state":"UT","zip":84790,"latitude":37.083525,"longitude":-113.580305,"phone_number_service":"7063466891","phone_number_main":"","service_hours":"","utc_offset":"","gplace_id":0,"gplace_url":"","dealerID":60212,"trusted":false,"image_id":"v1597283982/subaru_ms.png","phone":"7063466891","cityStateSlug":"saint-george.ut","slug":"Saint-George.UT/findlay+subaru","location":"37.083525,-113.580305","brandsList":["subaru"]},{"id":16789,"crm_id":999,"name":"Jorgensen Ford","dealerSlug":"jorgensen+ford","city_state_slug":"Richfield.UT","brand":"Ford","website":"www.jorgford.com","address":"1000 South Cove View Rd","city":"Richfield","state":"UT","zip":84701,"latitude":38.753627,"longitude":-112.089064,"phone_number_service":"4358968436","phone_number_main":"","service_hours":"Mo-Fr 08:00 - 18:00 | Sa 09:00 - 17:00 | Su Closed","utc_offset":"","gplace_id":0,"gplace_url":"","dealerID":60396,"trusted":false,"image_id":"v1597283967/ford_RM.png","phone":"4358968436","cityStateSlug":"richfield.ut","slug":"Richfield.UT/jorgensen+ford","location":"38.753627,-112.089064","brandsList":["ford"]},{"id":16597,"crm_id":999,"name":"Heritage Motor Company of Tremonton","dealerSlug":"heritage+motor+company+of+tremonton","city_state_slug":"Tremonton.UT","brand":"Chrysler,Dodge,Jeep,RAM","website":"www.heritageautotremonton.com","address":"101 N 300 E","city":"Tremonton","state":"UT","zip":84337,"latitude":41.713149,"longitude":-112.162093,"phone_number_service":"4352575221","phone_number_main":"","service_hours":"Mo-Sa 09:00 - 18:00 | Su Closed","utc_offset":"","gplace_id":0,"gplace_url":"","dealerID":60416,"trusted":false,"image_id":"v1597283975/chrysler_RM.png","phone":"4352575221","cityStateSlug":"tremonton.ut","slug":"Tremonton.UT/heritage+motor+company+of+tremonton","location":"41.713149,-112.162093","brandsList":["chrysler","dodge","jeep","ram"]},{"id":16598,"crm_id":999,"name":"Heritage Motor Company of Tremonton","dealerSlug":"heritage+motor+company+of+tremonton","city_state_slug":"Tremonton.UT","brand":"Ford","website":"www.heritagemotorcoford.com","address":"101 North 300 East","city":"Tremonton","state":"UT","zip":84337,"latitude":41.713177,"longitude":-112.161822,"phone_number_service":"8009001191","phone_number_main":"","service_hours":"Mo-Fr 09:00 - 19:00 | Sa 09:00 - 18:00 | Su Closed","utc_offset":"","gplace_id":0,"gplace_url":"","dealerID":60417,"trusted":false,"image_id":"v1597283967/ford_RM.png","phone":"8009001191","cityStateSlug":"tremonton.ut","slug":"Tremonton.UT/heritage+motor+company+of+tremonton","location":"41.713177,-112.161822","brandsList":["ford"]},{"id":17032,"crm_id":999,"name":"Mercedes-Benz of Draper","dealerSlug":"mercedes+benz+of+draper","city_state_slug":"Draper.UT","brand":"Mercedes-Benz","website":"www.mbdraper.com","address":"11548 S. Lone Peak Parkway","city":"Draper","state":"UT","zip":84020,"latitude":40.5415438,"longitude":-111.9010844,"phone_number_service":"8012224400","phone_number_main":"8888797961","service_hours":"","utc_offset":"","gplace_id":0,"gplace_url":"","dealerID":60527,"trusted":false,"image_id":"v1597283934/mercedes_RM.png","phone":"8012224400","cityStateSlug":"draper.ut","slug":"Draper.UT/mercedes+benz+of+draper","location":"40.5415438,-111.9010844","brandsList":["mercedes-benz"]},{"id":16322,"crm_id":999,"name":"Doug Smith Chrysler Dodge Jeep RAM","dealerSlug":"doug+smith+chrysler+dodge+jeep+ram","city_state_slug":"Spanish-Fork.UT","brand":"Chrysler,Dodge,Jeep,RAM","website":"www.dougsmithchryslerdodgejeepramspanishfork.com","address":"1339 North Main Street","city":"Spanish Fork","state":"UT","zip":84660,"latitude":40.126321,"longitude":-111.656153,"phone_number_service":"8018413131","phone_number_main":"","service_hours":"Mo-Fr 09:00 - 20:00 | Sa 09:00 - 19:00 | Su Closed","utc_offset":"","gplace_id":0,"gplace_url":"","dealerID":60610,"trusted":false,"image_id":"v1597283975/chrysler_RM.png","phone":"8018413131","cityStateSlug":"spanish-fork.ut","slug":"Spanish-Fork.UT/doug+smith+chrysler+dodge+jeep+ram","location":"40.126321,-111.656153","brandsList":["chrysler","dodge","jeep","ram"]},{"id":16407,"crm_id":999,"name":"Findlay Hyundai","dealerSlug":"findlay+hyundai","city_state_slug":"Saint-George.UT","brand":"Hyundai","website":"www.findlayhyundaistgeorge.com","address":"1405 S Sunland Drive","city":"Saint George","state":"UT","zip":84790,"latitude":37.0839042,"longitude":-113.5811103,"phone_number_service":"4356887272","phone_number_main":"","service_hours":"Mo-Fr 07:30 - 18:00 | Sa 08:00 - 16:00","utc_offset":"","gplace_id":0,"gplace_url":"","dealerID":60630,"trusted":false,"image_id":"v1597283959/hyundai_RM.png","phone":"4356887272","cityStateSlug":"saint-george.ut","slug":"Saint-George.UT/findlay+hyundai","location":"37.0839042,-113.5811103","brandsList":["hyundai"]},{"id":17589,"crm_id":999,"name":"Stephen Wade Auto Center","dealerSlug":"stephen+wade+auto+center","city_state_slug":"Saint-George.UT","brand":"Chrysler,Dodge,Jeep,RAM","website":"www.stephenwadechryslerdodgejeep.com","address":"1724 Hilton Dr","city":"Saint George","state":"UT","zip":84770,"latitude":37.077217,"longitude":-113.587498,"phone_number_service":"4356344220","phone_number_main":"","service_hours":"Mo-Sa 08:30 - 20:00 | Su Closed","utc_offset":"","gplace_id":0,"gplace_url":"","dealerID":60743,"trusted":false,"image_id":"v1597283975/chrysler_RM.png","phone":"4356344220","cityStateSlug":"saint-george.ut","slug":"Saint-George.UT/stephen+wade+auto+center","location":"37.077217,-113.587498","brandsList":["chrysler","dodge","jeep","ram"]},{"id":16593,"crm_id":999,"name":"Heritage Ford of Vernal","dealerSlug":"heritage+ford+of+vernal","city_state_slug":"Vernal.UT","brand":"Ford","website":"www.heritagefordofvernal.com","address":"333 West Main Street","city":"Vernal","state":"UT","zip":84078,"latitude":40.455537,"longitude":-109.535754,"phone_number_service":"4357893818","phone_number_main":"","service_hours":"Mo-Fr 09:00 - 19:00 | Sa 09:00 - 18:00 | Su Closed","utc_offset":"","gplace_id":0,"gplace_url":"","dealerID":61155,"trusted":false,"image_id":"v1597283967/ford_RM.png","phone":"4357893818","cityStateSlug":"vernal.ut","slug":"Vernal.UT/heritage+ford+of+vernal","location":"40.455537,-109.535754","brandsList":["ford"]},{"id":17900,"crm_id":999,"name":"Young Hyundai","dealerSlug":"young+hyundai","city_state_slug":"Ogden.UT","brand":"Hyundai","website":"www.younghyundaiutah.com","address":"3333 Wall Ave.","city":"Ogden","state":"UT","zip":84401,"latitude":41.2231225,"longitude":-111.9737732,"phone_number_service":"8013941721","phone_number_main":"","service_hours":"Mo-Fr 07:00 - 18:00 | Sa 08:00 - 17:00","utc_offset":"","gplace_id":0,"gplace_url":"","dealerID":61157,"trusted":false,"image_id":"v1597283959/hyundai_RM.png","phone":"8013941721","cityStateSlug":"ogden.ut","slug":"Ogden.UT/young+hyundai","location":"41.2231225,-111.9737732","brandsList":["hyundai"]},{"id":17899,"crm_id":999,"name":"Young Ford","dealerSlug":"young+ford","city_state_slug":"Morgan.UT","brand":"Ford","website":"www.youngfordutah.com","address":"570 East 525 North","city":"Morgan","state":"UT","zip":84050,"latitude":41.049364,"longitude":-111.678584,"phone_number_service":"8018293447","phone_number_main":"","service_hours":"Mo-Fr 09:00 - 19:00 | Sa 09:00 - 18:00 | Su Closed","utc_offset":"","gplace_id":0,"gplace_url":"","dealerID":61413,"trusted":false,"image_id":"v1597283967/ford_RM.png","phone":"8018293447","cityStateSlug":"morgan.ut","slug":"Morgan.UT/young+ford","location":"41.049364,-111.678584","brandsList":["ford"]},{"id":17324,"crm_id":999,"name":"Price Ford","dealerSlug":"price+ford","city_state_slug":"Price.UT","brand":"Ford","website":"www.pricefordsales.com","address":"811 Westwood Blvd.","city":"Price","state":"UT","zip":84501,"latitude":39.600904,"longitude":-110.829476,"phone_number_service":"4356371972","phone_number_main":"","service_hours":"Mo-Fr 08:30 - 18:00 | Sa 09:00 - 16:00 | Su Closed","utc_offset":"","gplace_id":0,"gplace_url":"","dealerID":61603,"trusted":false,"image_id":"v1597283967/ford_RM.png","phone":"4356371972","cityStateSlug":"price.ut","slug":"Price.UT/price+ford","location":"39.600904,-110.829476","brandsList":["ford"]},{"id":7688,"crm_id":51926218,"name":"Karl Malone Toyota","dealerSlug":"karl+malone+toyota","city_state_slug":"Draper.UT","brand":"Toyota","website":"www.malonetoyota.com","address":"11453 S. Lone Peak Pkwy","city":"Draper","state":"UT","zip":84020,"latitude":40.5431347,"longitude":-111.8970435,"phone_number_service":"8015535850","phone_number_main":"8013053966","service_hours":"Mo-Sa 07:00 - 18:00","utc_offset":"-360","gplace_id":null,"gplace_url":"https://maps.google.com/?cid=12923682465314475112","dealerID":62115,"trusted":false,"image_id":"v1597284039/toyota_ms.png","phone":"8015535850","cityStateSlug":"draper.ut","slug":"Draper.UT/karl+malone+toyota","location":"40.5431347,-111.8970435","brandsList":["toyota"]},{"id":10584,"crm_id":51927022,"name":"National Buick GMC","dealerSlug":"national+buick+gmc","city_state_slug":"American-Fork.UT","brand":"Buick,GMC","website":"nationalbuickgmc.com","address":"629 E 1000 S","city":"American Fork","state":"UT","zip":84003,"latitude":40.3566338,"longitude":-111.7809967,"phone_number_service":"8888714150","phone_number_main":"8888875041","service_hours":"Mo-Fr 08:00 - 18:00 | Sa 09:00 - 16:00","utc_offset":"-360","gplace_id":null,"gplace_url":"https://maps.google.com/?cid=8352222781561846835","dealerID":62180,"trusted":false,"image_id":"v1597283981/buick_RM.png","phone":"8888714150","cityStateSlug":"american-fork.ut","slug":"American-Fork.UT/national+buick+gmc","location":"40.3566338,-111.7809967","brandsList":["buick","gmc"]},{"id":8465,"crm_id":51927178,"name":"Larry H. Miller Super Ford Salt Lake City","dealerSlug":"larry+h+miller+super+ford+salt+lake+city","city_state_slug":"Salt-Lake-City.UT","brand":"Ford","website":"www.lhmford.com","address":"1340 500 W","city":"Salt Lake City","state":"UT","zip":84115,"latitude":40.7403179,"longitude":-111.9065773,"phone_number_service":"8883785967","phone_number_main":"8017834473","service_hours":"Mo-Fr 07:00 - 18:00 | Sa 08:00 - 14:00","utc_offset":"-360","gplace_id":null,"gplace_url":"https://maps.google.com/?cid=7728696607634787930","dealerID":62188,"trusted":false,"image_id":"v1597283967/ford_RM.png","phone":"8883785967","cityStateSlug":"salt-lake-city.ut","slug":"Salt-Lake-City.UT/larry+h+miller+super+ford+salt+lake+city","location":"40.7403179,-111.9065773","brandsList":["ford"]},{"id":7330,"crm_id":53175757,"name":"Jerry Seiner Cadillac","dealerSlug":"jerry+seiner+cadillac","city_state_slug":"Salt-Lake-City.UT","brand":"Cadillac","website":"www.jerryseinercadillac.com/","address":"1530 500 W","city":"Salt Lake City","state":"UT","zip":84115,"latitude":40.7373867,"longitude":-111.9068443,"phone_number_service":"3852824954","phone_number_main":"8885108570","service_hours":"Mo-Fr 07:00-19:00 | Sa 08:00-17:00","utc_offset":"-360","gplace_id":null,"gplace_url":"https://maps.google.com/?cid=2351354808705792215","dealerID":62267,"trusted":false,"image_id":"v1597283980/cadillac.png","phone":"3852824954","cityStateSlug":"salt-lake-city.ut","slug":"Salt-Lake-City.UT/jerry+seiner+cadillac","location":"40.7373867,-111.9068443","brandsList":["cadillac"]},{"id":15065,"crm_id":59601019,"name":"Volkswagen SouthTowne","dealerSlug":"volkswagen+southtowne","city_state_slug":"South-Jordan.UT","brand":"Volkswagen","website":"www.vwsouthtowne.com","address":"11000 South 290 West","city":"South Jordan","state":"UT","zip":84095,"latitude":40.5539551,"longitude":-111.8981094,"phone_number_service":"8019885806","phone_number_main":"8019885814","service_hours":"Mo-Fr 07:30 - 18:00 | Sa 08:00-17:00","utc_offset":"-360","gplace_id":null,"gplace_url":"https://maps.google.com/?cid=3042843284306440323","dealerID":62413,"trusted":false,"image_id":"v1597283902/volkswagen.png","phone":"8019885806","cityStateSlug":"south-jordan.ut","slug":"South-Jordan.UT/volkswagen+southtowne","location":"40.5539551,-111.8981094","brandsList":["volkswagen"]},{"id":10654,"crm_id":59601040,"name":"Newby Buick GMC","dealerSlug":"newby+buick+gmc","city_state_slug":"Saint-George.UT","brand":"Buick,Chevrolet","website":"www.newbybuick.com","address":"1629 S Convention Center Dr","city":"Saint George","state":"UT","zip":84790,"latitude":37.0802336,"longitude":-113.5817482,"phone_number_service":"4356731100","phone_number_main":"4356731100","service_hours":"Mo-Fr 07:30 - 17:30 | Sa 08:00 - 13:00","utc_offset":"-360","gplace_id":null,"gplace_url":"https://maps.google.com/?cid=12340906600163755950","dealerID":62418,"trusted":false,"image_id":"v1597283981/buick_RM.png","phone":"4356731100","cityStateSlug":"saint-george.ut","slug":"Saint-George.UT/newby+buick+gmc","location":"37.0802336,-113.5817482","brandsList":["buick","chevrolet"]},{"id":7793,"crm_id":60526822,"name":"Ken Garff West Valley Chrysler Jeep Dodge RAM FIAT","dealerSlug":"ken+garff+west+valley+chrysler+jeep+dodge+ram+fiat","city_state_slug":"West-Valley-City.UT","brand":"Chrysler,Dodge,Jeep,RAM,Fiat","website":"www.dodgehq.com","address":"4175 W 3500 S","city":"West Valley City","state":"UT","zip":84120,"latitude":40.6953278,"longitude":-111.9906694,"phone_number_service":"8019387993","phone_number_main":"8443537052","service_hours":"Mo-Fr 07:00-18:00 | Sa 08:00-16:00","utc_offset":"-360","gplace_id":null,"gplace_url":"https://maps.google.com/?cid=15270208454722834074","dealerID":62461,"trusted":false,"image_id":"v1597283975/chrysler_RM.png","phone":"8019387993","cityStateSlug":"west-valley-city.ut","slug":"West-Valley-City.UT/ken+garff+west+valley+chrysler+jeep+dodge+ram+fiat","location":"40.6953278,-111.9906694","brandsList":["chrysler","dodge","jeep","ram","fiat"]},{"id":9728,"crm_id":64254835,"name":"Mercedes-Benz of Farmington","dealerSlug":"mercedes+benz+of+farmington","city_state_slug":"Farmington.UT","brand":"Mercedes-Benz","website":"www.mercedesfarmington.com","address":"555 N. West Bourne Circle","city":"Farmington","state":"UT","zip":84025,"latitude":40.9924058,"longitude":-111.8997269,"phone_number_service":"8016574134","phone_number_main":"8014516300","service_hours":"Mo  -  | Tu 08:00 - 18:00 | We 08:00 - 18:00 | Th 08:00 - 18:00 | Fr 08:00 - 18:00 | Sa 08:00 - 18:00","utc_offset":"-360","gplace_id":null,"gplace_url":"https://maps.google.com/?cid=10304853767588488348","dealerID":50289,"trusted":true,"image_id":"v1597283934/mercedes_RM.png","phone":"8016574134","cityStateSlug":"farmington.ut","slug":"Farmington.UT/mercedes+benz+of+farmington","location":"40.9924058,-111.8997269","brandsList":["mercedes-benz"]},{"id":8433,"crm_id":65373940,"name":"Larry H. Miller Chrysler Jeep Dodge RAM Sandy","dealerSlug":"larry+h+miller+chrysler+jeep+dodge+ram+sandy","city_state_slug":"Sandy.UT","brand":"Chrysler,Dodge,Jeep,RAM","website":"www.lhmchryslerjeep.com","address":"10905 Auto Mall Dr","city":"Sandy","state":"UT","zip":84070,"latitude":40.5531693,"longitude":-111.8931892,"phone_number_service":"8013364676","phone_number_main":"8015900465","service_hours":"Mo-Fr 07:00 - 18:00 | Sa 07:00 - 17:00","utc_offset":"-360","gplace_id":null,"gplace_url":"https://maps.google.com/?cid=15894366596870576054","dealerID":62622,"trusted":false,"image_id":"v1597283975/chrysler_RM.png","phone":"8013364676","cityStateSlug":"sandy.ut","slug":"Sandy.UT/larry+h+miller+chrysler+jeep+dodge+ram+sandy","location":"40.5531693,-111.8931892","brandsList":["chrysler","dodge","jeep","ram"]},{"id":8424,"crm_id":67031941,"name":"Larry H. Miller Chevrolet","dealerSlug":"larry+h+miller+chevrolet","city_state_slug":"Murray.UT","brand":"Chevrolet","website":"www.larryhmillerchevrolet.com","address":"5500 S State Street","city":"Murray","state":"UT","zip":84107,"latitude":40.6517321,"longitude":-111.8898001,"phone_number_service":"8012643300","phone_number_main":"8015900435","service_hours":"Mo-Fr 07:00 - 18:00 | Sa 07:00 - 16:00","utc_offset":"-360","gplace_id":null,"gplace_url":"https://maps.google.com/?cid=14063234706349097440","dealerID":62739,"trusted":false,"image_id":"v1597284079/chevy_ms.png","phone":"8012643300","cityStateSlug":"murray.ut","slug":"Murray.UT/larry+h+miller+chevrolet","location":"40.6517321,-111.8898001","brandsList":["chevrolet"]},{"id":7784,"crm_id":67031971,"name":"Ken Garff Honda Riverdale","dealerSlug":"ken+garff+honda+riverdale","city_state_slug":"Ogden.UT","brand":"Honda","website":"www.kengarffhondariverdale.com","address":"950 W Riverdale Rd","city":"Ogden","state":"UT","zip":84405,"latitude":41.1780875,"longitude":-112.0027663,"phone_number_service":"8017814730","phone_number_main":"8015286020","service_hours":"Mo-Fr 07:00 - 18:00 | Sa 08:00 - 17:00","utc_offset":"-360","gplace_id":null,"gplace_url":"https://maps.google.com/?cid=8031101722585850816","dealerID":62747,"trusted":false,"image_id":"v1597284047/honda_ms.png","phone":"8017814730","cityStateSlug":"ogden.ut","slug":"Ogden.UT/ken+garff+honda+riverdale","location":"41.1780875,-112.0027663","brandsList":["honda"]},{"id":14259,"crm_id":67032397,"name":"Tim Dahle Nissan MURRAY","dealerSlug":"tim+dahle+nissan+murray","city_state_slug":"Murray.UT","brand":"Nissan","website":"www.timdahlemurray.com","address":"4528 S State St","city":"Murray","state":"UT","zip":84107,"latitude":40.672936,"longitude":-111.889453,"phone_number_service":"8012900330","phone_number_main":"8018538002","service_hours":"Mo-Fr 07:00 - 18:00 | Sa 07:00 - 16:00","utc_offset":"-360","gplace_id":null,"gplace_url":"https://maps.google.com/?cid=3099743066095229244","dealerID":62868,"trusted":false,"image_id":"v1597283926/nissan_RM.png","phone":"8012900330","cityStateSlug":"murray.ut","slug":"Murray.UT/tim+dahle+nissan+murray","location":"40.672936,-111.889453","brandsList":["nissan"]},{"id":10014,"crm_id":67032997,"name":"Mike Hale Acura","dealerSlug":"mike+hale+acura","city_state_slug":"Murray.UT","brand":"Acura","website":"www.mikehaleacura.com","address":"5601 State St","city":"Murray","state":"UT","zip":84107,"latitude":40.648599,"longitude":-111.8878143,"phone_number_service":"8012630202","phone_number_main":"8012630202","service_hours":"Mo-Fr 07:30 - 18:00 | Sa 07:30 - 17:00","utc_offset":"-360","gplace_id":null,"gplace_url":"https://maps.google.com/?cid=4246810854667054234","dealerID":63038,"trusted":false,"image_id":"v1597283988/acura.png","phone":"8012630202","cityStateSlug":"murray.ut","slug":"Murray.UT/mike+hale+acura","location":"40.648599,-111.8878143","brandsList":["acura"]},{"id":10015,"crm_id":67033066,"name":"Mike Hale Chevrolet","dealerSlug":"mike+hale+chevrolet","city_state_slug":"Park-City.UT","brand":"Chevrolet","website":"www.mikehalechevrolet.com","address":"2190 Rasmussen Rd","city":"Park City","state":"UT","zip":84098,"latitude":40.736427,"longitude":-111.553258,"phone_number_service":"8668035902","phone_number_main":"4352004492","service_hours":"Mo-Fr 08:00 - 18:00","utc_offset":"-360","gplace_id":null,"gplace_url":"https://maps.google.com/?cid=11868234032499811325","dealerID":63054,"trusted":false,"image_id":"v1597284079/chevy_ms.png","phone":"8668035902","cityStateSlug":"park-city.ut","slug":"Park-City.UT/mike+hale+chevrolet","location":"40.736427,-111.553258","brandsList":["chevrolet"]},{"id":9269,"crm_id":67033465,"name":"Mark Miller Toyota","dealerSlug":"mark+miller+toyota","city_state_slug":"Salt-Lake-City.UT","brand":"Toyota","website":"www.markmillertoyota.com","address":"730 S W Temple","city":"Salt Lake City","state":"UT","zip":84101,"latitude":40.7532439,"longitude":-111.8946963,"phone_number_service":"8558029302","phone_number_main":"8013642100","service_hours":"Mo-Fr 07:00 - 19:00 | Sa 08:00 - 17:00","utc_offset":"-360","gplace_id":null,"gplace_url":"https://maps.google.com/?cid=2305562876878839186","dealerID":63165,"trusted":false,"image_id":"v1597284039/toyota_ms.png","phone":"8558029302","cityStateSlug":"salt-lake-city.ut","slug":"Salt-Lake-City.UT/mark+miller+toyota","location":"40.7532439,-111.8946963","brandsList":["toyota"]},{"id":11735,"crm_id":67033594,"name":"Porsche Salt Lake City","dealerSlug":"porsche+salt+lake+city","city_state_slug":"Salt-Lake-City.UT","brand":"Porsche","website":"www.porschesaltlakecity.com","address":"1045 State St","city":"Salt Lake City","state":"UT","zip":84111,"latitude":40.7463748,"longitude":-111.8877398,"phone_number_service":"8015319900","phone_number_main":"8015319900","service_hours":"Mo-Fr 07:30 - 18:00","utc_offset":"-360","gplace_id":null,"gplace_url":"https://maps.google.com/?cid=15239883429698010619","dealerID":63197,"trusted":false,"image_id":"v1597283919/porsche.jpg","phone":"8015319900","cityStateSlug":"salt-lake-city.ut","slug":"Salt-Lake-City.UT/porsche+salt+lake+city","location":"40.7463748,-111.8877398","brandsList":["porsche"]},{"id":6084,"crm_id":67033681,"name":"Hansen Motor Company","dealerSlug":"hansen+motor+company","city_state_slug":"Brigham-City.UT","brand":"Buick,Chevrolet,GMC","website":"www.hansenmotors.com","address":"1175 S Commerce Way","city":"Brigham City","state":"UT","zip":84302,"latitude":41.48554,"longitude":-112.027529,"phone_number_service":"8772983924","phone_number_main":"4357235255","service_hours":"Mo-Fr 08:00 - 17:30 | Sa 08:00 - 14:00","utc_offset":"-360","gplace_id":null,"gplace_url":"https://maps.google.com/?cid=4675841214601640521","dealerID":63224,"trusted":false,"image_id":"v1597283981/buick_RM.png","phone":"8772983924","cityStateSlug":"brigham-city.ut","slug":"Brigham-City.UT/hansen+motor+company","location":"41.48554,-112.027529","brandsList":["buick","chevrolet","gmc"]},{"id":13741,"crm_id":67034068,"name":"Strong Volkswagen","dealerSlug":"strong+volkswagen","city_state_slug":"Salt-Lake-City.UT","brand":"Volkswagen","website":"www.strongvw.com","address":"1070 S Main St","city":"Salt Lake City","state":"UT","zip":84101,"latitude":40.7458458,"longitude":-111.8918385,"phone_number_service":"8015962200","phone_number_main":"8015962200","service_hours":"Mo-Fr 07:30 - 18:00 | Sa 08:00-14:00","utc_offset":"-360","gplace_id":null,"gplace_url":"https://maps.google.com/?cid=13834251800629817942","dealerID":63334,"trusted":false,"image_id":"v1597283902/volkswagen.png","phone":"8015962200","cityStateSlug":"salt-lake-city.ut","slug":"Salt-Lake-City.UT/strong+volkswagen","location":"40.7458458,-111.8918385","brandsList":["volkswagen"]},{"id":15733,"crm_id":67034218,"name":"Young Honda","dealerSlug":"young+honda","city_state_slug":"Logan.UT","brand":"Honda","website":"www.younghonda.com","address":"1855 North Main Street","city":"Logan","state":"UT","zip":84341,"latitude":41.766341,"longitude":-111.835338,"phone_number_service":"4352131218","phone_number_main":"4352220589","service_hours":"Mo-Fr 08:00 - 18:00 | Sa 08:00 - 17:00","utc_offset":"-360","gplace_id":null,"gplace_url":"https://maps.google.com/?cid=15994868638084502252","dealerID":63372,"trusted":false,"image_id":"v1597284047/honda_ms.png","phone":"4352131218","cityStateSlug":"logan.ut","slug":"Logan.UT/young+honda","location":"41.766341,-111.835338","brandsList":["honda"]},{"id":15737,"crm_id":67034221,"name":"Young Toyota","dealerSlug":"young+toyota","city_state_slug":"Logan.UT","brand":"Toyota","website":"www.youngtoyota.com","address":"1945 Main St","city":"Logan","state":"UT","zip":84341,"latitude":41.767223,"longitude":-111.835346,"phone_number_service":"4352134028","phone_number_main":"4352134239","service_hours":"Mo-Fr 08:00 - 18:00 | Sa 08:00 - 17:00","utc_offset":"-360","gplace_id":null,"gplace_url":"https://maps.google.com/?cid=18372194855106677598","dealerID":63373,"trusted":false,"image_id":"v1597284039/toyota_ms.png","phone":"4352134028","cityStateSlug":"logan.ut","slug":"Logan.UT/young+toyota","location":"41.767223,-111.835346","brandsList":["toyota"]},{"id":7779,"crm_id":67034263,"name":"Ken Garff Buick GMC","dealerSlug":"ken+garff+buick+gmc","city_state_slug":"Ogden.UT","brand":"Buick,GMC","website":"www.kengarffgm.com","address":"900 W Riverdale Rd","city":"Ogden","state":"UT","zip":84405,"latitude":41.1786133,"longitude":-112.0023659,"phone_number_service":"8016276730","phone_number_main":"8016276730","service_hours":"Mo-Fr 07:30 - 17:00 | Sa 08:00 - 15:00","utc_offset":"-360","gplace_id":null,"gplace_url":"https://maps.google.com/?cid=10292604508004057616","dealerID":63384,"trusted":false,"image_id":"v1597283981/buick_RM.png","phone":"8016276730","cityStateSlug":"ogden.ut","slug":"Ogden.UT/ken+garff+buick+gmc","location":"41.1786133,-112.0023659","brandsList":["buick","gmc"]},{"id":4385,"crm_id":67034392,"name":"Ed Kenley Ford","dealerSlug":"ed+kenley+ford","city_state_slug":"Layton.UT","brand":"Ford","website":"www.edkenleyford.net","address":"1888 N Main St","city":"Layton","state":"UT","zip":84041,"latitude":41.0870246,"longitude":-111.9980847,"phone_number_service":"8665296989","phone_number_main":"8017764201","service_hours":"Mo-Fr 07:30 - 18:00","utc_offset":"-360","gplace_id":null,"gplace_url":"https://maps.google.com/?cid=1885514245185043272","dealerID":63420,"trusted":false,"image_id":"v1597283967/ford_RM.png","phone":"8665296989","cityStateSlug":"layton.ut","slug":"Layton.UT/ed+kenley+ford","location":"41.0870246,-111.9980847","brandsList":["ford"]},{"id":2696,"crm_id":67034488,"name":"Cedar City Chrysler Dodge Jeep RAM","dealerSlug":"cedar+city+chrysler+dodge+jeep+ram","city_state_slug":"Cedar-City.UT","brand":"Chrysler,Dodge,Jeep,RAM","website":"www.cedarcitychryslerdodgejeepram.com","address":"1010 N Main St","city":"Cedar City","state":"UT","zip":84721,"latitude":37.6949608,"longitude":-113.0618843,"phone_number_service":"4355656359","phone_number_main":"8338314434","service_hours":"Mo-Fr 07:30 - 18:00 | Sa 08:00 - 16:00","utc_offset":"-360","gplace_id":null,"gplace_url":"https://maps.google.com/?cid=12507836401696717641","dealerID":63449,"trusted":false,"image_id":"v1597283975/chrysler_RM.png","phone":"4355656359","cityStateSlug":"cedar-city.ut","slug":"Cedar-City.UT/cedar+city+chrysler+dodge+jeep+ram","location":"37.6949608,-113.0618843","brandsList":["chrysler","dodge","jeep","ram"]},{"id":4202,"crm_id":67035280,"name":"Doug Smith Kia","dealerSlug":"doug+smith+kia","city_state_slug":"American-Fork.UT","brand":"Kia","website":"www.dougsmithkia.com","address":"495 W Main St","city":"American Fork","state":"UT","zip":84003,"latitude":40.3763455,"longitude":-111.8113969,"phone_number_service":"8018471057","phone_number_main":"8016924390","service_hours":"Mo-Fr 07:00 - 18:00 | Sa 07:00 - 16:00","utc_offset":"-360","gplace_id":null,"gplace_url":"https://maps.google.com/?cid=803491910220230073","dealerID":63664,"trusted":false,"image_id":"v1597283948/kia_RM.png","phone":"8018471057","cityStateSlug":"american-fork.ut","slug":"American-Fork.UT/doug+smith+kia","location":"40.3763455,-111.8113969","brandsList":["kia"]},{"id":11019,"crm_id":67035592,"name":"Orem Mazda","dealerSlug":"orem+mazda","city_state_slug":"Orem.UT","brand":"Mazda","website":"www.oremmazda.com","address":"55 E University Pkwy","city":"Orem","state":"UT","zip":84058,"latitude":40.2742129,"longitude":-111.6934973,"phone_number_service":"8018572081","phone_number_main":"8012268555","service_hours":"Mo-Fr 07:30 - 18:00 | Sa 08:00 - 17:00","utc_offset":"-360","gplace_id":null,"gplace_url":"https://maps.google.com/?cid=356121582330511555","dealerID":63750,"trusted":false,"image_id":"v1597283937/mazda.png","phone":"8018572081","cityStateSlug":"orem.ut","slug":"Orem.UT/orem+mazda","location":"40.2742129,-111.6934973","brandsList":["mazda"]},{"id":15731,"crm_id":67035742,"name":"Young Ford of Brigham City","dealerSlug":"young+ford+of+brigham+city","city_state_slug":"Brigham-City.UT","brand":"Ford","website":"www.youngfordbrigham.com","address":"323 S Main St","city":"Brigham City","state":"UT","zip":84302,"latitude":41.5041778,"longitude":-112.015534,"phone_number_service":"4352134035","phone_number_main":"4352131964","service_hours":"Mo-Fr 08:00 - 18:00 | Sa 08:00 - 17:00","utc_offset":"-360","gplace_id":null,"gplace_url":"https://maps.google.com/?cid=3664015573155356915","dealerID":63796,"trusted":false,"image_id":"v1597283967/ford_RM.png","phone":"4352134035","cityStateSlug":"brigham-city.ut","slug":"Brigham-City.UT/young+ford+of+brigham+city","location":"41.5041778,-112.015534","brandsList":["ford"]},{"id":4200,"crm_id":67036078,"name":"Doug Smith Chevrolet","dealerSlug":"doug+smith+chevrolet","city_state_slug":"Spanish-Fork.UT","brand":"Chevrolet","website":"www.dougsmithchevrolet.com","address":"1341 N Main St","city":"Spanish Fork","state":"UT","zip":84660,"latitude":40.1268471,"longitude":-111.6559649,"phone_number_service":"8018045972","phone_number_main":"8018413131","service_hours":"Mo-Fr 07:30 - 18:00 | Sa 09:00 - 15:00","utc_offset":"-360","gplace_id":null,"gplace_url":"https://maps.google.com/?cid=14365287740451423882","dealerID":63878,"trusted":false,"image_id":"v1597284079/chevy_ms.png","phone":"8018045972","cityStateSlug":"spanish-fork.ut","slug":"Spanish-Fork.UT/doug+smith+chevrolet","location":"40.1268471,-111.6559649","brandsList":["chevrolet"]},{"id":1731,"crm_id":67036357,"name":"BMW of Pleasant Grove","dealerSlug":"bmw+of+pleasant+grove","city_state_slug":"Pleasant-Grove.UT","brand":"BMW","website":"www.bmwofpleasantgrove.com","address":"2111 W Grove Pkwy","city":"Pleasant Grove","state":"UT","zip":84062,"latitude":40.3522219,"longitude":-111.7701763,"phone_number_service":"8888432620","phone_number_main":"8014432000","service_hours":"Mo-Fr 07:30 - 18:00","utc_offset":"-360","gplace_id":null,"gplace_url":"https://maps.google.com/?cid=7975083961806356625","dealerID":51621,"trusted":true,"image_id":"v1597283982/bmw_RM.png","phone":"8888432620","cityStateSlug":"pleasant-grove.ut","slug":"Pleasant-Grove.UT/bmw+of+pleasant+grove","location":"40.3522219,-111.7701763","brandsList":["bmw"]},{"id":4203,"crm_id":67039279,"name":"Doug Smith Subaru","dealerSlug":"doug+smith+subaru","city_state_slug":"American-Fork.UT","brand":"Subaru","website":"www.dougsmithsubaru.com","address":"501 W Main St","city":"American Fork","state":"UT","zip":84003,"latitude":40.375352,"longitude":-111.8114914,"phone_number_service":"8776889022","phone_number_main":"8018471048","service_hours":"Mo-Fr 07:00 - 18:00 | Sa 07:00 - 16:00","utc_offset":"-360","gplace_id":null,"gplace_url":"https://maps.google.com/?cid=13747776219851464913","dealerID":64765,"trusted":false,"image_id":"v1597283982/subaru_ms.png","phone":"8776889022","cityStateSlug":"american-fork.ut","slug":"American-Fork.UT/doug+smith+subaru","location":"40.375352,-111.8114914","brandsList":["subaru"]},{"id":14257,"crm_id":67039933,"name":"Tim Dahle Ford","dealerSlug":"tim+dahle+ford","city_state_slug":"Spanish-Fork.UT","brand":"Ford","website":"www.timdahleford.net/","address":"2534 N 200 E","city":"Spanish Fork","state":"UT","zip":84660,"latitude":40.1424675,"longitude":-111.6480751,"phone_number_service":"8885268697","phone_number_main":"8017983553","service_hours":"Mo-Fr 07:30 - 17:00 | Sa 08:00-16:00","utc_offset":"-360","gplace_id":null,"gplace_url":"https://maps.google.com/?cid=10671735287425632267","dealerID":64949,"trusted":false,"image_id":"v1597283967/ford_RM.png","phone":"8885268697","cityStateSlug":"spanish-fork.ut","slug":"Spanish-Fork.UT/tim+dahle+ford","location":"40.1424675,-111.6480751","brandsList":["ford"]},{"id":12791,"crm_id":67040218,"name":"Salt Lake Valley Chevrolet","dealerSlug":"salt+lake+valley+chevrolet","city_state_slug":"West-Valley-City.UT","brand":"Chevrolet","website":"www.slvchevrolet.com","address":"4050 W 3500 S","city":"West Valley City","state":"UT","zip":84120,"latitude":40.6977142,"longitude":-111.987809,"phone_number_service":"8017583129","phone_number_main":"8017588387","service_hours":"Mo-Fr  08:00 - 18:00 | Sa 08:00 - 15:00","utc_offset":"-360","gplace_id":null,"gplace_url":"https://maps.google.com/?cid=3096494876152868113","dealerID":65019,"trusted":false,"image_id":"v1597284079/chevy_ms.png","phone":"8017583129","cityStateSlug":"west-valley-city.ut","slug":"West-Valley-City.UT/salt+lake+valley+chevrolet","location":"40.6977142,-111.987809","brandsList":["chevrolet"]},{"id":12790,"crm_id":67040227,"name":"Salt Lake Valley Buick GMC","dealerSlug":"salt+lake+valley+buick+gmc","city_state_slug":"South-Salt-Lake.UT","brand":"Buick,GMC","website":"www.slvbuickgmc.com","address":"725 W 3300 S","city":"South Salt Lake","state":"UT","zip":84119,"latitude":40.698322,"longitude":-111.9123436,"phone_number_service":"8017478519","phone_number_main":"8012651511","service_hours":"Mo-Fr 08:00 - 18:00 | Sa 08:00 - 15:00","utc_offset":"-360","gplace_id":null,"gplace_url":"https://maps.google.com/?cid=15462347502543239232","dealerID":65021,"trusted":false,"image_id":"v1597283981/buick_RM.png","phone":"8017478519","cityStateSlug":"south-salt-lake.ut","slug":"South-Salt-Lake.UT/salt+lake+valley+buick+gmc","location":"40.698322,-111.9123436","brandsList":["buick","gmc"]},{"id":7787,"crm_id":67041118,"name":"Ken Garff Nissan of Orem","dealerSlug":"ken+garff+nissan+of+orem","city_state_slug":"Orem.UT","brand":"Nissan","website":"www.kengarffnissanorem.com","address":"285 W University Pkwy","city":"Orem","state":"UT","zip":84058,"latitude":40.272847,"longitude":-111.701686,"phone_number_service":"8014948630","phone_number_main":"8014948640","service_hours":"Mo-Fr 07:00 - 18:00 | Sa 07:00 - 14:00","utc_offset":"-360","gplace_id":null,"gplace_url":"https://maps.google.com/?cid=8213424446469509503","dealerID":65260,"trusted":false,"image_id":"v1597283926/nissan_RM.png","phone":"8014948630","cityStateSlug":"orem.ut","slug":"Orem.UT/ken+garff+nissan+of+orem","location":"40.272847,-111.701686","brandsList":["nissan"]},{"id":7794,"crm_id":67042885,"name":"Ken Garff West Valley Ford","dealerSlug":"ken+garff+west+valley+ford","city_state_slug":"West-Valley-City.UT","brand":"Ford","website":"www.kengarffwestvalleyford.com","address":"4091 W 3500 S","city":"West Valley City","state":"UT","zip":84120,"latitude":40.694818,"longitude":-111.988753,"phone_number_service":"8015590530","phone_number_main":"8015590314","service_hours":"Mo-Fr 07:00 - 18:00 | Sa 08:00 - 16:00","utc_offset":"-360","gplace_id":null,"gplace_url":"https://maps.google.com/?cid=10331955808874620080","dealerID":65730,"trusted":false,"image_id":"v1597283967/ford_RM.png","phone":"8015590530","cityStateSlug":"west-valley-city.ut","slug":"West-Valley-City.UT/ken+garff+west+valley+ford","location":"40.694818,-111.988753","brandsList":["ford"]},{"id":9267,"crm_id":67045312,"name":"Mark Miller Subaru Midtown","dealerSlug":"mark+miller+subaru+midtown","city_state_slug":"Salt-Lake-City.UT","brand":"Subaru","website":"www.markmillersubarumidtown.com/","address":"3535 State St","city":"Salt Lake City","state":"UT","zip":84115,"latitude":40.6938467,"longitude":-111.8873179,"phone_number_service":"8669791316","phone_number_main":"8012683734","service_hours":"Mo-Fr 07:00 - 18:00 | Sa 08:00 - 17:00","utc_offset":"-360","gplace_id":null,"gplace_url":"https://maps.google.com/?cid=1648817950765164572","dealerID":66396,"trusted":false,"image_id":"v1597283982/subaru_ms.png","phone":"8669791316","cityStateSlug":"salt-lake-city.ut","slug":"Salt-Lake-City.UT/mark+miller+subaru+midtown","location":"40.6938467,-111.8873179","brandsList":["subaru"]},{"id":15732,"crm_id":67046002,"name":"Young Ford of Ogden","dealerSlug":"young+ford+of+ogden","city_state_slug":"Ogden.UT","brand":"Ford","website":"www.youngfordogden.com","address":"3450 Wall Ave","city":"Ogden","state":"UT","zip":84401,"latitude":41.2010628,"longitude":-111.9780179,"phone_number_service":"8014309268","phone_number_main":"8016295500","service_hours":"Mo-Fr 07:30 - 18:00 |Sa 08:00 - 16:00","utc_offset":"-360","gplace_id":null,"gplace_url":"https://maps.google.com/?cid=814462811234436848","dealerID":66572,"trusted":false,"image_id":"v1597283967/ford_RM.png","phone":"8014309268","cityStateSlug":"ogden.ut","slug":"Ogden.UT/young+ford+of+ogden","location":"41.2010628,-111.9780179","brandsList":["ford"]},{"id":7780,"crm_id":67047337,"name":"Ken Garff Chevrolet","dealerSlug":"ken+garff+chevrolet","city_state_slug":"American-Fork.UT","brand":"Chevrolet","website":"www.kengarffchevrolet.com","address":"548 E 1000 S","city":"American Fork","state":"UT","zip":84003,"latitude":40.356698,"longitude":-111.7847329,"phone_number_service":"8016929830","phone_number_main":"8016929830","service_hours":"Mo-Fr 07:00 - 18:00 | Sa 08:00 - 17:00","utc_offset":"-360","gplace_id":null,"gplace_url":"https://maps.google.com/?cid=17095782096534389624","dealerID":66923,"trusted":false,"image_id":"v1597284079/chevy_ms.png","phone":"8016929830","cityStateSlug":"american-fork.ut","slug":"American-Fork.UT/ken+garff+chevrolet","location":"40.356698,-111.7847329","brandsList":["chevrolet"]},{"id":10583,"crm_id":67048012,"name":"Nate Wade Subaru","dealerSlug":"nate+wade+subaru","city_state_slug":"Salt-Lake-City.UT","brand":"Subaru","website":"www.natewade.com","address":"1207 S Main St","city":"Salt Lake City","state":"UT","zip":84111,"latitude":40.7426515,"longitude":-111.8902523,"phone_number_service":"8886547340","phone_number_main":"8886547340","service_hours":"Mo-Fr 07:00 - 18:00 | Sa 08:30 - 15:00","utc_offset":"-360","gplace_id":null,"gplace_url":"https://maps.google.com/?cid=8125121887048599684","dealerID":67106,"trusted":false,"image_id":"v1597283982/subaru_ms.png","phone":"8886547340","cityStateSlug":"salt-lake-city.ut","slug":"Salt-Lake-City.UT/nate+wade+subaru","location":"40.7426515,-111.8902523","brandsList":["subaru"]},{"id":2111,"crm_id":67048447,"name":"Brent Brown Toyota","dealerSlug":"brent+brown+toyota","city_state_slug":"Orem.UT","brand":"Toyota","website":"www.brentbrowntoyota.com","address":"1400 S Sandhill Rd","city":"Orem","state":"UT","zip":84058,"latitude":40.2711111,"longitude":-111.7130556,"phone_number_service":"8012234400","phone_number_main":"8012241320","service_hours":"Mo-Fr 08:00 - 18:00 | Sa 08:00 - 17:00","utc_offset":"-360","gplace_id":null,"gplace_url":"https://maps.google.com/?cid=11737521901774317089","dealerID":67225,"trusted":false,"image_id":"v1597284039/toyota_ms.png","phone":"8012234400","cityStateSlug":"orem.ut","slug":"Orem.UT/brent+brown+toyota","location":"40.2711111,-111.7130556","brandsList":["toyota"]},{"id":3577,"crm_id":67048591,"name":"Crump Reese Motors","dealerSlug":"crump+reese+motors","city_state_slug":"Tremonton.UT","brand":"Buick,Cadillac,Chevrolet,GMC","website":"www.crumps.com","address":"655 W Main","city":"Tremonton","state":"UT","zip":84337,"latitude":41.7109289,"longitude":-112.1748267,"phone_number_service":"8665768940","phone_number_main":"4352573328","service_hours":"Mo-Fr 08:00 - 17:30 | Sa 08:00 - 14:00","utc_offset":"-360","gplace_id":null,"gplace_url":"https://maps.google.com/?cid=13752131236263380843","dealerID":67253,"trusted":false,"image_id":"v1597283981/buick_RM.png","phone":"8665768940","cityStateSlug":"tremonton.ut","slug":"Tremonton.UT/crump+reese+motors","location":"41.7109289,-112.1748267","brandsList":["buick","cadillac","chevrolet","gmc"]},{"id":9268,"crm_id":67049545,"name":"Mark Miller Subaru South Towne","dealerSlug":"mark+miller+subaru+south+towne","city_state_slug":"Sandy.UT","brand":"Subaru","website":"www.markmillersubarusouthtowne.com","address":"10920 State St","city":"Sandy","state":"UT","zip":84070,"latitude":40.5533818,"longitude":-111.8915901,"phone_number_service":"8887914530","phone_number_main":"8887914530","service_hours":"Mo-Fr 07:00 - 18:00 | Sa 08:00 - 17:00","utc_offset":"-360","gplace_id":null,"gplace_url":"https://maps.google.com/?cid=12894319128955887196","dealerID":67522,"trusted":false,"image_id":"v1597283982/subaru_ms.png","phone":"8887914530","cityStateSlug":"sandy.ut","slug":"Sandy.UT/mark+miller+subaru+south+towne","location":"40.5533818,-111.8915901","brandsList":["subaru"]},{"id":14260,"crm_id":67049971,"name":"Tim Dahle Nissan Southtowne","dealerSlug":"tim+dahle+nissan+southtowne","city_state_slug":"South-Jordan.UT","brand":"Nissan","website":"www.timdahlesouthtowne.com","address":"11155 South Jordan Gateway Blvd","city":"South Jordan","state":"UT","zip":84095,"latitude":40.5488818,"longitude":-111.897166,"phone_number_service":"8555603123","phone_number_main":"8014953800","service_hours":"Mo-Fr 07:00 - 20:00 | Sa 07:00 - 16:00","utc_offset":"-360","gplace_id":null,"gplace_url":"https://maps.google.com/?cid=17893067494371479281","dealerID":67641,"trusted":false,"image_id":"v1597283926/nissan_RM.png","phone":"8555603123","cityStateSlug":"south-jordan.ut","slug":"South-Jordan.UT/tim+dahle+nissan+southtowne","location":"40.5488818,-111.897166","brandsList":["nissan"]},{"id":1598,"crm_id":67050442,"name":"Blue Diamond Chevrolet Buick GMC","dealerSlug":"blue+diamond+chevrolet+buick+gmc","city_state_slug":"Price.UT","brand":"Buick,Cadillac,Chevrolet,GMC","website":"www.bluediamondgm.com","address":"1355 S Carbon Ave","city":"Price","state":"UT","zip":84501,"latitude":39.580979,"longitude":-110.814484,"phone_number_service":"4356370111","phone_number_main":"4356374200","service_hours":"Mo-Fr 08:00 - 18:00 | Sa 09:00 - 16:00","utc_offset":"-360","gplace_id":null,"gplace_url":"https://maps.google.com/?cid=7277184068287662225","dealerID":67775,"trusted":false,"image_id":"v1597283981/buick_RM.png","phone":"4356370111","cityStateSlug":"price.ut","slug":"Price.UT/blue+diamond+chevrolet+buick+gmc","location":"39.580979,-110.814484","brandsList":["buick","cadillac","chevrolet","gmc"]},{"id":2027,"crm_id":67050961,"name":"Bountiful Mazda","dealerSlug":"bountiful+mazda","city_state_slug":"Bountiful.UT","brand":"Mazda","website":"www.bountifulmazda.com","address":"2815 S Main St","city":"Bountiful","state":"UT","zip":84010,"latitude":40.8589841,"longitude":-111.8972875,"phone_number_service":"8013830213","phone_number_main":"8013972277","service_hours":"Mo-Fr 07:30 - 18:00 | Sa 08:00 - 17:00","utc_offset":"-360","gplace_id":null,"gplace_url":"https://maps.google.com/?cid=15753277130635906713","dealerID":67915,"trusted":false,"image_id":"v1597283937/mazda.png","phone":"8013830213","cityStateSlug":"bountiful.ut","slug":"Bountiful.UT/bountiful+mazda","location":"40.8589841,-111.8972875","brandsList":["mazda"]},{"id":7783,"crm_id":67051444,"name":"Ken Garff Honda of Orem","dealerSlug":"ken+garff+honda+of+orem","city_state_slug":"Orem.UT","brand":"Honda","website":"www.kengarffhondaoforem.com","address":"195 E University Pkwy","city":"Orem","state":"UT","zip":84058,"latitude":40.2742973,"longitude":-111.6911852,"phone_number_service":"8017012201","phone_number_main":"8666796766","service_hours":"Mo-Fr 07:00 - 18:00 | Sa 07:00 - 17:00","utc_offset":"-360","gplace_id":null,"gplace_url":"https://maps.google.com/?cid=163265204633802922","dealerID":68046,"trusted":false,"image_id":"v1597284047/honda_ms.png","phone":"8017012201","cityStateSlug":"orem.ut","slug":"Orem.UT/ken+garff+honda+of+orem","location":"40.2742973,-111.6911852","brandsList":["honda"]},{"id":10448,"crm_id":67051669,"name":"Murdock Chevrolet Buick GMC Cadillac","dealerSlug":"murdock+chevrolet+buick+gmc+cadillac","city_state_slug":"Logan.UT","brand":"Buick,Cadillac,Chevrolet,GMC","website":"www.murdockchevroletlogan.com/","address":"1955 Main St","city":"Logan","state":"UT","zip":84341,"latitude":41.768466,"longitude":-111.835808,"phone_number_service":"8885906680","phone_number_main":"4357526801","service_hours":"Mo-Sa 07:00 - 19:00","utc_offset":"-360","gplace_id":null,"gplace_url":"https://maps.google.com/?cid=12722169219432338770","dealerID":68103,"trusted":false,"image_id":"v1597283981/buick_RM.png","phone":"8885906680","cityStateSlug":"logan.ut","slug":"Logan.UT/murdock+chevrolet+buick+gmc+cadillac","location":"41.768466,-111.835808","brandsList":["buick","cadillac","chevrolet","gmc"]},{"id":15734,"crm_id":67052950,"name":"Young Mazda","dealerSlug":"young+mazda","city_state_slug":"South-Ogden.UT","brand":"Mazda","website":"www.youngmazdautah.com","address":"4020 S Riverdale Rd","city":"South Ogden","state":"UT","zip":84405,"latitude":41.191444,"longitude":-111.979267,"phone_number_service":"8017842093","phone_number_main":"8013359349","service_hours":"Mo-Fr 07:30 - 18:00 | Sa 08:00 - 17:00","utc_offset":"-360","gplace_id":null,"gplace_url":"https://maps.google.com/?cid=16230468183982958048","dealerID":50903,"trusted":true,"image_id":"v1597283937/mazda.png","phone":"8017842093","cityStateSlug":"south-ogden.ut","slug":"South-Ogden.UT/young+mazda","location":"41.191444,-111.979267","brandsList":["mazda"]},{"id":7470,"crm_id":67053034,"name":"Jody Wilkinson Acura","dealerSlug":"jody+wilkinson+acura","city_state_slug":"Salt-Lake-City.UT","brand":"Acura","website":"www.jodywilkinsonacura.com","address":"1111 S Main St","city":"Salt Lake City","state":"UT","zip":84111,"latitude":40.7443598,"longitude":-111.8903936,"phone_number_service":"3852027039","phone_number_main":"8015951111","service_hours":"Mo-Fr 07:30 - 18:00 |Sa 08:00 - 17:00","utc_offset":"-360","gplace_id":null,"gplace_url":"https://maps.google.com/?cid=7513241796479822135","dealerID":68480,"trusted":false,"image_id":"v1597283988/acura.png","phone":"3852027039","cityStateSlug":"salt-lake-city.ut","slug":"Salt-Lake-City.UT/jody+wilkinson+acura","location":"40.7443598,-111.8903936","brandsList":["acura"]},{"id":8430,"crm_id":67053922,"name":"Larry H. Miller Chrysler Jeep Dodge RAM Bountiful","dealerSlug":"larry+h+miller+chrysler+jeep+dodge+ram+bountiful","city_state_slug":"West-Bountiful.UT","brand":"Chrysler,Dodge,Jeep,RAM","website":"www.bountifulchryslerjeep.com","address":"755 N 500 W","city":"West Bountiful","state":"UT","zip":84010,"latitude":40.8970131,"longitude":-111.893196,"phone_number_service":"8018212147","phone_number_main":"3853992936","service_hours":"Mo-Fr 07:00 - 20:00 | Sa 08:00 - 20:00","utc_offset":"-360","gplace_id":null,"gplace_url":"https://maps.google.com/?cid=1319445531108583121","dealerID":68729,"trusted":false,"image_id":"v1597283975/chrysler_RM.png","phone":"8018212147","cityStateSlug":"west-bountiful.ut","slug":"West-Bountiful.UT/larry+h+miller+chrysler+jeep+dodge+ram+bountiful","location":"40.8970131,-111.893196","brandsList":["chrysler","dodge","jeep","ram"]},{"id":3575,"crm_id":67055737,"name":"Crump Reese Moab Chevrolet Buick","dealerSlug":"crump+reese+moab+chevrolet+buick","city_state_slug":"Moab.UT","brand":"Buick,Chevrolet,GMC","website":"www.crumpreesechevrolet.com","address":"481 S Main St","city":"Moab","state":"UT","zip":84532,"latitude":38.5657265,"longitude":-109.5497907,"phone_number_service":"4355275206","phone_number_main":"4355275205","service_hours":"Mo-Fr 08:00 - 17:00 | Sa 08:00 - 13:00","utc_offset":"-360","gplace_id":null,"gplace_url":"https://maps.google.com/?cid=14863591823361133047","dealerID":69228,"trusted":false,"image_id":"v1597283981/buick_RM.png","phone":"4355275206","cityStateSlug":"moab.ut","slug":"Moab.UT/crump+reese+moab+chevrolet+buick","location":"38.5657265,-109.5497907","brandsList":["buick","chevrolet","gmc"]},{"id":3456,"crm_id":67055851,"name":"Crandall Ford","dealerSlug":"crandall+ford","city_state_slug":"Park-City.UT","brand":"Ford","website":"www.crandallford.net","address":"2175 Rasmussen Rd","city":"Park City","state":"UT","zip":84098,"latitude":40.735907,"longitude":-111.5529226,"phone_number_service":"8774679019","phone_number_main":"4356473673","service_hours":"Mo-Fr 07:30 - 17:30","utc_offset":"-360","gplace_id":null,"gplace_url":"https://maps.google.com/?cid=6097705673753679206","dealerID":69261,"trusted":false,"image_id":"v1597283967/ford_RM.png","phone":"8774679019","cityStateSlug":"park-city.ut","slug":"Park-City.UT/crandall+ford","location":"40.735907,-111.5529226","brandsList":["ford"]},{"id":6437,"crm_id":67055896,"name":"High Country Auto","dealerSlug":"high+country+auto","city_state_slug":"Richfield.UT","brand":"Buick,Chevrolet,GMC","website":"www.highcountryautocenter.net","address":"275 N Main St","city":"Richfield","state":"UT","zip":84701,"latitude":38.7716651,"longitude":-112.0855966,"phone_number_service":"8778299073","phone_number_main":"4358965486","service_hours":"Mo-Fr 08:00 - 18:00","utc_offset":"-360","gplace_id":null,"gplace_url":"https://maps.google.com/?cid=8959473730478342667","dealerID":69273,"trusted":false,"image_id":"v1597283981/buick_RM.png","phone":"8778299073","cityStateSlug":"richfield.ut","slug":"Richfield.UT/high+country+auto","location":"38.7716651,-112.0855966","brandsList":["buick","chevrolet","gmc"]},{"id":7331,"crm_id":67055989,"name":"Jerry Seiner Chevrolet","dealerSlug":"jerry+seiner+chevrolet","city_state_slug":"Salt-Lake-City.UT","brand":"Chevrolet","website":"www.seinerchevy.com","address":"1530 500 W","city":"Salt Lake City","state":"UT","zip":84115,"latitude":40.7373867,"longitude":-111.9068443,"phone_number_service":"3852123160","phone_number_main":"8885108570","service_hours":"Mo-Fr 07:00-19:00 | Sa 08:00-17:00","utc_offset":"-360","gplace_id":null,"gplace_url":"https://maps.google.com/?cid=2351354808705792215","dealerID":69294,"trusted":false,"image_id":"v1597284079/chevy_ms.png","phone":"3852123160","cityStateSlug":"salt-lake-city.ut","slug":"Salt-Lake-City.UT/jerry+seiner+chevrolet","location":"40.7373867,-111.9068443","brandsList":["chevrolet"]},{"id":14366,"crm_id":67056682,"name":"Tony Divino Toyota","dealerSlug":"tony+divino+toyota","city_state_slug":"Riverdale.UT","brand":"Toyota","website":"www.tonydivinotoyota.com","address":"777 W Riverdale Rd","city":"Riverdale","state":"UT","zip":84405,"latitude":41.1780556,"longitude":-111.9966667,"phone_number_service":"8884723471","phone_number_main":"8013945701","service_hours":"Mo-Fr 07:00 - 18:00 | Sa 08:00 - 17:00","utc_offset":"-360","gplace_id":null,"gplace_url":"https://maps.google.com/?cid=220730834791196033","dealerID":69476,"trusted":false,"image_id":"v1597284039/toyota_ms.png","phone":"8884723471","cityStateSlug":"riverdale.ut","slug":"Riverdale.UT/tony+divino+toyota","location":"41.1780556,-111.9966667","brandsList":["toyota"]},{"id":13595,"crm_id":67059574,"name":"Stephen Wade Honda","dealerSlug":"stephen+wade+honda","city_state_slug":"Saint-George.UT","brand":"Honda","website":"www.stephenwadehonda.com","address":"230 W. Hilton Dr.","city":"Saint George","state":"UT","zip":84770,"latitude":37.0802741,"longitude":-113.5881024,"phone_number_service":"4359862520","phone_number_main":"4356286100","service_hours":"Mo-Fr 07:30 - 18:00 | Sa 07:30 - 17:00","utc_offset":"-360","gplace_id":null,"gplace_url":"https://maps.google.com/?cid=3765036851596617204","dealerID":70278,"trusted":false,"image_id":"v1597284047/honda_ms.png","phone":"4359862520","cityStateSlug":"saint-george.ut","slug":"Saint-George.UT/stephen+wade+honda","location":"37.0802741,-113.5881024","brandsList":["honda"]},{"id":4201,"crm_id":67077049,"name":"Doug Smith Chrysler Jeep Dodge RAM","dealerSlug":"doug+smith+chrysler+jeep+dodge+ram","city_state_slug":"American-Fork.UT","brand":"Chrysler,Dodge,Jeep,RAM","website":"www.dougsmithchryslerjeepdodge.com","address":"523 West Main Street","city":"American Fork","state":"UT","zip":84003,"latitude":40.375624,"longitude":-111.812423,"phone_number_service":"8019006173","phone_number_main":"8018471041","service_hours":"Mo-Fr 07:00 - 18:00 | Sa 07:00 - 16:00","utc_offset":"-360","gplace_id":null,"gplace_url":"https://maps.google.com/?cid=11613023835712722519","dealerID":74189,"trusted":false,"image_id":"v1597283975/chrysler_RM.png","phone":"8019006173","cityStateSlug":"american-fork.ut","slug":"American-Fork.UT/doug+smith+chrysler+jeep+dodge+ram","location":"40.375624,-111.812423","brandsList":["chrysler","dodge","jeep","ram"]},{"id":7781,"crm_id":67077052,"name":"Ken Garff Ford","dealerSlug":"ken+garff+ford","city_state_slug":"American-Fork.UT","brand":"Ford","website":"www.kengarfffordaf.com","address":"597 E 1000 S","city":"American Fork","state":"UT","zip":84003,"latitude":40.3577528,"longitude":-111.7825694,"phone_number_service":"8017636830","phone_number_main":"8016926561","service_hours":"Mo-Fr 07:00 - 18:00 | Sa 08:00 - 17:00","utc_offset":"-360","gplace_id":null,"gplace_url":"https://maps.google.com/?cid=10317579415001210504","dealerID":74190,"trusted":false,"image_id":"v1597283967/ford_RM.png","phone":"8017636830","cityStateSlug":"american-fork.ut","slug":"American-Fork.UT/ken+garff+ford","location":"40.3577528,-111.7825694","brandsList":["ford"]},{"id":11410,"crm_id":67077058,"name":"Performance Ford Lincoln Bountiful","dealerSlug":"performance+ford+lincoln+bountiful","city_state_slug":"Bountiful.UT","brand":"Ford,Lincoln","website":"www.performancefordbountiful.com","address":"1800 S Main St","city":"Bountiful","state":"UT","zip":84010,"latitude":40.870601,"longitude":-111.8900219,"phone_number_service":"8013359797","phone_number_main":"8884768961","service_hours":"Mo-Fr 07:00 - 19:00 | Sa 08:00 - 17:00","utc_offset":"-360","gplace_id":null,"gplace_url":"https://maps.google.com/?cid=3084467802458905551","dealerID":74191,"trusted":false,"image_id":"v1597283967/ford_RM.png","phone":"8013359797","cityStateSlug":"bountiful.ut","slug":"Bountiful.UT/performance+ford+lincoln+bountiful","location":"40.870601,-111.8900219","brandsList":["ford","lincoln"]},{"id":14420,"crm_id":67077061,"name":"Toyota Bountiful","dealerSlug":"toyota+bountiful","city_state_slug":"Bountiful.UT","brand":"Toyota","website":"www.toyotabountiful.com","address":"2380 S Hwy 89","city":"Bountiful","state":"UT","zip":84010,"latitude":40.8652273,"longitude":-111.893973,"phone_number_service":"8885517439","phone_number_main":"8012953481","service_hours":"Mo-Fr 07:00 - 18:00 | Sa 07:00 - 17:00","utc_offset":"-360","gplace_id":null,"gplace_url":"https://maps.google.com/?cid=3447533069201559321","dealerID":74192,"trusted":false,"image_id":"v1597284039/toyota_ms.png","phone":"8885517439","cityStateSlug":"bountiful.ut","slug":"Bountiful.UT/toyota+bountiful","location":"40.8652273,-111.893973","brandsList":["toyota"]},{"id":7687,"crm_id":67077067,"name":"Karl Malone Chrysler Dodge Jeep RAM","dealerSlug":"karl+malone+chrysler+dodge+jeep+ram","city_state_slug":"Heber-City.UT","brand":"Chrysler,Dodge,Jeep,RAM","website":"www.malonechryslerdodgejeep.com","address":"255 S Main St","city":"Heber City","state":"UT","zip":84032,"latitude":40.5048832,"longitude":-111.4128222,"phone_number_service":"4352874680","phone_number_main":"","service_hours":"Mo-Fr 07:00 - 18:00 | Sa 07:30 - 17:00","utc_offset":"-360","gplace_id":null,"gplace_url":"https://maps.google.com/?cid=8062261764072519560","dealerID":74193,"trusted":false,"image_id":"v1597283975/chrysler_RM.png","phone":"4352874680","cityStateSlug":"heber-city.ut","slug":"Heber-City.UT/karl+malone+chrysler+dodge+jeep+ram","location":"40.5048832,-111.4128222","brandsList":["chrysler","dodge","jeep","ram"]},{"id":8149,"crm_id":67077073,"name":"Labrum Chevrolet Buick","dealerSlug":"labrum+chevrolet+buick","city_state_slug":"Heber-City.UT","brand":"Buick,Chevrolet","website":"www.labrumchevrolet.com","address":"901 S Main St SUITE 1","city":"Heber City","state":"UT","zip":84032,"latitude":40.4949716,"longitude":-111.4127769,"phone_number_service":"4356714054","phone_number_main":"4356714054","service_hours":"Mo-Fr 08:00 - 18:00 | Sa 09:00 - 15:00","utc_offset":"-360","gplace_id":null,"gplace_url":"https://maps.google.com/?cid=3136381811636353785","dealerID":74194,"trusted":false,"image_id":"v1597283981/buick_RM.png","phone":"4356714054","cityStateSlug":"heber-city.ut","slug":"Heber-City.UT/labrum+chevrolet+buick","location":"40.4949716,-111.4127769","brandsList":["buick","chevrolet"]},{"id":8150,"crm_id":67077076,"name":"Labrum Ford","dealerSlug":"labrum+ford","city_state_slug":"Heber-City.UT","brand":"Ford","website":"www.labrumford.com","address":"901 S Main St","city":"Heber City","state":"UT","zip":84032,"latitude":40.4949985,"longitude":-111.4127597,"phone_number_service":"4356578055","phone_number_main":"4356544910","service_hours":"Mo-Fr 08:00 - 18:00 | Sa 09:00 - 15:00","utc_offset":"-360","gplace_id":null,"gplace_url":"https://maps.google.com/?cid=3443516473166797959","dealerID":74195,"trusted":false,"image_id":"v1597283967/ford_RM.png","phone":"4356578055","cityStateSlug":"heber-city.ut","slug":"Heber-City.UT/labrum+ford","location":"40.4949985,-111.4127597","brandsList":["ford"]},{"id":3617,"crm_id":67077082,"name":"Cutrubus Volkswagen of Layton","dealerSlug":"cutrubus+volkswagen+of+layton","city_state_slug":"Layton.UT","brand":"Volkswagen","website":"cutrubusvw.com","address":"1230 North Main","city":"Layton","state":"UT","zip":84041,"latitude":41.0790614,"longitude":-111.9827763,"phone_number_service":"8018450914","phone_number_main":"8015445878","service_hours":"Mo-Fr 07:30 - 17:30 | Sa 08:00 - 14:00","utc_offset":"-360","gplace_id":null,"gplace_url":"https://maps.google.com/?cid=611051837006758132","dealerID":74196,"trusted":false,"image_id":"v1597283902/volkswagen.png","phone":"8018450914","cityStateSlug":"layton.ut","slug":"Layton.UT/cutrubus+volkswagen+of+layton","location":"41.0790614,-111.9827763","brandsList":["volkswagen"]},{"id":8526,"crm_id":67077085,"name":"Layton Hills Chrysler Dodge Jeep RAM","dealerSlug":"layton+hills+chrysler+dodge+jeep+ram","city_state_slug":"Layton.UT","brand":"Chrysler,Dodge,Jeep,RAM","website":"www.laytonhills.com","address":"1234 Main St","city":"Layton","state":"UT","zip":84041,"latitude":41.0781802,"longitude":-111.9842716,"phone_number_service":"8016824119","phone_number_main":"8015445800","service_hours":"Mo-Fr 07:30 - 18:00 | Sa 08:00 - 15:00","utc_offset":"-360","gplace_id":null,"gplace_url":"https://maps.google.com/?cid=13909986461502952872","dealerID":74197,"trusted":false,"image_id":"v1597283975/chrysler_RM.png","phone":"8016824119","cityStateSlug":"layton.ut","slug":"Layton.UT/layton+hills+chrysler+dodge+jeep+ram","location":"41.0781802,-111.9842716","brandsList":["chrysler","dodge","jeep","ram"]},{"id":10449,"crm_id":67077091,"name":"Murdock Hyundai of Lindon","dealerSlug":"murdock+hyundai+of+lindon","city_state_slug":"Lindon.UT","brand":"Hyundai","website":"www.murdockhyundailindon.com","address":"452 S Lindon Park Dr","city":"Lindon","state":"UT","zip":84042,"latitude":40.329351,"longitude":-111.733778,"phone_number_service":"8013960360","phone_number_main":"8013960369","service_hours":"Mo-Fr 07:00 - 21:00 | Sa 07:00 - 21:00","utc_offset":"-360","gplace_id":null,"gplace_url":"https://maps.google.com/?cid=1800897581784023700","dealerID":74198,"trusted":false,"image_id":"v1597283959/hyundai_RM.png","phone":"8013960360","cityStateSlug":"lindon.ut","slug":"Lindon.UT/murdock+hyundai+of+lindon","location":"40.329351,-111.733778","brandsList":["hyundai"]},{"id":8453,"crm_id":67077100,"name":"Larry H. Miller Lexus Lindon","dealerSlug":"larry+h+miller+lexus+lindon","city_state_slug":"Lindon.UT","brand":"Lexus","website":"www.larryhmillerlexuslindon.com","address":"544 South Lindon Park Drive","city":"Lindon","state":"UT","zip":84042,"latitude":40.328168,"longitude":-111.732073,"phone_number_service":"8447425250","phone_number_main":"8018511246","service_hours":"Mo-Fr 07:00 - 18:00 | Sa 08:00 - 17:00","utc_offset":"-360","gplace_id":null,"gplace_url":"https://maps.google.com/?cid=8208724062767948404","dealerID":74199,"trusted":false,"image_id":"v1597284042/lexus_ms.png","phone":"8447425250","cityStateSlug":"lindon.ut","slug":"Lindon.UT/larry+h+miller+lexus+lindon","location":"40.328168,-111.732073","brandsList":["lexus"]},{"id":11681,"crm_id":67077103,"name":"Porsche Lehi","dealerSlug":"porsche+lehi","city_state_slug":"Lehi.UT","brand":"Porsche","website":"www.porschelehi.com","address":"3425 N Digital Dr","city":"Lehi","state":"UT","zip":84043,"latitude":40.4305551,"longitude":-111.8874232,"phone_number_service":"8018525430","phone_number_main":"8886546719","service_hours":"Mo-Fr 07:30 - 18:00 | Sa 08:00 - 16:00","utc_offset":"-360","gplace_id":null,"gplace_url":"https://maps.google.com/?cid=16286225822097002412","dealerID":74200,"trusted":false,"image_id":"v1597283919/porsche.jpg","phone":"8018525430","cityStateSlug":"lehi.ut","slug":"Lehi.UT/porsche+lehi","location":"40.4305551,-111.8874232","brandsList":["porsche"]},{"id":585,"crm_id":67077109,"name":"Audi Lehi","dealerSlug":"audi+lehi","city_state_slug":"Lehi.UT","brand":"Audi","website":"www.audilehi.com","address":"3455 Digital Dr","city":"Lehi","state":"UT","zip":84043,"latitude":40.4309085,"longitude":-111.8873465,"phone_number_service":"8018525330","phone_number_main":"8886546719","service_hours":"Mo-Fr 07:30 - 18:00 | Sa 08:00 - 16:00","utc_offset":"-360","gplace_id":null,"gplace_url":"https://maps.google.com/?cid=17079517339918013504","dealerID":74201,"trusted":false,"image_id":"v1597283985/audi_RM.png","phone":"8018525330","cityStateSlug":"lehi.ut","slug":"Lehi.UT/audi+lehi","location":"40.4309085,-111.8873465","brandsList":["audi"]},{"id":7329,"crm_id":67077112,"name":"Jerry Seiner Buick GMC North Salt Lake","dealerSlug":"jerry+seiner+buick+gmc+north+salt+lake","city_state_slug":"North-Salt-Lake.UT","brand":"Buick,GMC","website":"www.seinernsl.com","address":"957 N 400 E","city":"North Salt Lake","state":"UT","zip":84054,"latitude":40.859351,"longitude":-111.902666,"phone_number_service":"8012033269","phone_number_main":"8016830427","service_hours":"Mo-Fr 07:00-18:00 | Sa 08:00-17:00","utc_offset":"-360","gplace_id":null,"gplace_url":"https://maps.google.com/?cid=15858601321994727130","dealerID":74202,"trusted":false,"image_id":"v1597283981/buick_RM.png","phone":"8012033269","cityStateSlug":"north-salt-lake.ut","slug":"North-Salt-Lake.UT/jerry+seiner+buick+gmc+north+salt+lake","location":"40.859351,-111.902666","brandsList":["buick","gmc"]},{"id":13706,"crm_id":67077124,"name":"Stockton 12 Honda","dealerSlug":"stockton+12+honda","city_state_slug":"Sandy.UT","brand":"Honda","website":"www.stockton12honda.com","address":"10860 S Automall Dr","city":"Sandy","state":"UT","zip":84070,"latitude":40.554283,"longitude":-111.8957674,"phone_number_service":"8665535697","phone_number_main":"8019814920","service_hours":"Mo-Fr 07:00 - 18:00 | Sa 08:00 - 17:00","utc_offset":"-360","gplace_id":null,"gplace_url":"https://maps.google.com/?cid=7616529091121372915","dealerID":74203,"trusted":false,"image_id":"v1597284047/honda_ms.png","phone":"8665535697","cityStateSlug":"sandy.ut","slug":"Sandy.UT/stockton+12+honda","location":"40.554283,-111.8957674","brandsList":["honda"]},{"id":12394,"crm_id":67077127,"name":"Riverton Chevrolet","dealerSlug":"riverton+chevrolet","city_state_slug":"South-Jordan.UT","brand":"Chevrolet","website":"www.rivertonchevy.com","address":"11100 S Jordan Gateway","city":"South Jordan","state":"UT","zip":84095,"latitude":40.5505655,"longitude":-111.9001901,"phone_number_service":"8019387683","phone_number_main":"8019387611","service_hours":"Mo-Fr 07:00 - 19:00 | Sa 08:00 - 18:00","utc_offset":"-360","gplace_id":null,"gplace_url":"https://maps.google.com/?cid=2929830797240159856","dealerID":74204,"trusted":false,"image_id":"v1597284079/chevy_ms.png","phone":"8019387683","cityStateSlug":"south-jordan.ut","slug":"South-Jordan.UT/riverton+chevrolet","location":"40.5505655,-111.9001901","brandsList":["chevrolet"]},{"id":14376,"crm_id":67077133,"name":"Tooele Chevrolet Buick","dealerSlug":"tooele+chevrolet+buick","city_state_slug":"Tooele.UT","brand":"Buick,Chevrolet","website":"tooelechevybuick.com","address":"1041 N Main St","city":"Tooele","state":"UT","zip":84074,"latitude":40.551676,"longitude":-112.299078,"phone_number_service":"8665084022","phone_number_main":"4358827000","service_hours":"Mo-Fr 07:30 - 18:00 | Sa 08:00 - 17:00","utc_offset":"-360","gplace_id":null,"gplace_url":"https://maps.google.com/?cid=8696878360122729113","dealerID":74205,"trusted":false,"image_id":"v1597283981/buick_RM.png","phone":"8665084022","cityStateSlug":"tooele.ut","slug":"Tooele.UT/tooele+chevrolet+buick","location":"40.551676,-112.299078","brandsList":["buick","chevrolet"]},{"id":4222,"crm_id":67077142,"name":"Downtown Auto Group","dealerSlug":"downtown+auto+group","city_state_slug":"Vernal.UT","brand":"Chrysler,Dodge,Jeep,RAM","website":"www.buydowntown.com","address":"270 E Main St","city":"Vernal","state":"UT","zip":84078,"latitude":40.4554182,"longitude":-109.5237777,"phone_number_service":"4357890454","phone_number_main":"4357890454","service_hours":"Mo-Fr 08:00 - 17:00","utc_offset":"-360","gplace_id":null,"gplace_url":"https://maps.google.com/?cid=9104802736540909304","dealerID":74206,"trusted":false,"image_id":"v1597283975/chrysler_RM.png","phone":"4357890454","cityStateSlug":"vernal.ut","slug":"Vernal.UT/downtown+auto+group","location":"40.4554182,-109.5237777","brandsList":["chrysler","dodge","jeep","ram"]},{"id":8139,"crm_id":67077145,"name":"L & L Motor Company","dealerSlug":"l+and+l+motor+company","city_state_slug":"Vernal.UT","brand":"Buick,GMC","website":"www.llmotorcompany.com","address":"463 E Main St","city":"Vernal","state":"UT","zip":84078,"latitude":40.4563107,"longitude":-109.5197582,"phone_number_service":"8667703921","phone_number_main":"8773123008","service_hours":"Mo-Fr 08:00 - 17:00","utc_offset":"-360","gplace_id":null,"gplace_url":"https://maps.google.com/?cid=10526946522810113672","dealerID":74207,"trusted":false,"image_id":"v1597283981/buick_RM.png","phone":"8667703921","cityStateSlug":"vernal.ut","slug":"Vernal.UT/l+and+l+motor+company","location":"40.4563107,-109.5197582","brandsList":["buick","gmc"]},{"id":10447,"crm_id":67077148,"name":"Murdock Chevrolet","dealerSlug":"murdock+chevrolet","city_state_slug":"Woods-Cross.UT","brand":"Chevrolet","website":"www.murdockchev.com","address":"2375 S 625 W","city":"Woods Cross","state":"UT","zip":84010,"latitude":40.8648294,"longitude":-111.8970265,"phone_number_service":"8775881063","phone_number_main":"8017090924","service_hours":"Mo-Fr 07:30 - 18:00 | Sa 07:30 - 16:00","utc_offset":"-360","gplace_id":null,"gplace_url":"https://maps.google.com/?cid=59793827490139875","dealerID":74208,"trusted":false,"image_id":"v1597284079/chevy_ms.png","phone":"8775881063","cityStateSlug":"woods-cross.ut","slug":"Woods-Cross.UT/murdock+chevrolet","location":"40.8648294,-111.8970265","brandsList":["chevrolet"]},{"id":7333,"crm_id":67077151,"name":"Jerry Seiner Kia South Jordan","dealerSlug":"jerry+seiner+kia+south+jordan","city_state_slug":"South-Jordan.UT","brand":"Kia","website":"www.seinerkiasj.com","address":"10301 South Jordan Gateway","city":"South Jordan","state":"UT","zip":84095,"latitude":40.5626352,"longitude":-111.9000672,"phone_number_service":"8016853010","phone_number_main":"8015066283","service_hours":"Mo-Fr 07:00 - 18:00 | Sa 08:00 - 17:00","utc_offset":"-360","gplace_id":null,"gplace_url":"https://maps.google.com/?cid=16832883962793356218","dealerID":74209,"trusted":false,"image_id":"v1597283948/kia_RM.png","phone":"8016853010","cityStateSlug":"south-jordan.ut","slug":"South-Jordan.UT/jerry+seiner+kia+south+jordan","location":"40.5626352,-111.9000672","brandsList":["kia"]},{"id":7785,"crm_id":67077154,"name":"Ken Garff Hyundai Downtown","dealerSlug":"ken+garff+hyundai+downtown","city_state_slug":"Salt-Lake-City.UT","brand":"Hyundai","website":"www.kengarffhyundaidowntown.com","address":"717 S W Temple","city":"Salt Lake City","state":"UT","zip":84101,"latitude":40.7534374,"longitude":-111.8931426,"phone_number_service":"8012573230","phone_number_main":"8012573230","service_hours":"Mo-Fr 07:00 - 18:00 | Sa 08:00 - 16:00","utc_offset":"-360","gplace_id":null,"gplace_url":"https://maps.google.com/?cid=17067803403504740803","dealerID":74210,"trusted":false,"image_id":"v1597283959/hyundai_RM.png","phone":"8012573230","cityStateSlug":"salt-lake-city.ut","slug":"Salt-Lake-City.UT/ken+garff+hyundai+downtown","location":"40.7534374,-111.8931426","brandsList":["hyundai"]},{"id":7789,"crm_id":67077157,"name":"Ken Garff Nissan Salt Lake City","dealerSlug":"ken+garff+nissan+salt+lake+city","city_state_slug":"Salt-Lake-City.UT","brand":"Nissan","website":"www.kengarffnissanslc.com","address":"777 S W Temple","city":"Salt Lake City","state":"UT","zip":84101,"latitude":40.7523014,"longitude":-111.8933779,"phone_number_service":"8019331891","phone_number_main":"8019331890","service_hours":"Mo-Fr 07:00 - 18:00 | Sa 08:00 - 16:00","utc_offset":"-360","gplace_id":null,"gplace_url":"https://maps.google.com/?cid=2418356034130474513","dealerID":74211,"trusted":false,"image_id":"v1597283926/nissan_RM.png","phone":"8019331891","cityStateSlug":"salt-lake-city.ut","slug":"Salt-Lake-City.UT/ken+garff+nissan+salt+lake+city","location":"40.7523014,-111.8933779","brandsList":["nissan"]},{"id":4754,"crm_id":67077160,"name":"Ferrari of Salt Lake City","dealerSlug":"ferrari+of+salt+lake+city","city_state_slug":"Salt-Lake-City.UT","brand":"Ferrari","website":"www.ferrarislc.com","address":"543 State St","city":"Salt Lake City","state":"UT","zip":84111,"latitude":40.7573057,"longitude":-111.887708,"phone_number_service":"8013844430","phone_number_main":"8015210340","service_hours":"Mo-Fr 08:00 - 17:30","utc_offset":"-360","gplace_id":null,"gplace_url":"https://maps.google.com/?cid=16018410062227153106","dealerID":74212,"trusted":false,"image_id":"v2-motorsafety/assets/images/default-logo","phone":"8013844430","cityStateSlug":"salt-lake-city.ut","slug":"Salt-Lake-City.UT/ferrari+of+salt+lake+city","location":"40.7573057,-111.887708","brandsList":["ferrari"]},{"id":14258,"crm_id":67077163,"name":"Tim Dahle INFINITI","dealerSlug":"tim+dahle+infiniti","city_state_slug":"Murray.UT","brand":"INFINITI","website":"www.timdahleinfiniti.com","address":"4594 S State St","city":"Murray","state":"UT","zip":84107,"latitude":40.672326,"longitude":-111.8895366,"phone_number_service":"8015099167","phone_number_main":"8012696300","service_hours":"Mo-Fr 07:30 - 18:00 | Sa 08:00-16:00","utc_offset":"-360","gplace_id":null,"gplace_url":"https://maps.google.com/?cid=8764256684650269806","dealerID":74213,"trusted":false,"image_id":"v1597283957/infiniti_RM.png","phone":"8015099167","cityStateSlug":"murray.ut","slug":"Murray.UT/tim+dahle+infiniti","location":"40.672326,-111.8895366","brandsList":["infiniti"]},{"id":10451,"crm_id":67077166,"name":"Murdock Hyundai of Murray","dealerSlug":"murdock+hyundai+of+murray","city_state_slug":"Murray.UT","brand":"Hyundai","website":"www.murdockhyundaislc.com","address":"4646 S State St","city":"Murray","state":"UT","zip":84107,"latitude":40.670576,"longitude":-111.8893109,"phone_number_service":"3854250421","phone_number_main":"3853880316","service_hours":"Mo-Fr 07:00 - 21:00 | Sa 07:00 - 21:00","utc_offset":"-360","gplace_id":null,"gplace_url":"https://maps.google.com/?cid=15306942899264558185","dealerID":74214,"trusted":false,"image_id":"v1597283959/hyundai_RM.png","phone":"3854250421","cityStateSlug":"murray.ut","slug":"Murray.UT/murdock+hyundai+of+murray","location":"40.670576,-111.8893109","brandsList":["hyundai"]},{"id":1709,"crm_id":67077169,"name":"BMW of Murray","dealerSlug":"bmw+of+murray","city_state_slug":"Murray.UT","brand":"BMW","website":"www.bmwofmurray.com","address":"4735 State St","city":"Murray","state":"UT","zip":84107,"latitude":40.6689415,"longitude":-111.8879471,"phone_number_service":"8443265469","phone_number_main":"8012622479","service_hours":"Mo-Fr 07:30 - 18:00 | Sa 09:00 - 14:00","utc_offset":"-360","gplace_id":null,"gplace_url":"https://maps.google.com/?cid=8700082744187454408","dealerID":51620,"trusted":true,"image_id":"v1597283982/bmw_RM.png","phone":"8443265469","cityStateSlug":"murray.ut","slug":"Murray.UT/bmw+of+murray","location":"40.6689415,-111.8879471","brandsList":["bmw"]},{"id":8454,"crm_id":67077175,"name":"Larry H. Miller Lexus Murray","dealerSlug":"larry+h+miller+lexus+murray","city_state_slug":"Murray.UT","brand":"Lexus","website":"www.lhmlexus.com","address":"5686 South State Street","city":"Murray","state":"UT","zip":84107,"latitude":40.6469159,"longitude":-111.8897505,"phone_number_service":"8447425563","phone_number_main":"8015900638","service_hours":"Mo-Fr 07:00 - 18:00 | Sa 07:00 - 15:00","utc_offset":"-360","gplace_id":null,"gplace_url":"https://maps.google.com/?cid=10610241659939816747","dealerID":74216,"trusted":false,"image_id":"v1597284042/lexus_ms.png","phone":"8447425563","cityStateSlug":"murray.ut","slug":"Murray.UT/larry+h+miller+lexus+murray","location":"40.6469159,-111.8897505","brandsList":["lexus"]},{"id":7110,"crm_id":67077181,"name":"Jaguar Downtown Salt Lake","dealerSlug":"jaguar+downtown+salt+lake","city_state_slug":"Salt-Lake-City.UT","brand":"Jaguar","website":"www.jaguardowntownsaltlake.com","address":"150 E 500 S","city":"Salt Lake City","state":"UT","zip":84111,"latitude":40.7576965,"longitude":-111.8866857,"phone_number_service":"8012573630","phone_number_main":"8012573600","service_hours":"Mo-Fr 07:30 - 18:00 | Sa 08:00 - 14:00","utc_offset":"-360","gplace_id":null,"gplace_url":"https://maps.google.com/?cid=7207427270692455123","dealerID":74217,"trusted":false,"image_id":"v1597283954/jaguar_RM.png","phone":"8012573630","cityStateSlug":"salt-lake-city.ut","slug":"Salt-Lake-City.UT/jaguar+downtown+salt+lake","location":"40.7576965,-111.8866857","brandsList":["jaguar"]},{"id":7792,"crm_id":67077187,"name":"Ken Garff Volvo Cars","dealerSlug":"ken+garff+volvo+cars","city_state_slug":"Salt-Lake-City.UT","brand":"Volvo","website":"www.kengarffvolvocars.com","address":"525 South State Street","city":"Salt Lake City","state":"UT","zip":84111,"latitude":40.7576438,"longitude":-111.8877318,"phone_number_service":"8667963183","phone_number_main":"8667897162","service_hours":"Mo-Fr 07:30 - 18:00 | 08:00 - 14:00","utc_offset":"-360","gplace_id":null,"gplace_url":"https://maps.google.com/?cid=10291458905205345122","dealerID":74218,"trusted":false,"image_id":"v1597283901/volvo.jpg","phone":"8667963183","cityStateSlug":"salt-lake-city.ut","slug":"Salt-Lake-City.UT/ken+garff+volvo+cars","location":"40.7576438,-111.8877318","brandsList":["volvo"]},{"id":7782,"crm_id":67077193,"name":"Ken Garff Honda Downtown","dealerSlug":"ken+garff+honda+downtown","city_state_slug":"Salt-Lake-City.UT","brand":"Honda","website":"www.kengarffhondadowntown.com","address":"900 South State Street","city":"Salt Lake City","state":"UT","zip":84111,"latitude":40.7487296,"longitude":-111.8891018,"phone_number_service":"8015261730","phone_number_main":"8015261730","service_hours":"Mo-Fr 07:00 - 18:00 | Sa 08:00 - 17:00","utc_offset":"-360","gplace_id":null,"gplace_url":"https://maps.google.com/?cid=14693440765354047673","dealerID":74219,"trusted":false,"image_id":"v1597284047/honda_ms.png","phone":"8015261730","cityStateSlug":"salt-lake-city.ut","slug":"Salt-Lake-City.UT/ken+garff+honda+downtown","location":"40.7487296,-111.8891018","brandsList":["honda"]},{"id":646,"crm_id":67077196,"name":"Audi Salt Lake City","dealerSlug":"audi+salt+lake+city","city_state_slug":"Salt-Lake-City.UT","brand":"Audi","website":"www.audisaltlakecity.com","address":"999 State St","city":"Salt Lake City","state":"UT","zip":84111,"latitude":40.7470946,"longitude":-111.8878328,"phone_number_service":"8887992718","phone_number_main":"8887992718","service_hours":"Mo-Fr 07:30 - 18:00 | Sa 08:30 - 17:00","utc_offset":"-360","gplace_id":null,"gplace_url":"https://maps.google.com/?cid=10102870644170733987","dealerID":74220,"trusted":false,"image_id":"v1597283985/audi_RM.png","phone":"8887992718","cityStateSlug":"salt-lake-city.ut","slug":"Salt-Lake-City.UT/audi+salt+lake+city","location":"40.7470946,-111.8878328","brandsList":["audi"]},{"id":12792,"crm_id":67077199,"name":"Salt Lake Valley Chrysler Dodge Jeep RAM","dealerSlug":"salt+lake+valley+chrysler+dodge+jeep+ram","city_state_slug":"Salt-Lake-City.UT","brand":"Chrysler,Dodge,Jeep,RAM","website":"www.saltlakevalleychryslerdodgeramjeep.com","address":"2309 State St","city":"Salt Lake City","state":"UT","zip":84115,"latitude":40.7207008,"longitude":-111.8873868,"phone_number_service":"8014776872","phone_number_main":"8015120868","service_hours":"Mo-Fr 07:00 - 18:00 | Sa 08:00 - 15:00","utc_offset":"-360","gplace_id":null,"gplace_url":"https://maps.google.com/?cid=6353652430736956671","dealerID":74221,"trusted":false,"image_id":"v1597283975/chrysler_RM.png","phone":"8014776872","cityStateSlug":"salt-lake-city.ut","slug":"Salt-Lake-City.UT/salt+lake+valley+chrysler+dodge+jeep+ram","location":"40.7207008,-111.8873868","brandsList":["chrysler","dodge","jeep","ram"]},{"id":7334,"crm_id":67077202,"name":"Jerry Seiner Salt Lake Kia","dealerSlug":"jerry+seiner+salt+lake+kia","city_state_slug":"Salt-Lake-City.UT","brand":"Kia","website":"www.seinerkiaslc.com","address":"1532 South 500 West","city":"Salt Lake City","state":"UT","zip":84115,"latitude":40.7373832,"longitude":-111.9072556,"phone_number_service":"8016853242","phone_number_main":"3854742419","service_hours":"Mo-Fr 07:00 - 18:00 | Sa 08:00 - 17:00","utc_offset":"-360","gplace_id":null,"gplace_url":"https://maps.google.com/?cid=8703292240860721084","dealerID":74222,"trusted":false,"image_id":"v1597283948/kia_RM.png","phone":"8016853242","cityStateSlug":"salt-lake-city.ut","slug":"Salt-Lake-City.UT/jerry+seiner+salt+lake+kia","location":"40.7373832,-111.9072556","brandsList":["kia"]},{"id":6352,"crm_id":67077208,"name":"Heritage Chrysler Dodge Jeep RAM of Brigham","dealerSlug":"heritage+chrysler+dodge+jeep+ram+of+brigham","city_state_slug":"Brigham-City.UT","brand":"Chrysler,Dodge,Jeep,RAM","website":"www.heritagebrigham.com/","address":"647 S Main St","city":"Brigham City","state":"UT","zip":84302,"latitude":41.4976554,"longitude":-112.0153942,"phone_number_service":"4353390709","phone_number_main":"4357233456","service_hours":"Mo-Fr 08:00 - 17:00 | Sa 08:00 - 15:00","utc_offset":"-360","gplace_id":null,"gplace_url":"https://maps.google.com/?cid=3266774432990439387","dealerID":74223,"trusted":false,"image_id":"v1597283975/chrysler_RM.png","phone":"4353390709","cityStateSlug":"brigham-city.ut","slug":"Brigham-City.UT/heritage+chrysler+dodge+jeep+ram+of+brigham","location":"41.4976554,-112.0153942","brandsList":["chrysler","dodge","jeep","ram"]},{"id":15552,"crm_id":67077214,"name":"Wilson Motor Company","dealerSlug":"wilson+motor+company","city_state_slug":"Logan.UT","brand":"Ford,Lincoln","website":"www.wilsonmotor.com","address":"328 Main St","city":"Logan","state":"UT","zip":84321,"latitude":41.737454,"longitude":-111.834326,"phone_number_service":"8884865780","phone_number_main":"4357527355","service_hours":"Mo-Fr 08:00 - 17:30","utc_offset":"-360","gplace_id":null,"gplace_url":"https://maps.google.com/?cid=13572253852938789182","dealerID":74224,"trusted":false,"image_id":"v1597283967/ford_RM.png","phone":"8884865780","cityStateSlug":"logan.ut","slug":"Logan.UT/wilson+motor+company","location":"41.737454,-111.834326","brandsList":["ford","lincoln"]},{"id":6353,"crm_id":67077217,"name":"Heritage Chrysler Dodge Jeep RAM of Logan","dealerSlug":"heritage+chrysler+dodge+jeep+ram+of+logan","city_state_slug":"North-Logan.UT","brand":"Chrysler,Dodge,Jeep,RAM","website":"www.heritagecdjr.com/","address":"2900 North Main Street North","city":"North Logan","state":"UT","zip":84341,"latitude":41.783942,"longitude":-111.8330686,"phone_number_service":"4355275335","phone_number_main":"4357520050","service_hours":"Mo-Sa 08:00 - 17:00","utc_offset":"-360","gplace_id":null,"gplace_url":"https://maps.google.com/?cid=17905708243271746105","dealerID":74225,"trusted":false,"image_id":"v1597283975/chrysler_RM.png","phone":"4355275335","cityStateSlug":"north-logan.ut","slug":"North-Logan.UT/heritage+chrysler+dodge+jeep+ram+of+logan","location":"41.783942,-111.8330686","brandsList":["chrysler","dodge","jeep","ram"]},{"id":10450,"crm_id":67077220,"name":"Murdock Hyundai of Logan","dealerSlug":"murdock+hyundai+of+logan","city_state_slug":"Logan.UT","brand":"Hyundai","website":"www.murdockhyundailogan.com","address":"3131 Main St","city":"Logan","state":"UT","zip":84341,"latitude":41.7890325,"longitude":-111.8348158,"phone_number_service":"8665269618","phone_number_main":"8663728250","service_hours":"Mo-Fr 07:30 - 18:00 | Sa 08:00 - 15:00","utc_offset":"-360","gplace_id":null,"gplace_url":"https://maps.google.com/?cid=4523591076604424956","dealerID":74226,"trusted":false,"image_id":"v1597283959/hyundai_RM.png","phone":"8665269618","cityStateSlug":"logan.ut","slug":"Logan.UT/murdock+hyundai+of+logan","location":"41.7890325,-111.8348158","brandsList":["hyundai"]},{"id":7583,"crm_id":67077223,"name":"John Watson Chevrolet","dealerSlug":"john+watson+chevrolet","city_state_slug":"Ogden.UT","brand":"Chevrolet","website":"www.johnwatsonchevrolet.com","address":"3535 Wall Ave","city":"Ogden","state":"UT","zip":84401,"latitude":41.199631,"longitude":-111.9798994,"phone_number_service":"8015287925","phone_number_main":"8013942611","service_hours":"Mo-Fr 08:00 - 18:00 | Sa 08:00 - 13:00","utc_offset":"-360","gplace_id":null,"gplace_url":"https://maps.google.com/?cid=4491034994753052119","dealerID":74227,"trusted":false,"image_id":"v1597284079/chevy_ms.png","phone":"8015287925","cityStateSlug":"ogden.ut","slug":"Ogden.UT/john+watson+chevrolet","location":"41.199631,-111.9798994","brandsList":["chevrolet"]},{"id":8432,"crm_id":67077226,"name":"Larry H. Miller Chrysler Jeep Dodge RAM Riverdale","dealerSlug":"larry+h+miller+chrysler+jeep+dodge+ram+riverdale","city_state_slug":"Riverdale.UT","brand":"Chrysler,Dodge,Jeep,RAM","website":"www.lhmdodgeriverdale.com","address":"1481 W Riverdale Rd","city":"Riverdale","state":"UT","zip":84405,"latitude":41.1721186,"longitude":-112.0145844,"phone_number_service":"8018933776","phone_number_main":"8015287478","service_hours":"Mo-Fr 07:00 - 18:00 | Sa 07:00 - 17:00","utc_offset":"-360","gplace_id":null,"gplace_url":"https://maps.google.com/?cid=5827634781536668769","dealerID":74228,"trusted":false,"image_id":"v1597283975/chrysler_RM.png","phone":"8018933776","cityStateSlug":"riverdale.ut","slug":"Riverdale.UT/larry+h+miller+chrysler+jeep+dodge+ram+riverdale","location":"41.1721186,-112.0145844","brandsList":["chrysler","dodge","jeep","ram"]},{"id":7788,"crm_id":67077229,"name":"Ken Garff Nissan Riverdale","dealerSlug":"ken+garff+nissan+riverdale","city_state_slug":"Riverdale.UT","brand":"Nissan","website":"www.kengarffnissanogden.com","address":"615 W Riverdale Rd","city":"Riverdale","state":"UT","zip":84405,"latitude":41.179789,"longitude":-111.9940141,"phone_number_service":"8017814530","phone_number_main":"8017814500","service_hours":"Mo-Fr 07:00 - 18:00 | Sa 08:00 - 17:00","utc_offset":"-360","gplace_id":null,"gplace_url":"https://maps.google.com/?cid=11750098765973955911","dealerID":74229,"trusted":false,"image_id":"v1597283926/nissan_RM.png","phone":"8017814530","cityStateSlug":"riverdale.ut","slug":"Riverdale.UT/ken+garff+nissan+riverdale","location":"41.179789,-111.9940141","brandsList":["nissan"]},{"id":15736,"crm_id":67077232,"name":"Young Subaru","dealerSlug":"young+subaru","city_state_slug":"South-Ogden.UT","brand":"Subaru","website":"www.youngsubaru.com","address":"3920 Riverdale Rd","city":"South Ogden","state":"UT","zip":84405,"latitude":41.1929318,"longitude":-111.9771295,"phone_number_service":"8669905411","phone_number_main":"8015289342","service_hours":"Mo-Fr 07:00 - 18:00 | Sa 08:00 - 15:00","utc_offset":"-360","gplace_id":null,"gplace_url":"https://maps.google.com/?cid=10933731015961330073","dealerID":74230,"trusted":false,"image_id":"v1597283982/subaru_ms.png","phone":"8669905411","cityStateSlug":"south-ogden.ut","slug":"South-Ogden.UT/young+subaru","location":"41.1929318,-111.9771295","brandsList":["subaru"]},{"id":11875,"crm_id":67077235,"name":"Price Chrysler Dodge Jeep RAM","dealerSlug":"price+chrysler+dodge+jeep+ram","city_state_slug":"Price.UT","brand":"Chrysler,Dodge,Jeep,RAM","website":"www.pricechryslerdodgejeep.com","address":"354 S UT-55","city":"Price","state":"UT","zip":84501,"latitude":39.594096,"longitude":-110.791311,"phone_number_service":"4356131704","phone_number_main":"4356373360","service_hours":"Mo-Fr 08:00 - 18:00 | Sa 09:00 - 16:00","utc_offset":"-360","gplace_id":null,"gplace_url":"https://maps.google.com/?cid=18292702778359775892","dealerID":74231,"trusted":false,"image_id":"v1597283975/chrysler_RM.png","phone":"4356131704","cityStateSlug":"price.ut","slug":"Price.UT/price+chrysler+dodge+jeep+ram","location":"39.594096,-110.791311","brandsList":["chrysler","dodge","jeep","ram"]},{"id":3576,"crm_id":67077238,"name":"Crump Reese Moab Ford","dealerSlug":"crump+reese+moab+ford","city_state_slug":"Moab.UT","brand":"Ford","website":"www.crumpreesemoabford.com","address":"500 S Main St","city":"Moab","state":"UT","zip":84532,"latitude":38.5660649,"longitude":-109.5508294,"phone_number_service":"8887985047","phone_number_main":"8887940348","service_hours":"Mo-Fr 08:00 - 17:00 | Sa 08:00 - 13:00","utc_offset":"-360","gplace_id":null,"gplace_url":"https://maps.google.com/?cid=16202631564300349425","dealerID":74232,"trusted":false,"image_id":"v1597283967/ford_RM.png","phone":"8887985047","cityStateSlug":"moab.ut","slug":"Moab.UT/crump+reese+moab+ford","location":"38.5660649,-109.5508294","brandsList":["ford"]},{"id":8446,"crm_id":67077247,"name":"Larry H. Miller Ford Provo","dealerSlug":"larry+h+miller+ford+provo","city_state_slug":"Provo.UT","brand":"Ford","website":"www.larryhmillerfordprovo.com","address":"1995 N University Pkwy","city":"Provo","state":"UT","zip":84604,"latitude":40.259292,"longitude":-111.667045,"phone_number_service":"8667871503","phone_number_main":"8017349796","service_hours":"Mo-Fr 07:00 - 18:00 | Sa 08:00 - 13:00","utc_offset":"-360","gplace_id":null,"gplace_url":"https://maps.google.com/?cid=16133484853010585829","dealerID":74233,"trusted":false,"image_id":"v1597283967/ford_RM.png","phone":"8667871503","cityStateSlug":"provo.ut","slug":"Provo.UT/larry+h+miller+ford+provo","location":"40.259292,-111.667045","brandsList":["ford"]},{"id":8423,"crm_id":67077250,"name":"Larry H. Miller Chevrolet","dealerSlug":"larry+h+miller+chevrolet","city_state_slug":"Provo.UT","brand":"Chevrolet","website":"www.larryhmillerchevroletprovo.com","address":"2125 N University Pkwy","city":"Provo","state":"UT","zip":84604,"latitude":40.2613134,"longitude":-111.6670972,"phone_number_service":"8555304437","phone_number_main":"8017704982","service_hours":"Mo-Fr 07:00 - 18:00 | Sa 08:00 - 15:00","utc_offset":"-360","gplace_id":null,"gplace_url":"https://maps.google.com/?cid=9417696317407207254","dealerID":74234,"trusted":false,"image_id":"v1597284079/chevy_ms.png","phone":"8555304437","cityStateSlug":"provo.ut","slug":"Provo.UT/larry+h+miller+chevrolet","location":"40.2613134,-111.6670972","brandsList":["chevrolet"]},{"id":4241,"crm_id":67077253,"name":"Droubay Chevrolet Buick","dealerSlug":"droubay+chevrolet+buick","city_state_slug":"Delta.UT","brand":"Buick,Chevrolet","website":"www.droubaychevrolet.com","address":"348 W Main St","city":"Delta","state":"UT","zip":84624,"latitude":39.352721,"longitude":-112.582545,"phone_number_service":"8882657917","phone_number_main":"4358642581","service_hours":"Mo-Fr 08:00 - 18:00 | Sa 09:00 - 13:00","utc_offset":"-360","gplace_id":null,"gplace_url":"https://maps.google.com/?cid=8107937538022406045","dealerID":74235,"trusted":false,"image_id":"v1597283981/buick_RM.png","phone":"8882657917","cityStateSlug":"delta.ut","slug":"Delta.UT/droubay+chevrolet+buick","location":"39.352721,-112.582545","brandsList":["buick","chevrolet"]},{"id":12772,"crm_id":67077256,"name":"Sahara Motors","dealerSlug":"sahara+motors","city_state_slug":"Delta.UT","brand":"Chrysler,Dodge,Jeep,RAM","website":"www.saharamotorschryslerdodgejeep.com","address":"597 North Hwy 6","city":"Delta","state":"UT","zip":84624,"latitude":39.3621429,"longitude":-112.553085,"phone_number_service":"8885930942","phone_number_main":"4358644456","service_hours":"Mo-Fr  08:00 - 18:00","utc_offset":"-360","gplace_id":null,"gplace_url":"https://maps.google.com/?cid=13320411922597748711","dealerID":74236,"trusted":false,"image_id":"v1597283975/chrysler_RM.png","phone":"8885930942","cityStateSlug":"delta.ut","slug":"Delta.UT/sahara+motors","location":"39.3621429,-112.553085","brandsList":["chrysler","dodge","jeep","ram"]},{"id":12773,"crm_id":67077259,"name":"Sahara Motors","dealerSlug":"sahara+motors","city_state_slug":"Delta.UT","brand":"Ford","website":"www.saharamotorsinc.com","address":"597 North Highway 6","city":"Delta","state":"UT","zip":84624,"latitude":39.3622137,"longitude":-112.5531726,"phone_number_service":"8772550261","phone_number_main":"4358644456","service_hours":"Mo-Fr  08:00 - 18:00","utc_offset":"-360","gplace_id":null,"gplace_url":"https://maps.google.com/?cid=5965161138711438866","dealerID":74237,"trusted":false,"image_id":"v1597283967/ford_RM.png","phone":"8772550261","cityStateSlug":"delta.ut","slug":"Delta.UT/sahara+motors","location":"39.3622137,-112.5531726","brandsList":["ford"]},{"id":14292,"crm_id":67077262,"name":"Tischner Ford Sales","dealerSlug":"tischner+ford+sales","city_state_slug":"Santaquin.UT","brand":"Ford","website":"www.tischnerford.com","address":"118 W Main St","city":"Santaquin","state":"UT","zip":84655,"latitude":39.9758784,"longitude":-111.7877136,"phone_number_service":"8888600668","phone_number_main":"8017543281","service_hours":"Mo-Fr  08:00 - 17:30","utc_offset":"-360","gplace_id":null,"gplace_url":"https://maps.google.com/?cid=15785703125184670411","dealerID":74238,"trusted":false,"image_id":"v1597283967/ford_RM.png","phone":"8888600668","cityStateSlug":"santaquin.ut","slug":"Santaquin.UT/tischner+ford+sales","location":"39.9758784,-111.7877136","brandsList":["ford"]},{"id":3037,"crm_id":67077268,"name":"Classic Motors","dealerSlug":"classic+motors","city_state_slug":"Richfield.UT","brand":"Chrysler,Dodge,Jeep,RAM","website":"www.classicmo.com","address":"120 South Main Street","city":"Richfield","state":"UT","zip":84701,"latitude":38.7665674,"longitude":-112.0854112,"phone_number_service":"4352416952","phone_number_main":"4358964441","service_hours":"Mo-Fr 07:00 - 18:00 | Sa 09:00 - 17:00","utc_offset":"-360","gplace_id":null,"gplace_url":"https://maps.google.com/?cid=15051089295354692021","dealerID":74239,"trusted":false,"image_id":"v1597283975/chrysler_RM.png","phone":"4352416952","cityStateSlug":"richfield.ut","slug":"Richfield.UT/classic+motors","location":"38.7665674,-112.0854112","brandsList":["chrysler","dodge","jeep","ram"]},{"id":14614,"crm_id":67077271,"name":"Tri State Motors","dealerSlug":"tri+state+motors","city_state_slug":"Cedar-City.UT","brand":"Cadillac,GMC","website":"www.tristateofcedarcity.com","address":"298 S Main St","city":"Cedar City","state":"UT","zip":84720,"latitude":37.6721444,"longitude":-113.0621152,"phone_number_service":"4352384340","phone_number_main":"4355866563","service_hours":"Mo-Fr 08:00 - 17:00","utc_offset":"-360","gplace_id":null,"gplace_url":"https://maps.google.com/?cid=1105798021143210816","dealerID":74240,"trusted":false,"image_id":"v1597283980/cadillac.png","phone":"4352384340","cityStateSlug":"cedar-city.ut","slug":"Cedar-City.UT/tri+state+motors","location":"37.6721444,-113.0621152","brandsList":["cadillac","gmc"]},{"id":2063,"crm_id":67077277,"name":"Bradshaw Chevrolet Buick","dealerSlug":"bradshaw+chevrolet+buick","city_state_slug":"Cedar-City.UT","brand":"Buick,Chevrolet","website":"www.bradshawchevy.com","address":"360 N Main St","city":"Cedar City","state":"UT","zip":84721,"latitude":37.683494,"longitude":-113.0613373,"phone_number_service":"4352384211","phone_number_main":"4355724176","service_hours":"Mo-Fr 07:00 - 18:00","utc_offset":"-360","gplace_id":null,"gplace_url":"https://maps.google.com/?cid=11729350204063522730","dealerID":74241,"trusted":false,"image_id":"v1597283981/buick_RM.png","phone":"4352384211","cityStateSlug":"cedar-city.ut","slug":"Cedar-City.UT/bradshaw+chevrolet+buick","location":"37.683494,-113.0613373","brandsList":["buick","chevrolet"]},{"id":7790,"crm_id":67077280,"name":"Ken Garff St. George Ford","dealerSlug":"ken+garff+st+george+ford","city_state_slug":"Saint-George.UT","brand":"Ford,Lincoln","website":"www.stgeorgeford.com","address":"145 Hilton Dr","city":"Saint George","state":"UT","zip":84770,"latitude":37.0764917,"longitude":-113.586737,"phone_number_service":"8883224876","phone_number_main":"8883182664","service_hours":"Mo-Fr 07:00-18:00 | Sa 08:00-12:00","utc_offset":"-360","gplace_id":null,"gplace_url":"https://maps.google.com/?cid=6688310204795024262","dealerID":74242,"trusted":false,"image_id":"v1597283967/ford_RM.png","phone":"8883224876","cityStateSlug":"saint-george.ut","slug":"Saint-George.UT/ken+garff+st+george+ford","location":"37.0764917,-113.586737","brandsList":["ford","lincoln"]},{"id":13598,"crm_id":67077283,"name":"Stephen Wade Toyota","dealerSlug":"stephen+wade+toyota","city_state_slug":"Saint-George.UT","brand":"Toyota","website":"www.stephenwadetoyota.com","address":"150 Hilton Dr","city":"Saint George","state":"UT","zip":84770,"latitude":37.0777381,"longitude":-113.5869539,"phone_number_service":"4356346570","phone_number_main":"4356346500","service_hours":"Mo-Fr 07:30 - 18:00 | Sa 07:30 - 17:00","utc_offset":"-360","gplace_id":null,"gplace_url":"https://maps.google.com/?cid=617556676159610903","dealerID":51429,"trusted":true,"image_id":"v1597284039/toyota_ms.png","phone":"4356346570","cityStateSlug":"saint-george.ut","slug":"Saint-George.UT/stephen+wade+toyota","location":"37.0777381,-113.5869539","brandsList":["toyota"]},{"id":4817,"crm_id":67077292,"name":"Findlay Volkswagen St. George","dealerSlug":"findlay+volkswagen+st+george","city_state_slug":"Saint-George.UT","brand":"Volkswagen","website":"www.stgeorgevw.com","address":"1333 South Sunland Dr","city":"Saint George","state":"UT","zip":84790,"latitude":37.0851686,"longitude":-113.5797786,"phone_number_service":"8332058728","phone_number_main":"4356340900","service_hours":"Mo-Fr 08:00 - 18:00 | Sa 08:00 - 16:00","utc_offset":"-360","gplace_id":null,"gplace_url":"https://maps.google.com/?cid=15895775466408935556","dealerID":74244,"trusted":false,"image_id":"v1597283902/volkswagen.png","phone":"8332058728","cityStateSlug":"saint-george.ut","slug":"Saint-George.UT/findlay+volkswagen+st+george","location":"37.0851686,-113.5797786","brandsList":["volkswagen"]},{"id":8431,"crm_id":69301540,"name":"Larry H. Miller Chrysler Jeep Dodge RAM Provo","dealerSlug":"larry+h+miller+chrysler+jeep+dodge+ram+provo","city_state_slug":"Provo.UT","brand":"Chrysler,Dodge,Jeep,RAM","website":"www.larryhmillercjdprovo.com","address":"1825 N University Pkwy","city":"Provo","state":"UT","zip":84604,"latitude":40.2594283,"longitude":-111.665123,"phone_number_service":"8443518511","phone_number_main":"8017349791","service_hours":"Mo-Fr 07:00 - 18:00 | Sa 08:00 - 15:00","utc_offset":"-360","gplace_id":null,"gplace_url":"https://maps.google.com/?cid=5753983383562567556","dealerID":74941,"trusted":false,"image_id":"v1597283975/chrysler_RM.png","phone":"8443518511","cityStateSlug":"provo.ut","slug":"Provo.UT/larry+h+miller+chrysler+jeep+dodge+ram+provo","location":"40.2594283,-111.665123","brandsList":["chrysler","dodge","jeep","ram"]},{"id":9828,"crm_id":69720589,"name":"Mercedes-Benz of Salt Lake City","dealerSlug":"mercedes+benz+of+salt+lake+city","city_state_slug":"Salt-Lake-City.UT","brand":"Mercedes-Benz","website":"www.kengarffmercedes.com","address":"575 State St","city":"Salt Lake City","state":"UT","zip":84111,"latitude":40.7567581,"longitude":-111.8875137,"phone_number_service":"8557801052","phone_number_main":"8557801052","service_hours":"Mo-Fr 07:30 - 18:00 | Sa 08:00 - 17:00","utc_offset":"-360","gplace_id":null,"gplace_url":"https://maps.google.com/?cid=14760563753615922213","dealerID":50460,"trusted":true,"image_id":"v1597283934/mercedes_RM.png","phone":"8557801052","cityStateSlug":"salt-lake-city.ut","slug":"Salt-Lake-City.UT/mercedes+benz+of+salt+lake+city","location":"40.7567581,-111.8875137","brandsList":["mercedes-benz"]},{"id":13430,"crm_id":71544535,"name":"Southtowne Mazda","dealerSlug":"southtowne+mazda","city_state_slug":"Sandy.UT","brand":"Mazda","website":"www.southtownemazda.com/","address":"10785 Auto Mall Dr","city":"Sandy","state":"UT","zip":84070,"latitude":40.5557844,"longitude":-111.8936675,"phone_number_service":"8777489864","phone_number_main":"8015714299","service_hours":"Mo-Fr 07:00 - 18:00 | Sa 08:00 - 17:00","utc_offset":"-360","gplace_id":null,"gplace_url":"https://maps.google.com/?cid=14294363241792146961","dealerID":75012,"trusted":false,"image_id":"v1597283937/mazda.png","phone":"8777489864","cityStateSlug":"sandy.ut","slug":"Sandy.UT/southtowne+mazda","location":"40.5557844,-111.8936675","brandsList":["mazda"]},{"id":8450,"crm_id":71674081,"name":"Larry H. Miller Honda Murray","dealerSlug":"larry+h+miller+honda+murray","city_state_slug":"Murray.UT","brand":"Honda","website":"www.lhmhonda.com","address":"5808 South State Street","city":"Murray","state":"UT","zip":84107,"latitude":40.6451854,"longitude":-111.8902082,"phone_number_service":"8668385783","phone_number_main":"3854748448","service_hours":"Mo-Fr 07:00 - 18:00 | Sa 08:00 - 17:00","utc_offset":"-360","gplace_id":null,"gplace_url":"https://maps.google.com/?cid=5443354366792667615","dealerID":75051,"trusted":false,"image_id":"v1597284047/honda_ms.png","phone":"8668385783","cityStateSlug":"murray.ut","slug":"Murray.UT/larry+h+miller+honda+murray","location":"40.6451854,-111.8902082","brandsList":["honda"]},{"id":8443,"crm_id":71674114,"name":"Larry H. Miller Ford Draper","dealerSlug":"larry+h+miller+ford+draper","city_state_slug":"Draper.UT","brand":"Ford,Lincoln","website":"www.lhmforddraper.com","address":"11442 Lone Peak Pkwy","city":"Draper","state":"UT","zip":84020,"latitude":40.5432904,"longitude":-111.9002583,"phone_number_service":"8886775193","phone_number_main":"8017425237","service_hours":"Mo-Fr 07:00 - 18:00 | Sa 08:00 - 16:00","utc_offset":"-360","gplace_id":null,"gplace_url":"https://maps.google.com/?cid=4463270889116814250","dealerID":75052,"trusted":false,"image_id":"v1597283967/ford_RM.png","phone":"8886775193","cityStateSlug":"draper.ut","slug":"Draper.UT/larry+h+miller+ford+draper","location":"40.5432904,-111.9002583","brandsList":["ford","lincoln"]},{"id":2697,"crm_id":72015268,"name":"Cedar City Ford Lincoln","dealerSlug":"cedar+city+ford+lincoln","city_state_slug":"Cedar-City.UT","brand":"Ford,Lincoln","website":"www.cedarcityford.com","address":"1010 N Main St","city":"Cedar City","state":"UT","zip":84721,"latitude":37.6949608,"longitude":-113.0618843,"phone_number_service":"8335146129","phone_number_main":"8557824508","service_hours":"Mo-Fr 07:30 - 18:00","utc_offset":"-360","gplace_id":null,"gplace_url":"https://maps.google.com/?cid=4263339818584811960","dealerID":75058,"trusted":false,"image_id":"v1597283967/ford_RM.png","phone":"8335146129","cityStateSlug":"cedar-city.ut","slug":"Cedar-City.UT/cedar+city+ford+lincoln","location":"37.6949608,-113.0618843","brandsList":["ford","lincoln"]},{"id":7786,"crm_id":79962217,"name":"Ken Garff Hyundai Southtowne","dealerSlug":"ken+garff+hyundai+southtowne","city_state_slug":"Sandy.UT","brand":"Hyundai","website":"www.kengarffhyundaisouthtowne.com","address":"10770 South Auto Mall Drive","city":"Sandy","state":"UT","zip":84070,"latitude":40.5557083,"longitude":-111.8960216,"phone_number_service":"8019129930","phone_number_main":"8019129930","service_hours":"Mo-Fr 07:00 - 18:00 | Sa 08:00 - 17:00","utc_offset":"-360","gplace_id":null,"gplace_url":"https://maps.google.com/?cid=362524660773250526","dealerID":75225,"trusted":false,"image_id":"v1597283959/hyundai_RM.png","phone":"8019129930","cityStateSlug":"sandy.ut","slug":"Sandy.UT/ken+garff+hyundai+southtowne","location":"40.5557083,-111.8960216","brandsList":["hyundai"]},{"id":205,"crm_id":79962469,"name":"Alfa Romeo of Salt Lake City","dealerSlug":"alfa+romeo+of+salt+lake+city","city_state_slug":"Salt-Lake-City.UT","brand":"Alfa Romeo","website":"www.alfaromeosaltlakecity.com","address":"198 E 500 S","city":"Salt Lake City","state":"UT","zip":84111,"latitude":40.758067,"longitude":-111.885739,"phone_number_service":"8018538485","phone_number_main":"8019036100","service_hours":"Mo-Fr 08:00 - 17:30","utc_offset":"-360","gplace_id":null,"gplace_url":"https://maps.google.com/?cid=10277717493648260088","dealerID":75226,"trusted":false,"image_id":"v1597283991/Alfa-Romeo.jpg","phone":"8018538485","cityStateSlug":"salt-lake-city.ut","slug":"Salt-Lake-City.UT/alfa+romeo+of+salt+lake+city","location":"40.758067,-111.885739","brandsList":["alfa romeo"]},{"id":7791,"crm_id":79967989,"name":"Ken Garff Volkswagen","dealerSlug":"ken+garff+volkswagen","city_state_slug":"Orem.UT","brand":"Volkswagen","website":"www.kengarffvw.com","address":"115 E University Pkwy","city":"Orem","state":"UT","zip":84058,"latitude":40.2740693,"longitude":-111.6924473,"phone_number_service":"8017142330","phone_number_main":"8012280482","service_hours":"Mo-Fr 07:00-18:00 | Sa 08:00-16:00","utc_offset":"-360","gplace_id":null,"gplace_url":"https://maps.google.com/?cid=6973421074759413578","dealerID":75227,"trusted":false,"image_id":"v1597283902/volkswagen.png","phone":"8017142330","cityStateSlug":"orem.ut","slug":"Orem.UT/ken+garff+volkswagen","location":"40.2740693,-111.6924473","brandsList":["volkswagen"]},{"id":15726,"crm_id":82236802,"name":"Young Chevrolet","dealerSlug":"young+chevrolet","city_state_slug":"Layton.UT","brand":"Chevrolet","website":"www.youngchev.com","address":"645 N Main St","city":"Layton","state":"UT","zip":84041,"latitude":41.0689035,"longitude":-111.9758075,"phone_number_service":"8016637497","phone_number_main":"8016637565","service_hours":"Mo-Sa 07:00 - 19:00","utc_offset":"-360","gplace_id":null,"gplace_url":"https://maps.google.com/?cid=11380260027660199722","dealerID":75281,"trusted":false,"image_id":"v1597284079/chevy_ms.png","phone":"8016637497","cityStateSlug":"layton.ut","slug":"Layton.UT/young+chevrolet","location":"41.0689035,-111.9758075","brandsList":["chevrolet"]},{"id":8471,"crm_id":86739649,"name":"Larry H. Miller Toyota Murray","dealerSlug":"larry+h+miller+toyota+murray","city_state_slug":"Murray.UT","brand":"Toyota","website":"www.larryhmillertoyota.com","address":"5650 State St","city":"Murray","state":"UT","zip":84107,"latitude":40.648475,"longitude":-111.889591,"phone_number_service":"8668568059","phone_number_main":"8015900640","service_hours":"Mo-Fr 07:00 - 18:00 | Sa 08:00 - 17:00","utc_offset":"-360","gplace_id":null,"gplace_url":"https://maps.google.com/?cid=2385738124471882408","dealerID":75457,"trusted":false,"image_id":"v1597284039/toyota_ms.png","phone":"8668568059","cityStateSlug":"murray.ut","slug":"Murray.UT/larry+h+miller+toyota+murray","location":"40.648475,-111.889591","brandsList":["toyota"]},{"id":15730,"crm_id":101651077,"name":"Young Chrysler Jeep Dodge RAM","dealerSlug":"young+chrysler+jeep+dodge+ram","city_state_slug":"Morgan.UT","brand":"Chrysler,Dodge,Jeep,RAM","website":"www.youngchryslerdodgejeepram.com","address":"536 N 550 E","city":"Morgan","state":"UT","zip":84050,"latitude":41.050077,"longitude":-111.67942,"phone_number_service":"8013315416","phone_number_main":"8013315276","service_hours":"Mo-Sa 7:30-18:30","utc_offset":"-360","gplace_id":null,"gplace_url":"https://maps.google.com/?cid=11003895072082885165","dealerID":76576,"trusted":false,"image_id":"v1597283975/chrysler_RM.png","phone":"8013315416","cityStateSlug":"morgan.ut","slug":"Morgan.UT/young+chrysler+jeep+dodge+ram","location":"41.050077,-111.67942","brandsList":["chrysler","dodge","jeep","ram"]},{"id":9848,"crm_id":114924803,"name":"Mercedes-Benz of St. George","dealerSlug":"mercedes+benz+of+st+george","city_state_slug":"Saint-George.UT","brand":"Mercedes-Benz","website":"www.mbstgeorge.com","address":"1792 S Black Ridge Dr","city":"Saint George","state":"UT","zip":84770,"latitude":37.0773359,"longitude":-113.5895435,"phone_number_service":"4356347540","phone_number_main":"4356347500","service_hours":"Mo-Fr 07:30 - 18:00 | Sa 07:30 - 17:00","utc_offset":"-360","gplace_id":null,"gplace_url":"https://maps.google.com/?cid=4664146229307320494","dealerID":76932,"trusted":false,"image_id":"v1597283934/mercedes_RM.png","phone":"4356347540","cityStateSlug":"saint-george.ut","slug":"Saint-George.UT/mercedes+benz+of+st+george","location":"37.0773359,-113.5895435","brandsList":["mercedes-benz"]},{"id":13597,"crm_id":114924934,"name":"Stephen Wade Nissan","dealerSlug":"stephen+wade+nissan","city_state_slug":"Saint-George.UT","brand":"Nissan","website":"www.stephenwadenissan.com","address":"230 Hilton Dr","city":"Saint George","state":"UT","zip":84770,"latitude":37.0777821,"longitude":-113.5881951,"phone_number_service":"4356344546","phone_number_main":"4356344500","service_hours":"Mo-Fr 07:30 - 18:00 | Sa 07:30 - 17:00","utc_offset":"-360","gplace_id":null,"gplace_url":"https://maps.google.com/?cid=6544174999293468492","dealerID":76933,"trusted":false,"image_id":"v1597283926/nissan_RM.png","phone":"4356344546","cityStateSlug":"saint-george.ut","slug":"Saint-George.UT/stephen+wade+nissan","location":"37.0777821,-113.5881951","brandsList":["nissan"]},{"id":13594,"crm_id":114925003,"name":"Stephen Wade Chevrolet","dealerSlug":"stephen+wade+chevrolet","city_state_slug":"Saint-George.UT","brand":"Chevrolet","website":"www.stephenwadechevroletcadillac.com","address":"1670 Hilton Dr","city":"Saint George","state":"UT","zip":84770,"latitude":37.0795022,"longitude":-113.5859494,"phone_number_service":"4359862500","phone_number_main":"4355252018","service_hours":"Mo-Fr 07:30 - 18:00 | Sa 07:30-17:00","utc_offset":"-360","gplace_id":null,"gplace_url":"https://maps.google.com/?cid=11249202977652902989","dealerID":76934,"trusted":false,"image_id":"v1597284079/chevy_ms.png","phone":"4359862500","cityStateSlug":"saint-george.ut","slug":"Saint-George.UT/stephen+wade+chevrolet","location":"37.0795022,-113.5859494","brandsList":["chevrolet"]},{"id":13596,"crm_id":114925010,"name":"Stephen Wade Mazda","dealerSlug":"stephen+wade+mazda","city_state_slug":"Saint-George.UT","brand":"Mazda","website":"www.stephenwademazda.com","address":"1630 S Hilton Dr","city":"Saint George","state":"UT","zip":84770,"latitude":37.0802834,"longitude":-113.5861003,"phone_number_service":"4352516606","phone_number_main":"4356344465","service_hours":"Mo-Fr 07:30 - 18:00 | Sa 07:30-17:00","utc_offset":"-360","gplace_id":null,"gplace_url":"https://maps.google.com/?cid=7081355140616137556","dealerID":76935,"trusted":false,"image_id":"v1597283937/mazda.png","phone":"4352516606","cityStateSlug":"saint-george.ut","slug":"Saint-George.UT/stephen+wade+mazda","location":"37.0802834,-113.5861003","brandsList":["mazda"]},{"id":10160,"crm_id":114996076,"name":"MINI of Murray","dealerSlug":"mini+of+murray","city_state_slug":"Murray.UT","brand":"MINI","website":"www.miniofmurray.com","address":"4767 State St","city":"Murray","state":"UT","zip":84107,"latitude":40.6680389,"longitude":-111.8879583,"phone_number_service":"8337013877","phone_number_main":"8012629475","service_hours":"Mo-Fr 07:30 - 18:00","utc_offset":"-360","gplace_id":null,"gplace_url":"https://maps.google.com/?cid=2267294813368660430","dealerID":76967,"trusted":false,"image_id":"v1597283930/mini_RM.png","phone":"8337013877","cityStateSlug":"murray.ut","slug":"Murray.UT/mini+of+murray","location":"40.6680389,-111.8879583","brandsList":["mini"]},{"id":3638,"crm_id":115324381,"name":"D. Dahle Mazda of Murray","dealerSlug":"d+dahle+mazda+of+murray","city_state_slug":"Murray.UT","brand":"Mazda","website":"www.ddahlemazda.com","address":"4595 S State St","city":"Murray","state":"UT","zip":84107,"latitude":40.672446,"longitude":-111.8876447,"phone_number_service":"8667320009","phone_number_main":"8012660033","service_hours":"Mo-Fr 07:00 - 18:00 | Sa 08:00 - 17:00","utc_offset":"-360","gplace_id":null,"gplace_url":"https://maps.google.com/?cid=407534622778695201","dealerID":77007,"trusted":false,"image_id":"v1597283937/mazda.png","phone":"8667320009","cityStateSlug":"murray.ut","slug":"Murray.UT/d+dahle+mazda+of+murray","location":"40.672446,-111.8876447","brandsList":["mazda"]}]