[{"id":17215,"crm_id":999,"name":"Northpoint Chrysler, Dodge, Jeep, RAM","dealerSlug":"northpoint+chrysler+dodge+jeep+ram","city_state_slug":"Newport.VT","brand":"Chrysler,Dodge,Jeep,RAM","website":"www.northpointvt.com","address":"4441 US Route 5","city":"Newport","state":"VT","zip":5855,"latitude":44.951009,"longitude":-72.157364,"phone_number_service":"8023346523","phone_number_main":"","service_hours":"Mo-Fr 08:00 - 18:00 | Sa 09:00 - 16:00 | Su Closed","utc_offset":"","gplace_id":0,"gplace_url":"","dealerID":60260,"trusted":false,"image_id":"v1597283975/chrysler_RM.png","phone":"8023346523","cityStateSlug":"newport.vt","slug":"Newport.VT/northpoint+chrysler+dodge+jeep+ram","location":"44.951009,-72.157364","brandsList":["chrysler","dodge","jeep","ram"]},{"id":16345,"crm_id":999,"name":"E. J. Barrette & Sons","dealerSlug":"e+j+barrette+and+sons","city_state_slug":"Swanton.VT","brand":"Ford","website":"www.barretteford.com","address":"Route 78","city":"Swanton","state":"VT","zip":5488,"latitude":44.935538,"longitude":-73.134791,"phone_number_service":"8028683327","phone_number_main":"","service_hours":"Mo 08:00 - 17:00 | Tu 08:00 - 19:00 | We-Fr 08:00 - 17:00 | Sa 09:00 - 12:00 | Su Closed","utc_offset":"","gplace_id":0,"gplace_url":"","dealerID":60262,"trusted":false,"image_id":"v1597283967/ford_RM.png","phone":"8028683327","cityStateSlug":"swanton.vt","slug":"Swanton.VT/e+j+barrette+and+sons","location":"44.935538,-73.134791","brandsList":["ford"]},{"id":17623,"crm_id":999,"name":"Summit Chrysler Dodge Jeep & RAM","dealerSlug":"summit+chrysler+dodge+jeep+and+ram","city_state_slug":"Brattleboro.VT","brand":"Chrysler,Dodge,Jeep,RAM","website":"www.summitchryslerdodgejeepram.com","address":"1270 Putney Rd","city":"Brattleboro","state":"VT","zip":5301,"latitude":42.888669,"longitude":-72.554821,"phone_number_service":"8022510366","phone_number_main":"","service_hours":"Mo-Fr 08:00 - 19:00 | Sa 08:00 - 17:00 | Su 11:00 - 15:00","utc_offset":"","gplace_id":0,"gplace_url":"","dealerID":60584,"trusted":false,"image_id":"v1597283975/chrysler_RM.png","phone":"8022510366","cityStateSlug":"brattleboro.vt","slug":"Brattleboro.VT/summit+chrysler+dodge+jeep+and+ram","location":"42.888669,-72.554821","brandsList":["chrysler","dodge","jeep","ram"]},{"id":17748,"crm_id":999,"name":"Twin City Subaru","dealerSlug":"twin+city+subaru","city_state_slug":"Berlin.VT","brand":"Subaru","website":"TwinCitySubaru.dealer.subaru.com","address":"142 Berlin Mall Rd","city":"Berlin","state":"VT","zip":5602,"latitude":44.219363,"longitude":-72.564369,"phone_number_service":"7602457991","phone_number_main":"","service_hours":"","utc_offset":"","gplace_id":0,"gplace_url":"","dealerID":60636,"trusted":false,"image_id":"v1597283982/subaru_ms.png","phone":"7602457991","cityStateSlug":"berlin.vt","slug":"Berlin.VT/twin+city+subaru","location":"44.219363,-72.564369","brandsList":["subaru"]},{"id":16505,"crm_id":999,"name":"Goss Dodge Chrysler RAM Jeep FIAT","dealerSlug":"goss+dodge+chrysler+ram+jeep+fiat","city_state_slug":"South-Burlington.VT","brand":"Chrysler,Dodge,Jeep,RAM,Fiat","website":"www.gossdodgechryslerramjeep.com","address":"1485 Shelburne Rd","city":"South Burlington","state":"VT","zip":5403,"latitude":44.430745,"longitude":-73.211649,"phone_number_service":"8026580120","phone_number_main":"","service_hours":"Mo-Th 08:00 - 19:00 | Fr 08:00 - 18:00 | Sa 08:00 - 17:00 | Su Closed","utc_offset":"","gplace_id":0,"gplace_url":"","dealerID":60652,"trusted":false,"image_id":"v1597283975/chrysler_RM.png","phone":"8026580120","cityStateSlug":"south-burlington.vt","slug":"South-Burlington.VT/goss+dodge+chrysler+ram+jeep+fiat","location":"44.430745,-73.211649","brandsList":["chrysler","dodge","jeep","ram","fiat"]},{"id":17457,"crm_id":999,"name":"Rutland Dodge RAM","dealerSlug":"rutland+dodge+ram","city_state_slug":"Rutland.VT","brand":"Dodge,RAM","website":"www.rutlanddodgeram.net","address":"176 US Route 7","city":"Rutland","state":"VT","zip":5701,"latitude":43.587775,"longitude":-72.969337,"phone_number_service":"8022654964","phone_number_main":"","service_hours":"Mo-Fr 09:00 - 19:00 | Sa 08:30 - 17:00 | Su Closed","utc_offset":"","gplace_id":0,"gplace_url":"","dealerID":60753,"trusted":false,"image_id":"v1597283974/dodge.png","phone":"8022654964","cityStateSlug":"rutland.vt","slug":"Rutland.VT/rutland+dodge+ram","location":"43.587775,-72.969337","brandsList":["dodge","ram"]},{"id":17592,"crm_id":999,"name":"Stephens Chrysler Jeep Dodge RAM of Bennington","dealerSlug":"stephens+chrysler+jeep+dodge+ram+of+bennington","city_state_slug":"Bennington.VT","brand":"Chrysler,Dodge,Jeep,RAM","website":"www.stephensofbennington.com","address":"200 Northside Dr","city":"Bennington","state":"VT","zip":5201,"latitude":42.898335,"longitude":-73.20919,"phone_number_service":"8026817458","phone_number_main":"","service_hours":"Mo-Th 09:00 - 17:00 | Fr 09:00 - 18:00 | Sa 09:00 - 15:00 | Su Closed","utc_offset":"","gplace_id":0,"gplace_url":"","dealerID":60813,"trusted":false,"image_id":"v1597283975/chrysler_RM.png","phone":"8026817458","cityStateSlug":"bennington.vt","slug":"Bennington.VT/stephens+chrysler+jeep+dodge+ram+of+bennington","location":"42.898335,-73.20919","brandsList":["chrysler","dodge","jeep","ram"]},{"id":17607,"crm_id":999,"name":"Stone Chrysler Dodge Jeep RAM","dealerSlug":"stone+chrysler+dodge+jeep+ram","city_state_slug":"Middlebury.VT","brand":"Chrysler,Dodge,Jeep,RAM","website":"www.stonecdjr.com/","address":"2149 Route 7 S","city":"Middlebury","state":"VT","zip":5753,"latitude":43.983854,"longitude":-73.128381,"phone_number_service":"8023886757","phone_number_main":"","service_hours":"Mo-Fr 08:00 - 18:00 | Sa 08:00 - 15:00 | Su Closed","utc_offset":"","gplace_id":0,"gplace_url":"","dealerID":60877,"trusted":false,"image_id":"v1597283975/chrysler_RM.png","phone":"8023886757","cityStateSlug":"middlebury.vt","slug":"Middlebury.VT/stone+chrysler+dodge+jeep+ram","location":"43.983854,-73.128381","brandsList":["chrysler","dodge","jeep","ram"]},{"id":17572,"crm_id":999,"name":"St Johnsbury Cdjr","dealerSlug":"st+johnsbury+cdjr","city_state_slug":"Saint-Johnsbury.VT","brand":"Chrysler,Dodge,Jeep,RAM","website":"www.stjohnsburycdjr.com","address":"220 Memorial Dr","city":"Saint Johnsbury","state":"VT","zip":5819,"latitude":44.437831,"longitude":-72.015702,"phone_number_service":"8027485777","phone_number_main":"","service_hours":"Mo-Fr 08:00 - 18:00 | Sa 08:00 - 16:00 | Su Closed","utc_offset":"","gplace_id":0,"gplace_url":"","dealerID":60895,"trusted":false,"image_id":"v1597283975/chrysler_RM.png","phone":"8027485777","cityStateSlug":"saint-johnsbury.vt","slug":"Saint-Johnsbury.VT/st+johnsbury+cdjr","location":"44.437831,-72.015702","brandsList":["chrysler","dodge","jeep","ram"]},{"id":16430,"crm_id":999,"name":"Formula Ford","dealerSlug":"formula+ford","city_state_slug":"Montpelier.VT","brand":"Ford","website":"www.formulatruckland.com","address":"265 River Street","city":"Montpelier","state":"VT","zip":5602,"latitude":44.247259,"longitude":-72.550089,"phone_number_service":"8022235201","phone_number_main":"","service_hours":"Mo-Th 09:00 - 18:00 | Fr 09:00 - 17:00 | Sa 09:00 - 16:30 | Su Closed","utc_offset":"","gplace_id":0,"gplace_url":"","dealerID":61010,"trusted":false,"image_id":"v1597283967/ford_RM.png","phone":"8022235201","cityStateSlug":"montpelier.vt","slug":"Montpelier.VT/formula+ford","location":"44.247259,-72.550089","brandsList":["ford"]},{"id":16999,"crm_id":999,"name":"McGee Chrysler, Dodge, Jeep, RAM FIAT of Springfield","dealerSlug":"mcgee+chrysler+dodge+jeep+ram+fiat+of+springfield","city_state_slug":"Springfield.VT","brand":"Chrysler,Dodge,Jeep,RAM,Fiat","website":"","address":"74 Clinton St # 80","city":"Springfield","state":"VT","zip":5156,"latitude":43.293495,"longitude":-72.475812,"phone_number_service":"8028852186","phone_number_main":"","service_hours":"Mo-Su Closed","utc_offset":"","gplace_id":0,"gplace_url":"","dealerID":61544,"trusted":false,"image_id":"v1597283975/chrysler_RM.png","phone":"8028852186","cityStateSlug":"springfield.vt","slug":"Springfield.VT/mcgee+chrysler+dodge+jeep+ram+fiat+of+springfield","location":"43.293495,-72.475812","brandsList":["chrysler","dodge","jeep","ram","fiat"]},{"id":16029,"crm_id":999,"name":"Bokan Ford","dealerSlug":"bokan+ford","city_state_slug":"Saint-Albans.VT","brand":"Ford","website":"www.bokanfordofsaintalbans.com","address":"Two Franklin Park West","city":"Saint Albans","state":"VT","zip":5478,"latitude":44.8363,"longitude":-73.077936,"phone_number_service":"8025247343","phone_number_main":"","service_hours":"Mo-Fr 08:00 - 18:00 | Sa 08:00 - 16:00 | Su Closed","utc_offset":"","gplace_id":0,"gplace_url":"","dealerID":61765,"trusted":false,"image_id":"v1597283967/ford_RM.png","phone":"8025247343","cityStateSlug":"saint-albans.vt","slug":"Saint-Albans.VT/bokan+ford","location":"44.8363,-73.077936","brandsList":["ford"]},{"id":14761,"crm_id":50460937,"name":"Upper Valley Honda","dealerSlug":"upper+valley+honda","city_state_slug":"White-River-Junction.VT","brand":"Honda","website":"www.uppervalleyhonda.com","address":"63 Ralph Lehman Drive","city":"White River Junction","state":"VT","zip":5001,"latitude":43.6454722,"longitude":-72.3369942,"phone_number_service":"8024362203","phone_number_main":"6034486969","service_hours":"Mo-Fr 07:30 - 17:00","utc_offset":"-240","gplace_id":null,"gplace_url":"https://maps.google.com/?cid=12633921741574398706","dealerID":61804,"trusted":false,"image_id":"v1597284047/honda_ms.png","phone":"8024362203","cityStateSlug":"white-river-junction.vt","slug":"White-River-Junction.VT/upper+valley+honda","location":"43.6454722,-72.3369942","brandsList":["honda"]},{"id":7523,"crm_id":67032919,"name":"John C Stewart & Son","dealerSlug":"john+c+stewart+and+son","city_state_slug":"Cuttingsville.VT","brand":"Ford","website":"www.johncstewartandson.com","address":"5227 VT-103","city":"Cuttingsville","state":"VT","zip":5738,"latitude":43.4888539,"longitude":-72.8840547,"phone_number_service":"8024923312","phone_number_main":"8024923312","service_hours":"Mo-Fr 08:00 - 17:00 | Sa 08:00 - 12:00","utc_offset":"-240","gplace_id":null,"gplace_url":"https://maps.google.com/?cid=14264550859300860278","dealerID":63016,"trusted":false,"image_id":"v1597283967/ford_RM.png","phone":"8024923312","cityStateSlug":"cuttingsville.vt","slug":"Cuttingsville.VT/john+c+stewart+and+son","location":"43.4888539,-72.8840547","brandsList":["ford"]},{"id":6061,"crm_id":67033987,"name":"Handy Chevrolet","dealerSlug":"handy+chevrolet","city_state_slug":"Saint-Albans-City.VT","brand":"Chevrolet","website":"www.handychevy.com","address":"699 Highgate Rd","city":"Saint Albans City","state":"VT","zip":5478,"latitude":44.8438004,"longitude":-73.0772451,"phone_number_service":"8007231914","phone_number_main":"8009525871","service_hours":"Mo-Fr 08:00 - 17:00 | Sa 08:00 - 12:00","utc_offset":"-240","gplace_id":null,"gplace_url":"https://maps.google.com/?cid=14888854945785640201","dealerID":63311,"trusted":false,"image_id":"v1597284079/chevy_ms.png","phone":"8007231914","cityStateSlug":"saint-albans-city.vt","slug":"Saint-Albans-City.VT/handy+chevrolet","location":"44.8438004,-73.0772451","brandsList":["chevrolet"]},{"id":1316,"crm_id":67034053,"name":"Berlin City Kia of Vermont","dealerSlug":"berlin+city+kia+of+vermont","city_state_slug":"Williston.VT","brand":"Kia","website":"www.berlincitykiavt.com","address":"586 Marshall Ave","city":"Williston","state":"VT","zip":5495,"latitude":44.4463196,"longitude":-73.1227148,"phone_number_service":"8029170655","phone_number_main":"8027780854","service_hours":"Mo-Fr 08:00 - 17:00 | Sa 08:00 - 12:00","utc_offset":"-240","gplace_id":null,"gplace_url":"https://maps.google.com/?cid=2043393726165898699","dealerID":63329,"trusted":false,"image_id":"v1597283948/kia_RM.png","phone":"8029170655","cityStateSlug":"williston.vt","slug":"Williston.VT/berlin+city+kia+of+vermont","location":"44.4463196,-73.1227148","brandsList":["kia"]},{"id":6356,"crm_id":67034401,"name":"Heritage Ford","dealerSlug":"heritage+ford","city_state_slug":"South-Burlington.VT","brand":"Ford","website":"www.heritagefordvt.com","address":"1600 Shelburne Rd","city":"South Burlington","state":"VT","zip":5403,"latitude":44.429742,"longitude":-73.2103,"phone_number_service":"8884684781","phone_number_main":"8028658100","service_hours":"Mo-Fr 07:30 - 17:30","utc_offset":"-240","gplace_id":null,"gplace_url":"https://maps.google.com/?cid=5926790760635743437","dealerID":63423,"trusted":false,"image_id":"v1597283967/ford_RM.png","phone":"8884684781","cityStateSlug":"south-burlington.vt","slug":"South-Burlington.VT/heritage+ford","location":"44.429742,-73.2103","brandsList":["ford"]},{"id":1967,"crm_id":67035037,"name":"Bokan Chrysler Dodge Jeep RAM","dealerSlug":"bokan+chrysler+dodge+jeep+ram","city_state_slug":"Saint-Albans-City.VT","brand":"Chrysler,Dodge,Jeep,RAM","website":"www.bokanchryslerdodgejeepram.com","address":"2 Franklin Park W #2","city":"Saint Albans City","state":"VT","zip":5478,"latitude":44.8357471,"longitude":-73.0772858,"phone_number_service":"8024400594","phone_number_main":"8025242147","service_hours":"Mo-Fr 07:30 - 17:00","utc_offset":"-240","gplace_id":null,"gplace_url":"https://maps.google.com/?cid=10142229456801774113","dealerID":63594,"trusted":false,"image_id":"v1597283975/chrysler_RM.png","phone":"8024400594","cityStateSlug":"saint-albans-city.vt","slug":"Saint-Albans-City.VT/bokan+chrysler+dodge+jeep+ram","location":"44.8357471,-73.0772858","brandsList":["chrysler","dodge","jeep","ram"]},{"id":4658,"crm_id":67035388,"name":"Faith's Toyota","dealerSlug":"faiths+toyota","city_state_slug":"Westminster.VT","brand":"Ford","website":"faithstoyota.com","address":"6896 US-5","city":"Westminster","state":"VT","zip":5158,"latitude":43.108758,"longitude":-72.4418268,"phone_number_service":"8024633300","phone_number_main":"8024633300","service_hours":"Mo-Fr 07:30 - 17:30 | Sa 07:30-12:00","utc_offset":"-240","gplace_id":null,"gplace_url":"https://maps.google.com/?cid=12625347880145855391","dealerID":63694,"trusted":false,"image_id":"v1597283967/ford_RM.png","phone":"8024633300","cityStateSlug":"westminster.vt","slug":"Westminster.VT/faiths+toyota","location":"43.108758,-72.4418268","brandsList":["ford"]},{"id":12735,"crm_id":67035691,"name":"Rutland Subaru","dealerSlug":"rutland+subaru","city_state_slug":"Rutland.VT","brand":"Subaru","website":"www.rutlandsubaru.com","address":"128 US Route 7 South","city":"Rutland","state":"VT","zip":5701,"latitude":43.5884647,"longitude":-72.9689568,"phone_number_service":"8027756900","phone_number_main":"8027756900","service_hours":"Mo-Fr 07:30 - 17:00","utc_offset":"-240","gplace_id":null,"gplace_url":"https://maps.google.com/?cid=14110349978106949666","dealerID":63781,"trusted":false,"image_id":"v1597283982/subaru_ms.png","phone":"8027756900","cityStateSlug":"rutland.vt","slug":"Rutland.VT/rutland+subaru","location":"43.5884647,-72.9689568","brandsList":["subaru"]},{"id":6060,"crm_id":67037470,"name":"Handy Buick GMC","dealerSlug":"handy+buick+gmc","city_state_slug":"Saint-Albans-City.VT","brand":"Buick,GMC","website":"www.handygmc.com","address":"405 Swanton Rd","city":"Saint Albans City","state":"VT","zip":5478,"latitude":44.8422224,"longitude":-73.0833288,"phone_number_service":"8027524603","phone_number_main":"8027524593","service_hours":"Mo-Fr 08:00 - 18:00 | Sa 08:00 - 14:00","utc_offset":"-240","gplace_id":null,"gplace_url":"https://maps.google.com/?cid=243832122413134516","dealerID":64269,"trusted":false,"image_id":"v1597283981/buick_RM.png","phone":"8027524603","cityStateSlug":"saint-albans-city.vt","slug":"Saint-Albans-City.VT/handy+buick+gmc","location":"44.8422224,-73.0833288","brandsList":["buick","gmc"]},{"id":3134,"crm_id":67037878,"name":"Cody Cadillac","dealerSlug":"cody+cadillac","city_state_slug":"Montpelier.VT","brand":"Cadillac","website":"www.codycadillac.com","address":"364 River Street","city":"Montpelier","state":"VT","zip":5602,"latitude":44.2382621,"longitude":-72.5526275,"phone_number_service":"8023761788","phone_number_main":"8027351866","service_hours":"Mo-Fr 07:30 - 17:00 | Sa 08:00 - 12:00","utc_offset":"-240","gplace_id":null,"gplace_url":"https://maps.google.com/?cid=18248394301346322374","dealerID":64387,"trusted":false,"image_id":"v1597283980/cadillac.png","phone":"8023761788","cityStateSlug":"montpelier.vt","slug":"Montpelier.VT/cody+cadillac","location":"44.2382621,-72.5526275","brandsList":["cadillac"]},{"id":1233,"crm_id":67037917,"name":"Bennington Honda","dealerSlug":"bennington+honda","city_state_slug":"Bennington.VT","brand":"Honda","website":"www.benningtonhonda.com","address":"699 N Bennington Rd","city":"Bennington","state":"VT","zip":5201,"latitude":42.9096324,"longitude":-73.2203775,"phone_number_service":"8775060024","phone_number_main":"8026591138","service_hours":"Mo-Sa 08:00 - 17:00","utc_offset":"-240","gplace_id":null,"gplace_url":"https://maps.google.com/?cid=6624811416192482165","dealerID":64399,"trusted":false,"image_id":"v1597284047/honda_ms.png","phone":"8775060024","cityStateSlug":"bennington.vt","slug":"Bennington.VT/bennington+honda","location":"42.9096324,-73.2203775","brandsList":["honda"]},{"id":20,"crm_id":67038778,"name":"802 Toyota","dealerSlug":"802+toyota","city_state_slug":"Berlin.VT","brand":"Toyota","website":"www.802toyota.com","address":"30 Berlin Mall Road","city":"Berlin","state":"VT","zip":5602,"latitude":44.220952,"longitude":-72.566086,"phone_number_service":"8887149857","phone_number_main":"8132854632","service_hours":"Mo-Fr 08:00 - 18:00 | Sa 08:00 - 14:00","utc_offset":"-240","gplace_id":null,"gplace_url":"https://maps.google.com/?cid=6391825559058913317","dealerID":64634,"trusted":false,"image_id":"v1597284039/toyota_ms.png","phone":"8887149857","cityStateSlug":"berlin.vt","slug":"Berlin.VT/802+toyota","location":"44.220952,-72.566086","brandsList":["toyota"]},{"id":4657,"crm_id":67039291,"name":"Faith's Ford","dealerSlug":"faiths+ford","city_state_slug":"Brattleboro.VT","brand":"Ford","website":"www.faithsford.com","address":"1147 Putney Rd","city":"Brattleboro","state":"VT","zip":5301,"latitude":42.884893,"longitude":-72.555546,"phone_number_service":"8773493902","phone_number_main":"8022582400","service_hours":"Mo-Fr 07:30 - 17:00 | Sa 07:30 - 12:00","utc_offset":"-240","gplace_id":null,"gplace_url":"https://maps.google.com/?cid=12414527486307510430","dealerID":64769,"trusted":false,"image_id":"v1597283967/ford_RM.png","phone":"8773493902","cityStateSlug":"brattleboro.vt","slug":"Brattleboro.VT/faiths+ford","location":"42.884893,-72.555546","brandsList":["ford"]},{"id":14174,"crm_id":67040692,"name":"The Automaster Honda","dealerSlug":"the+automaster+honda","city_state_slug":"Shelburne.VT","brand":"Honda","website":"www.theautomasterhonda.com","address":"3328 Shelburne Rd","city":"Shelburne","state":"VT","zip":5482,"latitude":44.4083052,"longitude":-73.218466,"phone_number_service":"8029858411","phone_number_main":"8029858411","service_hours":"Mo-Fr 07:00 - 17:30","utc_offset":"-240","gplace_id":null,"gplace_url":"https://maps.google.com/?cid=17526193014596000413","dealerID":65143,"trusted":false,"image_id":"v1597284047/honda_ms.png","phone":"8029858411","cityStateSlug":"shelburne.vt","slug":"Shelburne.VT/the+automaster+honda","location":"44.4083052,-73.218466","brandsList":["honda"]},{"id":5014,"crm_id":67040713,"name":"Formula Nissan","dealerSlug":"formula+nissan","city_state_slug":"Barre.VT","brand":"Nissan","website":"www.formulanissan.com","address":"1504 US Route 302","city":"Barre","state":"VT","zip":5641,"latitude":44.230323,"longitude":-72.552152,"phone_number_service":"8669659449","phone_number_main":"8024792277","service_hours":"Mo-Fr 07:30 - 17:30 | Sa 07:30 - 12:00","utc_offset":"-240","gplace_id":null,"gplace_url":"https://maps.google.com/?cid=183302740533548055","dealerID":65150,"trusted":false,"image_id":"v1597283926/nissan_RM.png","phone":"8669659449","cityStateSlug":"barre.vt","slug":"Barre.VT/formula+nissan","location":"44.230323,-72.552152","brandsList":["nissan"]},{"id":15459,"crm_id":67041568,"name":"White River Toyota","dealerSlug":"white+river+toyota","city_state_slug":"White-River-Junction.VT","brand":"Toyota","website":"www.whiterivertoyota.com","address":"303 Sykes Mountain Ave","city":"White River Junction","state":"VT","zip":5001,"latitude":43.6435849,"longitude":-72.3305145,"phone_number_service":"8332541033","phone_number_main":"8022992800","service_hours":"Mo-Fr 07:30 - 17:00","utc_offset":"-240","gplace_id":null,"gplace_url":"https://maps.google.com/?cid=16728312594215081873","dealerID":65370,"trusted":false,"image_id":"v1597284039/toyota_ms.png","phone":"8332541033","cityStateSlug":"white-river-junction.vt","slug":"White-River-Junction.VT/white+river+toyota","location":"43.6435849,-72.3305145","brandsList":["toyota"]},{"id":12774,"crm_id":67042039,"name":"Saint J Subaru","dealerSlug":"saint+j+subaru","city_state_slug":"Saint-Johnsbury.VT","brand":"Subaru","website":"www.saintjsubaru.com","address":"664 Memorial Dr","city":"Saint Johnsbury","state":"VT","zip":5819,"latitude":44.442011,"longitude":-72.014022,"phone_number_service":"8027482000","phone_number_main":"8027482000","service_hours":"Mo-Fr 07:30 - 17:00 | Sa 07:30-12:00","utc_offset":"-240","gplace_id":null,"gplace_url":"https://maps.google.com/?cid=5904793146476994250","dealerID":65491,"trusted":false,"image_id":"v1597283982/subaru_ms.png","phone":"8027482000","cityStateSlug":"saint-johnsbury.vt","slug":"Saint-Johnsbury.VT/saint+j+subaru","location":"44.442011,-72.014022","brandsList":["subaru"]},{"id":15336,"crm_id":67044055,"name":"Wells River Chevrolet","dealerSlug":"wells+river+chevrolet","city_state_slug":"Wells-River.VT","brand":"Chevrolet","website":"www.wellsriverchevy.com","address":"10 Railroad St","city":"Wells River","state":"VT","zip":5081,"latitude":44.1531944,"longitude":-72.0451907,"phone_number_service":"8665863579","phone_number_main":"8027572311","service_hours":"Mo-Fr  08:00 - 17:00 | Sa 08:00 - 12:00","utc_offset":"-240","gplace_id":null,"gplace_url":"https://maps.google.com/?cid=13416157522828193174","dealerID":66055,"trusted":false,"image_id":"v1597284079/chevy_ms.png","phone":"8665863579","cityStateSlug":"wells-river.vt","slug":"Wells-River.VT/wells+river+chevrolet","location":"44.1531944,-72.0451907","brandsList":["chevrolet"]},{"id":1245,"crm_id":67044061,"name":"Benson's Chevrolet","dealerSlug":"bensons+chevrolet","city_state_slug":"Ludlow.VT","brand":"Chevrolet","website":"www.bensonschevy.com","address":"25 Pond St","city":"Ludlow","state":"VT","zip":5149,"latitude":43.3969688,"longitude":-72.7045822,"phone_number_service":"8772286146","phone_number_main":"8022284000","service_hours":"Mo-Fr 08:00 - 17:00","utc_offset":"-240","gplace_id":null,"gplace_url":"https://maps.google.com/?cid=16537589396393866357","dealerID":66057,"trusted":false,"image_id":"v1597284079/chevy_ms.png","phone":"8772286146","cityStateSlug":"ludlow.vt","slug":"Ludlow.VT/bensons+chevrolet","location":"43.3969688,-72.7045822","brandsList":["chevrolet"]},{"id":7750,"crm_id":67044076,"name":"Kelley Sales and","dealerSlug":"kelley+sales+and","city_state_slug":"Springfield.VT","brand":"Chrysler,Dodge,Jeep,RAM,Fiat","website":"www.kelleychryslerdodgejeep.com","address":"74-80 Clinton Street","city":"Springfield","state":"VT","zip":5156,"latitude":43.293522,"longitude":-72.4757877,"phone_number_service":"8028585945","phone_number_main":"8028852186","service_hours":"Mo-Fr 08:00 - 17:00","utc_offset":"-240","gplace_id":null,"gplace_url":"https://maps.google.com/?cid=18053971529131401329","dealerID":66060,"trusted":false,"image_id":"v1597283975/chrysler_RM.png","phone":"8028585945","cityStateSlug":"springfield.vt","slug":"Springfield.VT/kelley+sales+and","location":"43.293522,-72.4757877","brandsList":["chrysler","dodge","jeep","ram","fiat"]},{"id":1235,"crm_id":67044094,"name":"Bennington Nissan","dealerSlug":"bennington+nissan","city_state_slug":"Bennington.VT","brand":"Nissan","website":"www.benningtonnissan.com","address":"24 Performance Dr","city":"Bennington","state":"VT","zip":5201,"latitude":42.8946312,"longitude":-73.1971185,"phone_number_service":"8772136523","phone_number_main":"8772029182","service_hours":"Mo-Fr 07:00 - 17:30 | Sa 08:00 - 12:00","utc_offset":"-240","gplace_id":null,"gplace_url":"https://maps.google.com/?cid=12583834870380795076","dealerID":66062,"trusted":false,"image_id":"v1597283926/nissan_RM.png","phone":"8772136523","cityStateSlug":"bennington.vt","slug":"Bennington.VT/bennington+nissan","location":"42.8946312,-73.1971185","brandsList":["nissan"]},{"id":1232,"crm_id":67044100,"name":"Bennington Chevrolet Buick Cadillac","dealerSlug":"bennington+chevrolet+buick+cadillac","city_state_slug":"Bennington.VT","brand":"Buick,Cadillac,Chevrolet","website":"benningtonchevroletbuickcadillac.com","address":"24 Performance Dr","city":"Bennington","state":"VT","zip":5201,"latitude":42.894942,"longitude":-73.196937,"phone_number_service":"8772488254","phone_number_main":"8772029182","service_hours":"Mo-Fr 07:00 - 17:30 | 08:00 - 12:00","utc_offset":"-240","gplace_id":null,"gplace_url":"https://maps.google.com/?cid=9013885187919098886","dealerID":66064,"trusted":false,"image_id":"v1597283981/buick_RM.png","phone":"8772488254","cityStateSlug":"bennington.vt","slug":"Bennington.VT/bennington+chevrolet+buick+cadillac","location":"42.894942,-73.196937","brandsList":["buick","cadillac","chevrolet"]},{"id":1236,"crm_id":67044106,"name":"Bennington Subaru","dealerSlug":"bennington+subaru","city_state_slug":"Bennington.VT","brand":"Subaru","website":"www.benningtonsubaru.com","address":"527 N Bennington Rd","city":"Bennington","state":"VT","zip":5201,"latitude":42.9059747,"longitude":-73.2180338,"phone_number_service":"8887640303","phone_number_main":"8024423400","service_hours":"Mo-Fr 07:00 - 17:00 | Sa 08:00 - 17:00","utc_offset":"-240","gplace_id":null,"gplace_url":"https://maps.google.com/?cid=2612873094351128338","dealerID":66066,"trusted":false,"image_id":"v1597283982/subaru_ms.png","phone":"8887640303","cityStateSlug":"bennington.vt","slug":"Bennington.VT/bennington+subaru","location":"42.9059747,-73.2180338","brandsList":["subaru"]},{"id":1237,"crm_id":67044112,"name":"Bennington Toyota","dealerSlug":"bennington+toyota","city_state_slug":"Bennington.VT","brand":"Toyota","website":"www.benningtontoyota.com","address":"751 N Bennington Rd","city":"Bennington","state":"VT","zip":5201,"latitude":42.9099265,"longitude":-73.2201776,"phone_number_service":"8669367492","phone_number_main":"8024401854","service_hours":"Mo-Sa 08:00 - 17:00","utc_offset":"-240","gplace_id":null,"gplace_url":"https://maps.google.com/?cid=1513211746169287599","dealerID":66068,"trusted":false,"image_id":"v1597284039/toyota_ms.png","phone":"8669367492","cityStateSlug":"bennington.vt","slug":"Bennington.VT/bennington+toyota","location":"42.9099265,-73.2201776","brandsList":["toyota"]},{"id":1234,"crm_id":67044115,"name":"Bennington Hyundai","dealerSlug":"bennington+hyundai","city_state_slug":"Bennington.VT","brand":"Hyundai","website":"www.benningtonhyundai.com","address":"897 N Bennington Rd","city":"Bennington","state":"VT","zip":5201,"latitude":42.910751,"longitude":-73.2215203,"phone_number_service":"8773160828","phone_number_main":"8024401821","service_hours":"Mo-Sa 08:00 - 17:00","utc_offset":"-240","gplace_id":null,"gplace_url":"https://maps.google.com/?cid=3534358715517664966","dealerID":66069,"trusted":false,"image_id":"v1597283959/hyundai_RM.png","phone":"8773160828","cityStateSlug":"bennington.vt","slug":"Bennington.VT/bennington+hyundai","location":"42.910751,-73.2215203","brandsList":["hyundai"]},{"id":8399,"crm_id":67044121,"name":"Langway Chevrolet Of Manchester","dealerSlug":"langway+chevrolet+of+manchester","city_state_slug":"Manchester-Center.VT","brand":"Chevrolet","website":"www.langwaychevroletofmanchester.com/","address":"4847 Main St","city":"Manchester Center","state":"VT","zip":5255,"latitude":43.1769609,"longitude":-73.0584598,"phone_number_service":"8772508357","phone_number_main":"8023621754","service_hours":"Mo-Fr 07:00 - 17:30 | Sa 07:00 - 16:00","utc_offset":"-240","gplace_id":null,"gplace_url":"https://maps.google.com/?cid=6231361681068310786","dealerID":66071,"trusted":false,"image_id":"v1597284079/chevy_ms.png","phone":"8772508357","cityStateSlug":"manchester-center.vt","slug":"Manchester-Center.VT/langway+chevrolet+of+manchester","location":"43.1769609,-73.0584598","brandsList":["chevrolet"]},{"id":2093,"crm_id":67044127,"name":"Brattleboro Subaru","dealerSlug":"brattleboro+subaru","city_state_slug":"Brattleboro.VT","brand":"Subaru","website":"www.brattleborosubaru.com","address":"1234 Putney Rd","city":"Brattleboro","state":"VT","zip":5301,"latitude":42.8878381,"longitude":-72.5561132,"phone_number_service":"8887816097","phone_number_main":"8022511000","service_hours":"Mo-Fr 07:30 - 17:30 | Sa 08:00 - 16:00","utc_offset":"-240","gplace_id":null,"gplace_url":"https://maps.google.com/?cid=14957188457177748628","dealerID":66073,"trusted":false,"image_id":"v1597283982/subaru_ms.png","phone":"8887816097","cityStateSlug":"brattleboro.vt","slug":"Brattleboro.VT/brattleboro+subaru","location":"42.8878381,-72.5561132","brandsList":["subaru"]},{"id":2092,"crm_id":67044133,"name":"Brattleboro Auto Mall","dealerSlug":"brattleboro+auto+mall","city_state_slug":"Brattleboro.VT","brand":"Buick,Chevrolet,GMC","website":"www.brattautomall.com","address":"800 Putney Rd","city":"Brattleboro","state":"VT","zip":5301,"latitude":42.8764961,"longitude":-72.5618253,"phone_number_service":"8022754508","phone_number_main":"8022575100","service_hours":"Mo-Fr 08:00 - 17:30","utc_offset":"-240","gplace_id":null,"gplace_url":"https://maps.google.com/?cid=10058133729119492464","dealerID":66075,"trusted":false,"image_id":"v1597283981/buick_RM.png","phone":"8022754508","cityStateSlug":"brattleboro.vt","slug":"Brattleboro.VT/brattleboro+auto+mall","location":"42.8764961,-72.5618253","brandsList":["buick","chevrolet","gmc"]},{"id":2329,"crm_id":67044142,"name":"Burlington Subaru","dealerSlug":"burlington+subaru","city_state_slug":"Burlington.VT","brand":"Subaru","website":"www.subaruvt.com/","address":"351 Shelburne Rd","city":"Burlington","state":"VT","zip":5401,"latitude":44.4555678,"longitude":-73.2092411,"phone_number_service":"8773510867","phone_number_main":"8024483880","service_hours":"Mo-Fr 08:00 - 18:00","utc_offset":"-240","gplace_id":null,"gplace_url":"https://maps.google.com/?cid=11799314733170058681","dealerID":66078,"trusted":false,"image_id":"v1597283982/subaru_ms.png","phone":"8773510867","cityStateSlug":"burlington.vt","slug":"Burlington.VT/burlington+subaru","location":"44.4555678,-73.2092411","brandsList":["subaru"]},{"id":5179,"crm_id":67044154,"name":"Freedom Nissan","dealerSlug":"freedom+nissan","city_state_slug":"South-Burlington.VT","brand":"Nissan","website":"www.freedomnissan.com","address":"1095 Shelburne Rd","city":"South Burlington","state":"VT","zip":5403,"latitude":44.4386405,"longitude":-73.2110713,"phone_number_service":"8667982417","phone_number_main":"8028647400","service_hours":"Mo-Fr 07:30 - 17:30 | Sa 08:00 - 16:00","utc_offset":"-240","gplace_id":null,"gplace_url":"https://maps.google.com/?cid=4850766666864948667","dealerID":66081,"trusted":false,"image_id":"v1597283926/nissan_RM.png","phone":"8667982417","cityStateSlug":"south-burlington.vt","slug":"South-Burlington.VT/freedom+nissan","location":"44.4386405,-73.2110713","brandsList":["nissan"]},{"id":13113,"crm_id":67044160,"name":"Shearer Acura","dealerSlug":"shearer+acura","city_state_slug":"South-Burlington.VT","brand":"Acura","website":"www.sheareracura.com","address":"1301 Shelburne Rd","city":"South Burlington","state":"VT","zip":5403,"latitude":44.4344944,"longitude":-73.2115181,"phone_number_service":"8028613458","phone_number_main":"8028615400","service_hours":"Mo-Fr 07:30 - 17:30","utc_offset":"-240","gplace_id":null,"gplace_url":"https://maps.google.com/?cid=1854121251195817900","dealerID":66083,"trusted":false,"image_id":"v1597283988/acura.png","phone":"8028613458","cityStateSlug":"south-burlington.vt","slug":"South-Burlington.VT/shearer+acura","location":"44.4344944,-73.2115181","brandsList":["acura"]},{"id":13114,"crm_id":67044166,"name":"Shearer Volkswagen of South Burlington","dealerSlug":"shearer+volkswagen+of+south+burlington","city_state_slug":"South-Burlington.VT","brand":"Volkswagen","website":"www.shearervw.com","address":"1030 Shelburne Rd","city":"South Burlington","state":"VT","zip":5403,"latitude":44.4404517,"longitude":-73.2091004,"phone_number_service":"8448658569","phone_number_main":"8448601049","service_hours":"Mo-Fr 07:30 - 17:00 | Sa 08:00-14:00","utc_offset":"-240","gplace_id":null,"gplace_url":"https://maps.google.com/?cid=5122055690043748269","dealerID":66085,"trusted":false,"image_id":"v1597283902/volkswagen.png","phone":"8448658569","cityStateSlug":"south-burlington.vt","slug":"South-Burlington.VT/shearer+volkswagen+of+south+burlington","location":"44.4404517,-73.2091004","brandsList":["volkswagen"]},{"id":6370,"crm_id":67044178,"name":"Heritage Toyota","dealerSlug":"heritage+toyota","city_state_slug":"South-Burlington.VT","brand":"Toyota","website":"www.heritagetoyotacars.com","address":"1620 Shelburne Rd","city":"South Burlington","state":"VT","zip":5403,"latitude":44.4287586,"longitude":-73.210515,"phone_number_service":"8028658200","phone_number_main":"8028658200","service_hours":"Mo-Fr 07:30 - 17:30","utc_offset":"-240","gplace_id":null,"gplace_url":"https://maps.google.com/?cid=7184213150028282504","dealerID":66088,"trusted":false,"image_id":"v1597284039/toyota_ms.png","phone":"8028658200","cityStateSlug":"south-burlington.vt","slug":"South-Burlington.VT/heritage+toyota","location":"44.4287586,-73.210515","brandsList":["toyota"]},{"id":7876,"crm_id":67044193,"name":"Key Chevrolet Buick GMC Cadillac of South Burlington","dealerSlug":"key+chevrolet+buick+gmc+cadillac+of+south+burlington","city_state_slug":"South-Burlington.VT","brand":"Buick,Cadillac,Chevrolet,GMC","website":"www.keyautovt.com","address":"1675 Shelburne Rd","city":"South Burlington","state":"VT","zip":5403,"latitude":44.427129,"longitude":-73.212248,"phone_number_service":"8027351865","phone_number_main":"8028810908","service_hours":"Mo-Fr 07:30 - 17:00","utc_offset":"-240","gplace_id":null,"gplace_url":"https://maps.google.com/?cid=13685422275113497678","dealerID":66091,"trusted":false,"image_id":"v1597283981/buick_RM.png","phone":"8027351865","cityStateSlug":"south-burlington.vt","slug":"South-Burlington.VT/key+chevrolet+buick+gmc+cadillac+of+south+burlington","location":"44.427129,-73.212248","brandsList":["buick","cadillac","chevrolet","gmc"]},{"id":2328,"crm_id":67044199,"name":"Burlington Mitsubishi","dealerSlug":"burlington+mitsubishi","city_state_slug":"South-Burlington.VT","brand":"Mitsubishi","website":"www.mitsubishivt.com","address":"1835 Shelburne Rd","city":"South Burlington","state":"VT","zip":5403,"latitude":44.4223667,"longitude":-73.2123275,"phone_number_service":"8884815840","phone_number_main":"8028654400","service_hours":"Mo-Fr 08:00 - 17:00","utc_offset":"-240","gplace_id":null,"gplace_url":"https://maps.google.com/?cid=10549393421326567965","dealerID":66093,"trusted":false,"image_id":"v1597283928/mitsubishi.png","phone":"8884815840","cityStateSlug":"south-burlington.vt","slug":"South-Burlington.VT/burlington+mitsubishi","location":"44.4223667,-73.2123275","brandsList":["mitsubishi"]},{"id":2781,"crm_id":67044211,"name":"Champlain Chevrolet","dealerSlug":"champlain+chevrolet","city_state_slug":"Enosburg-Falls.VT","brand":"Chevrolet","website":"www.champlainchevy.com","address":"57 Missisquoi Street","city":"Enosburg Falls","state":"VT","zip":5450,"latitude":44.9072477,"longitude":-72.8038136,"phone_number_service":"8023471858","phone_number_main":"8026814789","service_hours":"Mo-Fr 07:30 - 17:00","utc_offset":"-240","gplace_id":null,"gplace_url":"https://maps.google.com/?cid=10719474286887258040","dealerID":66096,"trusted":false,"image_id":"v1597284079/chevy_ms.png","phone":"8023471858","cityStateSlug":"enosburg-falls.vt","slug":"Enosburg-Falls.VT/champlain+chevrolet","location":"44.9072477,-72.8038136","brandsList":["chevrolet"]},{"id":6062,"crm_id":67044232,"name":"Handy Toyota","dealerSlug":"handy+toyota","city_state_slug":"Saint-Albans-City.VT","brand":"Toyota","website":"www.handytoyota.com","address":"701 Highgate Rd","city":"Saint Albans City","state":"VT","zip":5478,"latitude":44.8435232,"longitude":-73.0767906,"phone_number_service":"8665521888","phone_number_main":"8009390758","service_hours":"Mo-Tu 07:30 - 18:00 | We 07:30 - 19:00 | Th 07:30 - 18:00 | Fr 07:30 - 16:00","utc_offset":"-240","gplace_id":null,"gplace_url":"https://maps.google.com/?cid=15921756474433993352","dealerID":66100,"trusted":false,"image_id":"v1597284039/toyota_ms.png","phone":"8665521888","cityStateSlug":"saint-albans-city.vt","slug":"Saint-Albans-City.VT/handy+toyota","location":"44.8435232,-73.0767906","brandsList":["toyota"]},{"id":14173,"crm_id":67044244,"name":"The Automaster BMW","dealerSlug":"the+automaster+bmw","city_state_slug":"Shelburne.VT","brand":"BMW","website":"www.theautomasterbmw.com","address":"3328 Shelburne Rd","city":"Shelburne","state":"VT","zip":5482,"latitude":44.408325,"longitude":-73.218452,"phone_number_service":"8029858411","phone_number_main":"8029851850","service_hours":"Mo-Fr 07:00 - 17:30","utc_offset":"-240","gplace_id":null,"gplace_url":"https://maps.google.com/?cid=12761703470644258119","dealerID":66102,"trusted":false,"image_id":"v1597283982/bmw_RM.png","phone":"8029858411","cityStateSlug":"shelburne.vt","slug":"Shelburne.VT/the+automaster+bmw","location":"44.408325,-73.218452","brandsList":["bmw"]},{"id":284,"crm_id":67044253,"name":"Almartin Volvo Cars","dealerSlug":"almartin+volvo+cars","city_state_slug":"Shelburne.VT","brand":"Volvo","website":"www.almartinvolvocars.com","address":"85 Executive Dr","city":"Shelburne","state":"VT","zip":5482,"latitude":44.407171,"longitude":-73.2151086,"phone_number_service":"8448537965","phone_number_main":"8006395088","service_hours":"Mo-Fr 07:30 - 17:00","utc_offset":"-240","gplace_id":null,"gplace_url":"https://maps.google.com/?cid=8688487785195947581","dealerID":66105,"trusted":false,"image_id":"v1597283901/volvo.jpg","phone":"8448537965","cityStateSlug":"shelburne.vt","slug":"Shelburne.VT/almartin+volvo+cars","location":"44.407171,-73.2151086","brandsList":["volvo"]},{"id":2509,"crm_id":67044268,"name":"Capitol City Buick GMC","dealerSlug":"capitol+city+buick+gmc","city_state_slug":"Berlin.VT","brand":"Buick,GMC","website":"www.capitolcitybuickgmc.com","address":"1162 US-2","city":"Berlin","state":"VT","zip":5602,"latitude":44.2418809,"longitude":-72.5403138,"phone_number_service":"8027780507","phone_number_main":"8022626762","service_hours":"Mo-Fr 08:00 - 17:00 | Sa 08:00 - 12:00","utc_offset":"-240","gplace_id":null,"gplace_url":"https://maps.google.com/?cid=17691745526029601576","dealerID":66109,"trusted":false,"image_id":"v1597283981/buick_RM.png","phone":"8027780507","cityStateSlug":"berlin.vt","slug":"Berlin.VT/capitol+city+buick+gmc","location":"44.2418809,-72.5403138","brandsList":["buick","gmc"]},{"id":19,"crm_id":67044274,"name":"802 Honda","dealerSlug":"802+honda","city_state_slug":"Berlin.VT","brand":"Honda","website":"www.802honda.com","address":"224 Paine Turnpike N","city":"Berlin","state":"VT","zip":5602,"latitude":44.2130786,"longitude":-72.5739458,"phone_number_service":"8888151240","phone_number_main":"8022239700","service_hours":"Mo-Fr 08:00 - 18:00 | Sa 08:00 - 12:00","utc_offset":"-240","gplace_id":null,"gplace_url":"https://maps.google.com/?cid=17124367524413708892","dealerID":66111,"trusted":false,"image_id":"v1597284047/honda_ms.png","phone":"8888151240","cityStateSlug":"berlin.vt","slug":"Berlin.VT/802+honda","location":"44.2130786,-72.5739458","brandsList":["honda"]},{"id":11872,"crm_id":67044292,"name":"Preston's Kia","dealerSlug":"prestons+kia","city_state_slug":"Montpelier.VT","brand":"Kia","website":"www.prestonskia.com/","address":"51 Gallison Hill Rd","city":"Montpelier","state":"VT","zip":5602,"latitude":44.242486,"longitude":-72.543482,"phone_number_service":"8886056544","phone_number_main":"8027780950","service_hours":"Mo-Fr 07:00 - 17:00 | Sa 08:00 - 12:00","utc_offset":"-240","gplace_id":null,"gplace_url":"https://maps.google.com/?cid=3121144233740420094","dealerID":66115,"trusted":false,"image_id":"v1597283948/kia_RM.png","phone":"8886056544","cityStateSlug":"montpelier.vt","slug":"Montpelier.VT/prestons+kia","location":"44.242486,-72.543482","brandsList":["kia"]},{"id":9956,"crm_id":67044298,"name":"Midstate Chrysler Dodge Jeep RAM","dealerSlug":"midstate+chrysler+dodge+jeep+ram","city_state_slug":"Barre.VT","brand":"Chrysler,Dodge,Jeep,RAM","website":"www.midstatedodge.net","address":"1365 US Route 302","city":"Barre","state":"VT","zip":5641,"latitude":44.227542,"longitude":-72.553341,"phone_number_service":"8025056343","phone_number_main":"8024790586","service_hours":"Mo-Fr 07:30 - 15:00","utc_offset":"-240","gplace_id":null,"gplace_url":"https://maps.google.com/?cid=3080708369556885935","dealerID":66117,"trusted":false,"image_id":"v1597283975/chrysler_RM.png","phone":"8025056343","cityStateSlug":"barre.vt","slug":"Barre.VT/midstate+chrysler+dodge+jeep+ram","location":"44.227542,-72.553341","brandsList":["chrysler","dodge","jeep","ram"]},{"id":2513,"crm_id":67044304,"name":"Capitol City Mazda","dealerSlug":"capitol+city+mazda","city_state_slug":"Barre.VT","brand":"Mazda","website":"www.capitolcitymazda.com/","address":"2287 Berlin State Hwy","city":"Barre","state":"VT","zip":5641,"latitude":44.2322853,"longitude":-72.554447,"phone_number_service":"8022233434","phone_number_main":"8022233434","service_hours":"Mo-Fr 07:30 - 17:00","utc_offset":"-240","gplace_id":null,"gplace_url":"https://maps.google.com/?cid=10809667755305627602","dealerID":66119,"trusted":false,"image_id":"v1597283937/mazda.png","phone":"8022233434","cityStateSlug":"barre.vt","slug":"Barre.VT/capitol+city+mazda","location":"44.2322853,-72.554447","brandsList":["mazda"]},{"id":2512,"crm_id":67044310,"name":"Montpelier Volkswagen","dealerSlug":"montpelier+volkswagen","city_state_slug":"Barre.VT","brand":"Volkswagen","website":"www.montpeliervolkswagen.com/","address":"2287 Berlin State Hwy","city":"Barre","state":"VT","zip":5641,"latitude":44.2322967,"longitude":-72.5543226,"phone_number_service":"8023482227","phone_number_main":"8022233434","service_hours":"Mo-Fr 07:30 - 17:00","utc_offset":"-240","gplace_id":null,"gplace_url":"https://maps.google.com/?cid=13938461151038270875","dealerID":66121,"trusted":false,"image_id":"v1597283902/volkswagen.png","phone":"8023482227","cityStateSlug":"barre.vt","slug":"Barre.VT/montpelier+volkswagen","location":"44.2322967,-72.5543226","brandsList":["volkswagen"]},{"id":8230,"crm_id":67044316,"name":"Lamoille Valley Chevrolet","dealerSlug":"lamoille+valley+chevrolet","city_state_slug":"Hyde-Park.VT","brand":"Chevrolet","website":"www.lvchevy.com","address":"868 VT Route 15E","city":"Hyde Park","state":"VT","zip":5655,"latitude":44.5881775,"longitude":-72.6050963,"phone_number_service":"8028515200","phone_number_main":"8028703063","service_hours":"Mo-Fr 07:30 - 17:30","utc_offset":"-240","gplace_id":null,"gplace_url":"https://maps.google.com/?cid=2248673659663869840","dealerID":66122,"trusted":false,"image_id":"v1597284079/chevy_ms.png","phone":"8028515200","cityStateSlug":"hyde-park.vt","slug":"Hyde-Park.VT/lamoille+valley+chevrolet","location":"44.5881775,-72.6050963","brandsList":["chevrolet"]},{"id":2145,"crm_id":67044322,"name":"Brileya's Chrysler Jeep","dealerSlug":"brileyas+chrysler+jeep","city_state_slug":"Rutland.VT","brand":"Chrysler,Jeep","website":"www.brileyaschryslerjeep.net","address":"1253 Route-7","city":"Rutland","state":"VT","zip":5701,"latitude":43.642277,"longitude":-72.982589,"phone_number_service":"8025651982","phone_number_main":"8027733555","service_hours":"Mo-Fr 08:00 - 16:30 | Sa 08:00 - 13:00","utc_offset":"-240","gplace_id":null,"gplace_url":"https://maps.google.com/?cid=4677383453837616474","dealerID":66124,"trusted":false,"image_id":"v1597283975/chrysler_RM.png","phone":"8025651982","cityStateSlug":"rutland.vt","slug":"Rutland.VT/brileyas+chrysler+jeep","location":"43.642277,-72.982589","brandsList":["chrysler","jeep"]},{"id":645,"crm_id":67044331,"name":"Audi Rutland","dealerSlug":"audi+rutland","city_state_slug":"Rutland-Town.VT","brand":"Audi","website":"www.audirutland.com","address":"176 US 7","city":"Rutland Town","state":"VT","zip":5701,"latitude":43.5876912,"longitude":-72.9691903,"phone_number_service":"8883798532","phone_number_main":"8027756900","service_hours":"Mo-Fr 07:30 - 17:00","utc_offset":"-240","gplace_id":null,"gplace_url":"https://maps.google.com/?cid=5942298237598225587","dealerID":66127,"trusted":false,"image_id":"v1597283985/audi_RM.png","phone":"8883798532","cityStateSlug":"rutland-town.vt","slug":"Rutland-Town.VT/audi+rutland","location":"43.5876912,-72.9691903","brandsList":["audi"]},{"id":12736,"crm_id":67044343,"name":"Rutland Volkswagen","dealerSlug":"rutland+volkswagen","city_state_slug":"Rutland.VT","brand":"Volkswagen","website":"www.rutlandvw.com/","address":"176 US Route 7 South","city":"Rutland","state":"VT","zip":5701,"latitude":43.5876381,"longitude":-72.9695857,"phone_number_service":"8029921029","phone_number_main":"8027756900","service_hours":"Mo-Fr 08:00 - 17:00","utc_offset":"-240","gplace_id":null,"gplace_url":"https://maps.google.com/?cid=5247065186119913430","dealerID":66129,"trusted":false,"image_id":"v1597283902/volkswagen.png","phone":"8029921029","cityStateSlug":"rutland.vt","slug":"Rutland.VT/rutland+volkswagen","location":"43.5876381,-72.9695857","brandsList":["volkswagen"]},{"id":6635,"crm_id":67044349,"name":"Honda of Rutland","dealerSlug":"honda+of+rutland","city_state_slug":"Rutland.VT","brand":"Honda","website":"www.keyhondaofrutland.com","address":"211 US Route 7 S","city":"Rutland","state":"VT","zip":5701,"latitude":43.5872992,"longitude":-72.9674762,"phone_number_service":"8667832593","phone_number_main":"8027734600","service_hours":"Mo-Fr 07:30 - 17:00","utc_offset":"-240","gplace_id":null,"gplace_url":"https://maps.google.com/?cid=4932559737844979030","dealerID":66131,"trusted":false,"image_id":"v1597284047/honda_ms.png","phone":"8667832593","cityStateSlug":"rutland.vt","slug":"Rutland.VT/honda+of+rutland","location":"43.5872992,-72.9674762","brandsList":["honda"]},{"id":5405,"crm_id":67044355,"name":"Garvey Nissan","dealerSlug":"garvey+nissan","city_state_slug":"North-Clarendon.VT","brand":"Nissan","website":"www.garveynissan.com","address":"78 Rte 7b N","city":"North Clarendon","state":"VT","zip":5759,"latitude":43.5719158,"longitude":-72.9659823,"phone_number_service":"8026621209","phone_number_main":"8027752355","service_hours":"Mo-Fr 08:00 - 17:00","utc_offset":"-240","gplace_id":null,"gplace_url":"https://maps.google.com/?cid=5974444659532717354","dealerID":66132,"trusted":false,"image_id":"v1597283926/nissan_RM.png","phone":"8026621209","cityStateSlug":"north-clarendon.vt","slug":"North-Clarendon.VT/garvey+nissan","location":"43.5719158,-72.9659823","brandsList":["nissan"]},{"id":181,"crm_id":67044364,"name":"Alderman's Toyota","dealerSlug":"aldermans+toyota","city_state_slug":"Rutland.VT","brand":"Toyota","website":"www.aldermanstoyota.com","address":"33 Seward Rd","city":"Rutland","state":"VT","zip":5701,"latitude":43.5861351,"longitude":-72.9670414,"phone_number_service":"8882197307","phone_number_main":"8882197307","service_hours":"Mo-Fr 07:00 - 17:00","utc_offset":"-240","gplace_id":null,"gplace_url":"https://maps.google.com/?cid=18320006991764034786","dealerID":66134,"trusted":false,"image_id":"v1597284039/toyota_ms.png","phone":"8882197307","cityStateSlug":"rutland.vt","slug":"Rutland.VT/aldermans+toyota","location":"43.5861351,-72.9670414","brandsList":["toyota"]},{"id":5013,"crm_id":67044373,"name":"Formula Ford of Rutland","dealerSlug":"formula+ford+of+rutland","city_state_slug":"Rutland.VT","brand":"Ford","website":"www.formulafordrutland.com","address":"4318 Middle Rd","city":"Rutland","state":"VT","zip":5701,"latitude":43.5737862,"longitude":-72.96681770000001,"phone_number_service":"8667289573","phone_number_main":"8027739168","service_hours":"Mo-Fr 07:30 - 16:30 | Sa 08:00 - 14:00","utc_offset":"-240","gplace_id":null,"gplace_url":"https://maps.google.com/?cid=12483156056211916490","dealerID":66137,"trusted":false,"image_id":"v1597283967/ford_RM.png","phone":"8667289573","cityStateSlug":"rutland.vt","slug":"Rutland.VT/formula+ford+of+rutland","location":"43.5737862,-72.96681770000001","brandsList":["ford"]},{"id":180,"crm_id":67044379,"name":"Alderman's Chevrolet Buick GMC","dealerSlug":"aldermans+chevrolet+buick+gmc","city_state_slug":"Rutland.VT","brand":"Buick,Chevrolet,GMC","website":"www.aldermanchevrolet.com","address":"65 Windcrest Rd","city":"Rutland","state":"VT","zip":5701,"latitude":43.5762774,"longitude":-72.9649723,"phone_number_service":"8027790005","phone_number_main":"8022824963","service_hours":"Mo-Fr 07:00 - 17:00","utc_offset":"-240","gplace_id":null,"gplace_url":"https://maps.google.com/?cid=12061308948836056480","dealerID":66138,"trusted":false,"image_id":"v1597283981/buick_RM.png","phone":"8027790005","cityStateSlug":"rutland.vt","slug":"Rutland.VT/aldermans+chevrolet+buick+gmc","location":"43.5762774,-72.9649723","brandsList":["buick","chevrolet","gmc"]},{"id":5314,"crm_id":67044403,"name":"G. STONE MOTORS","dealerSlug":"g+stone+motors","city_state_slug":"Middlebury.VT","brand":"Ford","website":"gstonemotors.com","address":"36 Boardman St","city":"Middlebury","state":"VT","zip":5753,"latitude":43.9999784,"longitude":-73.1472453,"phone_number_service":"8884659710","phone_number_main":"8023886718","service_hours":"Mo-Fr 08:00 - 17:00","utc_offset":"-240","gplace_id":null,"gplace_url":"https://maps.google.com/?cid=17710883595858500792","dealerID":66144,"trusted":false,"image_id":"v1597283967/ford_RM.png","phone":"8884659710","cityStateSlug":"middlebury.vt","slug":"Middlebury.VT/g+stone+motors","location":"43.9999784,-73.1472453","brandsList":["ford"]},{"id":14115,"crm_id":67044421,"name":"Ted Green Ford","dealerSlug":"ted+green+ford","city_state_slug":"Stockbridge.VT","brand":"Ford","website":"www.tedgreenford.com","address":"2621 Blackmer Blvd","city":"Stockbridge","state":"VT","zip":5772,"latitude":43.7829323,"longitude":-72.7537324,"phone_number_service":"8338131384","phone_number_main":"8022345301","service_hours":"Mo-Fr 07:00 - 16:30 | Sa 08:00 - 12:00","utc_offset":"-240","gplace_id":null,"gplace_url":"https://maps.google.com/?cid=7797881840390794352","dealerID":66148,"trusted":false,"image_id":"v1597283967/ford_RM.png","phone":"8338131384","cityStateSlug":"stockbridge.vt","slug":"Stockbridge.VT/ted+green+ford","location":"43.7829323,-72.7537324","brandsList":["ford"]},{"id":11984,"crm_id":67044430,"name":"Quality Mitsubishi","dealerSlug":"quality+mitsubishi","city_state_slug":"Saint-Johnsbury.VT","brand":"Mitsubishi","website":"www.qualitymitsubishivt.com","address":"36 Memorial Dr","city":"Saint Johnsbury","state":"VT","zip":5819,"latitude":44.4332568,"longitude":-72.0166949,"phone_number_service":"8443397229","phone_number_main":"8027512700","service_hours":"Mo-Fr 07:30 - 17:00","utc_offset":"-240","gplace_id":null,"gplace_url":"https://maps.google.com/?cid=4782715055993839939","dealerID":66151,"trusted":false,"image_id":"v1597283928/mitsubishi.png","phone":"8443397229","cityStateSlug":"saint-johnsbury.vt","slug":"Saint-Johnsbury.VT/quality+mitsubishi","location":"44.4332568,-72.0166949","brandsList":["mitsubishi"]},{"id":13515,"crm_id":67044436,"name":"St J Auto Buick GMC","dealerSlug":"st+j+auto+buick+gmc","city_state_slug":"Saint-Johnsbury.VT","brand":"Buick,GMC","website":"www.stjauto.com","address":"500 Memorial Dr","city":"Saint Johnsbury","state":"VT","zip":5819,"latitude":44.4399487,"longitude":-72.0133748,"phone_number_service":"8333890432","phone_number_main":"8027481355","service_hours":"Mo-Fr 07:30 - 17:00","utc_offset":"-240","gplace_id":null,"gplace_url":"https://maps.google.com/?cid=16156438605570737072","dealerID":66153,"trusted":false,"image_id":"v1597283981/buick_RM.png","phone":"8333890432","cityStateSlug":"saint-johnsbury.vt","slug":"Saint-Johnsbury.VT/st+j+auto+buick+gmc","location":"44.4399487,-72.0133748","brandsList":["buick","gmc"]},{"id":14694,"crm_id":67044442,"name":"Twin State Ford","dealerSlug":"twin+state+ford","city_state_slug":"Saint-Johnsbury.VT","brand":"Ford","website":"www.twinstateford.net","address":"8 Memorial Drive","city":"Saint Johnsbury","state":"VT","zip":5819,"latitude":44.4300198,"longitude":-72.0169903,"phone_number_service":"8887032180","phone_number_main":"8027484444","service_hours":"Mo-Fr 07:30 - 16:30","utc_offset":"-240","gplace_id":null,"gplace_url":"https://maps.google.com/?cid=16560917678648832069","dealerID":66155,"trusted":false,"image_id":"v1597283967/ford_RM.png","phone":"8887032180","cityStateSlug":"saint-johnsbury.vt","slug":"Saint-Johnsbury.VT/twin+state+ford","location":"44.4300198,-72.0169903","brandsList":["ford"]},{"id":8231,"crm_id":67044448,"name":"Lamoille Valley Ford","dealerSlug":"lamoille+valley+ford","city_state_slug":"Hardwick.VT","brand":"Ford","website":"lvford.com","address":"222 VERMONT ROUTE 15 WEST","city":"Hardwick","state":"VT","zip":5843,"latitude":44.5159445,"longitude":-72.3743144,"phone_number_service":"8882470602","phone_number_main":"8024725967","service_hours":"Mo-Fr 07:00 - 17:30","utc_offset":"-240","gplace_id":null,"gplace_url":"https://maps.google.com/?cid=3976803891625894057","dealerID":66157,"trusted":false,"image_id":"v1597283967/ford_RM.png","phone":"8882470602","cityStateSlug":"hardwick.vt","slug":"Hardwick.VT/lamoille+valley+ford","location":"44.5159445,-72.3743144","brandsList":["ford"]},{"id":6193,"crm_id":67044454,"name":"Hayes Ford","dealerSlug":"hayes+ford","city_state_slug":"Newport.VT","brand":"Ford","website":"www.hayesfordinc.com","address":"439 E Main St","city":"Newport","state":"VT","zip":5855,"latitude":44.9435607,"longitude":-72.1950361,"phone_number_service":"8334187256","phone_number_main":"8023346587","service_hours":"Mo-Fr 08:00 - 16:30 | Sa 08:00 - 12:00","utc_offset":"-240","gplace_id":null,"gplace_url":"https://maps.google.com/?cid=9154804007360804068","dealerID":66159,"trusted":false,"image_id":"v1597283967/ford_RM.png","phone":"8334187256","cityStateSlug":"newport.vt","slug":"Newport.VT/hayes+ford","location":"44.9435607,-72.1950361","brandsList":["ford"]},{"id":11569,"crm_id":98066506,"name":"PJ's Mazda","dealerSlug":"pjs+mazda","city_state_slug":"South-Burlington.VT","brand":"Mazda","website":"www.pjsautovillage.com","address":"2073 Williston Rd","city":"South Burlington","state":"VT","zip":5403,"latitude":44.4583942,"longitude":-73.1451156,"phone_number_service":"8773339617","phone_number_main":"8026584483","service_hours":"Mo-Fr  09:00 - 17:00","utc_offset":"-240","gplace_id":null,"gplace_url":"https://maps.google.com/?cid=10039908102096564616","dealerID":76442,"trusted":false,"image_id":"v1597283937/mazda.png","phone":"8773339617","cityStateSlug":"south-burlington.vt","slug":"South-Burlington.VT/pjs+mazda","location":"44.4583942,-73.1451156","brandsList":["mazda"]},{"id":9957,"crm_id":100658461,"name":"Midstate Hyundai","dealerSlug":"midstate+hyundai","city_state_slug":"Barre.VT","brand":"Hyundai","website":"www.midstatehyundai.com","address":"1411 US Route 302","city":"Barre","state":"VT","zip":5641,"latitude":44.2282037,"longitude":-72.5531224,"phone_number_service":"8884985243","phone_number_main":"8024790587","service_hours":"Mo-Fr 07:30 - 15:00","utc_offset":"-240","gplace_id":null,"gplace_url":"https://maps.google.com/?cid=8191610905107539503","dealerID":76521,"trusted":false,"image_id":"v1597283959/hyundai_RM.png","phone":"8884985243","cityStateSlug":"barre.vt","slug":"Barre.VT/midstate+hyundai","location":"44.2282037,-72.5531224","brandsList":["hyundai"]},{"id":10132,"crm_id":114975494,"name":"Mini Of Burlington","dealerSlug":"mini+of+burlington","city_state_slug":"Shelburne.VT","brand":"MINI","website":"www.miniofburlington.com","address":"74 Champlain Dr","city":"Shelburne","state":"VT","zip":5482,"latitude":44.409436,"longitude":-73.217768,"phone_number_service":"8883543521","phone_number_main":"8029858411","service_hours":"Mo-Fr 07:00 - 17:30","utc_offset":"-240","gplace_id":null,"gplace_url":"https://maps.google.com/?cid=17422005605751530043","dealerID":76952,"trusted":false,"image_id":"v1597283930/mini_RM.png","phone":"8883543521","cityStateSlug":"shelburne.vt","slug":"Shelburne.VT/mini+of+burlington","location":"44.409436,-73.217768","brandsList":["mini"]}]