[{"id":17958,"crm_id":999,"name":"Moses Ford","dealerSlug":"moses+ford","city_state_slug":"Saint-Albans.WV","brand":"Ford","website":"www.mosescars.com","address":"201 MacCorkle Ave","city":"Saint Albans","state":"WV","zip":25177,"latitude":38.389458,"longitude":-81.834659,"phone_number_service":"3047224900","phone_number_main":"","service_hours":"Mo-Fr 07:30 - 17:30 | Sa 08:00 - 13:00","utc_offset":"","gplace_id":0,"gplace_url":"","dealerID":60022,"trusted":false,"image_id":"v1597283967/ford_RM.png","phone":"3047224900","cityStateSlug":"saint-albans.wv","slug":"Saint-Albans.WV/moses+ford","location":"38.389458,-81.834659","brandsList":["ford"]},{"id":17959,"crm_id":999,"name":"Moses Chevrolet","dealerSlug":"moses+chevrolet","city_state_slug":"Saint-Albans.WV","brand":"Chevrolet","website":"www.mosescars.com","address":"516 MacCorkle Ave","city":"Saint Albans","state":"WV","zip":25177,"latitude":38.389015,"longitude":-81.830276,"phone_number_service":"3047214292","phone_number_main":"","service_hours":"Mo-Fr 07:30 - 17:30 | Sa 08:00 - 13:00","utc_offset":"","gplace_id":0,"gplace_url":"","dealerID":60023,"trusted":false,"image_id":"v1597284079/chevy_ms.png","phone":"3047214292","cityStateSlug":"saint-albans.wv","slug":"Saint-Albans.WV/moses+chevrolet","location":"38.389015,-81.830276","brandsList":["chevrolet"]},{"id":16849,"crm_id":999,"name":"L & S Toyota of Beckley","dealerSlug":"l+and+s+toyota+of+beckley","city_state_slug":"Beckley.WV","brand":"Toyota","website":"www.lstoyotabeckley.com","address":"248 Auto Plaza","city":"Beckley","state":"WV","zip":25801,"latitude":37.805426,"longitude":-81.185166,"phone_number_service":"7344299431","phone_number_main":"3042528548","service_hours":"Mo-Sa 08:00 - 19:00","utc_offset":"","gplace_id":0,"gplace_url":"","dealerID":60244,"trusted":false,"image_id":"v1597284039/toyota_ms.png","phone":"7344299431","cityStateSlug":"beckley.wv","slug":"Beckley.WV/l+and+s+toyota+of+beckley","location":"37.805426,-81.185166","brandsList":["toyota"]},{"id":17400,"crm_id":999,"name":"River City Ford","dealerSlug":"river+city+ford","city_state_slug":"Lavalette.WV","brand":"Ford","website":"www.fords4u.com","address":"4676 Route 152 South","city":"Lavalette","state":"WV","zip":25535,"latitude":38.327989,"longitude":-82.450118,"phone_number_service":"8002401943","phone_number_main":"","service_hours":"Mo 09:00 - 19:00 | Tu-Fr 09:00 - 18:00 | Sa 09:00 - 17:00 | Su Closed","utc_offset":"","gplace_id":0,"gplace_url":"","dealerID":60257,"trusted":false,"image_id":"v1597283967/ford_RM.png","phone":"8002401943","cityStateSlug":"lavalette.wv","slug":"Lavalette.WV/river+city+ford","location":"38.327989,-82.450118","brandsList":["ford"]},{"id":15953,"crm_id":999,"name":"Bert Wolfe Audi","dealerSlug":"bert+wolfe+audi","city_state_slug":"Charleston.WV","brand":"Audi","website":"www.bertwolfeaudiofcharleston.com","address":"Plaza Patrick","city":"Charleston","state":"WV","zip":25330,"latitude":38.3703,"longitude":-81.6728,"phone_number_service":"8028683327","phone_number_main":"","service_hours":"","utc_offset":"","gplace_id":0,"gplace_url":"","dealerID":60261,"trusted":false,"image_id":"v1597283985/audi_RM.png","phone":"8028683327","cityStateSlug":"charleston.wv","slug":"Charleston.WV/bert+wolfe+audi","location":"38.3703,-81.6728","brandsList":["audi"]},{"id":17590,"crm_id":999,"name":"Stephens Auto Center","dealerSlug":"stephens+auto+center","city_state_slug":"Danville.WV","brand":"Chrysler,Dodge,Jeep,RAM","website":"www.stephensautocenter.net","address":"104 Stephens Dr","city":"Danville","state":"WV","zip":25053,"latitude":38.12735,"longitude":-81.842481,"phone_number_service":"3043692411","phone_number_main":"","service_hours":"Mo-Fr 09:00 - 19:00 | Sa 09:00 - 18:00 | Su Closed","utc_offset":"","gplace_id":0,"gplace_url":"","dealerID":60443,"trusted":false,"image_id":"v1597283975/chrysler_RM.png","phone":"3043692411","cityStateSlug":"danville.wv","slug":"Danville.WV/stephens+auto+center","location":"38.12735,-81.842481","brandsList":["chrysler","dodge","jeep","ram"]},{"id":17591,"crm_id":999,"name":"Stephens Auto Center","dealerSlug":"stephens+auto+center","city_state_slug":"Danville.WV","brand":"Ford","website":"www.stephensautocenter.com","address":"104 Stephens Drive","city":"Danville","state":"WV","zip":25053,"latitude":38.127095,"longitude":-81.843525,"phone_number_service":"8009252411","phone_number_main":"","service_hours":"Mo-Sa 09:00 - 18:00 | Su Closed","utc_offset":"","gplace_id":0,"gplace_url":"","dealerID":60444,"trusted":false,"image_id":"v1597283967/ford_RM.png","phone":"8009252411","cityStateSlug":"danville.wv","slug":"Danville.WV/stephens+auto+center","location":"38.127095,-81.843525","brandsList":["ford"]},{"id":17356,"crm_id":999,"name":"RAMey Chrysler Dodge Jeep RAM FIAT","dealerSlug":"ramey+chrysler+dodge+jeep+ram+fiat","city_state_slug":"Princeton.WV","brand":"Chrysler,Dodge,Jeep,RAM,Fiat","website":"www.rameymotors.net","address":"127 Frazier Dr","city":"Princeton","state":"WV","zip":24739,"latitude":37.341609,"longitude":-81.124461,"phone_number_service":"3044872151","phone_number_main":"","service_hours":"Mo-Sa 09:00 - 19:00 | Su Closed","utc_offset":"","gplace_id":0,"gplace_url":"","dealerID":60582,"trusted":false,"image_id":"v1597283975/chrysler_RM.png","phone":"3044872151","cityStateSlug":"princeton.wv","slug":"Princeton.WV/ramey+chrysler+dodge+jeep+ram+fiat","location":"37.341609,-81.124461","brandsList":["chrysler","dodge","jeep","ram","fiat"]},{"id":16369,"crm_id":999,"name":"Elkins Chrysler Dodge Jeep RAM","dealerSlug":"elkins+chrysler+dodge+jeep+ram","city_state_slug":"Elkins.WV","brand":"Chrysler,Dodge,Jeep,RAM","website":"www.elkinschryslerdodgejeepram.com","address":"1434 Beverly Pike","city":"Elkins","state":"WV","zip":26241,"latitude":38.89707,"longitude":-79.846098,"phone_number_service":"3046362243","phone_number_main":"","service_hours":"Mo-Sa 08:00 - 19:00 | Su Closed","utc_offset":"","gplace_id":0,"gplace_url":"","dealerID":60641,"trusted":false,"image_id":"v1597283975/chrysler_RM.png","phone":"3046362243","cityStateSlug":"elkins.wv","slug":"Elkins.WV/elkins+chrysler+dodge+jeep+ram","location":"38.89707,-79.846098","brandsList":["chrysler","dodge","jeep","ram"]},{"id":17117,"crm_id":999,"name":"Moore Chrysler","dealerSlug":"moore+chrysler","city_state_slug":"Williamson.WV","brand":"Chrysler,Dodge,Jeep,RAM","website":"www.moorechrysler.net","address":"1523 West 3rd Ave","city":"Williamson","state":"WV","zip":25661,"latitude":37.675275,"longitude":-82.291786,"phone_number_service":"3042358040","phone_number_main":"","service_hours":"Mo-Fr 09:00 - 19:00 | Sa-Su Closed","utc_offset":"","gplace_id":0,"gplace_url":"","dealerID":60677,"trusted":false,"image_id":"v1597283975/chrysler_RM.png","phone":"3042358040","cityStateSlug":"williamson.wv","slug":"Williamson.WV/moore+chrysler","location":"37.675275,-82.291786","brandsList":["chrysler","dodge","jeep","ram"]},{"id":17706,"crm_id":999,"name":"Toothman Ford Sales","dealerSlug":"toothman+ford+sales","city_state_slug":"Grafton.WV","brand":"Ford","website":"www.toothmanford.net","address":"1569 George Washington Highway","city":"Grafton","state":"WV","zip":26354,"latitude":39.338123,"longitude":-80.061452,"phone_number_service":"3042653000","phone_number_main":"","service_hours":"Mo-Fr 08:00 - 19:00 | Sa 09:00 - 17:00 | Su Closed","utc_offset":"","gplace_id":0,"gplace_url":"","dealerID":60692,"trusted":false,"image_id":"v1597283967/ford_RM.png","phone":"3042653000","cityStateSlug":"grafton.wv","slug":"Grafton.WV/toothman+ford+sales","location":"39.338123,-80.061452","brandsList":["ford"]},{"id":17497,"crm_id":999,"name":"Scott Ford","dealerSlug":"scott+ford","city_state_slug":"Kingwood.WV","brand":"Ford","website":"www.scottford.net","address":"17812 Veterans Memorial Hwy","city":"Kingwood","state":"WV","zip":26537,"latitude":39.483032,"longitude":-79.730588,"phone_number_service":"3043293673","phone_number_main":"","service_hours":"Mo 09:00 - 19:00 | Tu 09:00 - 18:00 | We 09:00 - 19:00 | Th 09:00 - 18:00 | Fr 09:00 - 19:00 | Sa 09:00 - 17:00 | Su Closed","utc_offset":"","gplace_id":0,"gplace_url":"","dealerID":60760,"trusted":false,"image_id":"v1597283967/ford_RM.png","phone":"3043293673","cityStateSlug":"kingwood.wv","slug":"Kingwood.WV/scott+ford","location":"39.483032,-79.730588","brandsList":["ford"]},{"id":16501,"crm_id":999,"name":"Goldy Chrysler Dodge Jeep RAM","dealerSlug":"goldy+chrysler+dodge+jeep+ram","city_state_slug":"Huntington.WV","brand":"Chrysler,Dodge,Jeep,RAM","website":"www.goldychryslerdodgejeepram.com","address":"187 Kinetic Dr","city":"Huntington","state":"WV","zip":25701,"latitude":38.394983,"longitude":-82.418575,"phone_number_service":"3047810555","phone_number_main":"","service_hours":"Mo-Fr 09:00 - 19:00 | Sa 09:00 - 17:00 | Su Closed","utc_offset":"","gplace_id":0,"gplace_url":"","dealerID":60779,"trusted":false,"image_id":"v1597283975/chrysler_RM.png","phone":"3047810555","cityStateSlug":"huntington.wv","slug":"Huntington.WV/goldy+chrysler+dodge+jeep+ram","location":"38.394983,-82.418575","brandsList":["chrysler","dodge","jeep","ram"]},{"id":15912,"crm_id":999,"name":"Ball Toyota of Charleston","dealerSlug":"ball+toyota+of+charleston","city_state_slug":"Charleston.WV","brand":"Toyota","website":"www.balltoyota.com","address":"1905 Patrick Street Plaza","city":"Charleston","state":"WV","zip":25387,"latitude":38.370629,"longitude":-81.671648,"phone_number_service":"","phone_number_main":"3045133777","service_hours":"","utc_offset":"","gplace_id":0,"gplace_url":"","dealerID":60791,"trusted":false,"image_id":"v1597284039/toyota_ms.png","phone":"3045133777","cityStateSlug":"charleston.wv","slug":"Charleston.WV/ball+toyota+of+charleston","location":"38.370629,-81.671648","brandsList":["toyota"]},{"id":17610,"crm_id":999,"name":"Straub Ford","dealerSlug":"straub+ford","city_state_slug":"Moundsville.WV","brand":"Ford","website":"www.straubford.com","address":"20 Jefferson Avenue Extension","city":"Moundsville","state":"WV","zip":26041,"latitude":39.930032,"longitude":-80.749399,"phone_number_service":"3048454244","phone_number_main":"","service_hours":"Mo-Th 08:30 - 20:00 | Fr 08:30 - 19:00 | Sa 08:30 - 17:00 | Su Closed","utc_offset":"","gplace_id":0,"gplace_url":"","dealerID":60807,"trusted":false,"image_id":"v1597283967/ford_RM.png","phone":"3048454244","cityStateSlug":"moundsville.wv","slug":"Moundsville.WV/straub+ford","location":"39.930032,-80.749399","brandsList":["ford"]},{"id":15851,"crm_id":999,"name":"Astorg Motor Co.","dealerSlug":"astorg+motor+co","city_state_slug":"Parkersburg.WV","brand":"Mercedes-Benz","website":"www.astorg.mercedesdealer.com/","address":"2028 Seventh Street","city":"Parkersburg","state":"WV","zip":26102,"latitude":39.268541,"longitude":-81.521435,"phone_number_service":"3044226403","phone_number_main":"8888586993","service_hours":"","utc_offset":"","gplace_id":0,"gplace_url":"","dealerID":60837,"trusted":false,"image_id":"v1597283934/mercedes_RM.png","phone":"3044226403","cityStateSlug":"parkersburg.wv","slug":"Parkersburg.WV/astorg+motor+co","location":"39.268541,-81.521435","brandsList":["mercedes-benz"]},{"id":17705,"crm_id":999,"name":"Toothman & Sowers Ford","dealerSlug":"toothman+and+sowers+ford","city_state_slug":"Whitehall.WV","brand":"Ford","website":"www.toothmanandsowersford.com","address":"2231 White Hall Boulevard","city":"Whitehall","state":"WV","zip":26554,"latitude":39.439052,"longitude":-80.179003,"phone_number_service":"3043630500","phone_number_main":"","service_hours":"Mo-Fr 08:00 - 19:00 | Sa 09:00 - 17:00 | Su Closed","utc_offset":"","gplace_id":0,"gplace_url":"","dealerID":60912,"trusted":false,"image_id":"v1597283967/ford_RM.png","phone":"3043630500","cityStateSlug":"whitehall.wv","slug":"Whitehall.WV/toothman+and+sowers+ford","location":"39.439052,-80.179003","brandsList":["ford"]},{"id":17894,"crm_id":999,"name":"Yes Ford","dealerSlug":"yes+ford","city_state_slug":"Huntington.WV","brand":"Ford","website":"www.toddjudyfordofhuntington.com","address":"2480 Fifth Avenue","city":"Huntington","state":"WV","zip":25703,"latitude":38.424822,"longitude":-82.412831,"phone_number_service":"3045292200","phone_number_main":"","service_hours":"Mo-Fr 09:00 - 20:00 | Sa 09:00 - 18:00 | Su Closed","utc_offset":"","gplace_id":0,"gplace_url":"","dealerID":60967,"trusted":false,"image_id":"v1597283967/ford_RM.png","phone":"3045292200","cityStateSlug":"huntington.wv","slug":"Huntington.WV/yes+ford","location":"38.424822,-82.412831","brandsList":["ford"]},{"id":16970,"crm_id":999,"name":"Mark LeRose Ford","dealerSlug":"mark+lerose+ford","city_state_slug":"Gassaway.WV","brand":"Ford","website":"www.markleroseford.com","address":"2764 State Street","city":"Gassaway","state":"WV","zip":26624,"latitude":38.66019,"longitude":-80.750496,"phone_number_service":"3043645132","phone_number_main":"","service_hours":"Mo-Fr 09:00 - 18:00 | Sa 09:00 - 17:00 | Su Closed","utc_offset":"","gplace_id":0,"gplace_url":"","dealerID":61024,"trusted":false,"image_id":"v1597283967/ford_RM.png","phone":"3043645132","cityStateSlug":"gassaway.wv","slug":"Gassaway.WV/mark+lerose+ford","location":"38.66019,-80.750496","brandsList":["ford"]},{"id":16984,"crm_id":999,"name":"Matheny Ford","dealerSlug":"matheny+ford","city_state_slug":"Saint-Marys.WV","brand":"Ford","website":"www.mathenyford.com","address":"308 3rd Street","city":"Saint Marys","state":"WV","zip":26170,"latitude":39.389791,"longitude":-81.205267,"phone_number_service":"3046849625","phone_number_main":"","service_hours":"Mo-Fr 09:00 - 19:00 | Sa 09:00 - 17:00 | Su Closed","utc_offset":"","gplace_id":0,"gplace_url":"","dealerID":61098,"trusted":false,"image_id":"v1597283967/ford_RM.png","phone":"3046849625","cityStateSlug":"saint-marys.wv","slug":"Saint-Marys.WV/matheny+ford","location":"39.389791,-81.205267","brandsList":["ford"]},{"id":16677,"crm_id":999,"name":"I-77 Chrysler Jeep Dodge RAM","dealerSlug":"i+77+chrysler+jeep+dodge+ram","city_state_slug":"Ripley.WV","brand":"Chrysler,Dodge,Jeep,RAM","website":"www.i77chryslerjeepdodgeram.com","address":"435 Church St S","city":"Ripley","state":"WV","zip":25271,"latitude":38.808911,"longitude":-81.70204,"phone_number_service":"3045147077","phone_number_main":"","service_hours":"Mo-Fr 09:00 - 19:00 | Sa Closed | Su 13:00 - 17:00","utc_offset":"","gplace_id":0,"gplace_url":"","dealerID":61293,"trusted":false,"image_id":"v1597283975/chrysler_RM.png","phone":"3045147077","cityStateSlug":"ripley.wv","slug":"Ripley.WV/i+77+chrysler+jeep+dodge+ram","location":"38.808911,-81.70204","brandsList":["chrysler","dodge","jeep","ram"]},{"id":17840,"crm_id":999,"name":"Weimer Chrysler Dodge Jeep RAM of Keyser","dealerSlug":"weimer+chrysler+dodge+jeep+ram+of+keyser","city_state_slug":"Keyser.WV","brand":"Chrysler,Dodge,Jeep,RAM","website":"www.weimerkeysercdjr.com","address":"438 S Mineral St","city":"Keyser","state":"WV","zip":26726,"latitude":39.434246,"longitude":-78.984224,"phone_number_service":"3047907752","phone_number_main":"","service_hours":"Mo-Th 09:00 - 18:00 | Fr 09:00 - 17:00 | Sa 09:00 - 14:00 | Su Closed","utc_offset":"","gplace_id":0,"gplace_url":"","dealerID":61296,"trusted":false,"image_id":"v1597283975/chrysler_RM.png","phone":"3047907752","cityStateSlug":"keyser.wv","slug":"Keyser.WV/weimer+chrysler+dodge+jeep+ram+of+keyser","location":"39.434246,-78.984224","brandsList":["chrysler","dodge","jeep","ram"]},{"id":17678,"crm_id":999,"name":"Thornhill Chrysler Dodge Jeep RAM","dealerSlug":"thornhill+chrysler+dodge+jeep+ram","city_state_slug":"Logan.WV","brand":"Chrysler,Dodge,Jeep,RAM","website":"www.thornhillcdjr.com","address":"500 Stratton Street","city":"Logan","state":"WV","zip":25601,"latitude":37.846295,"longitude":-81.988891,"phone_number_service":"3048969900","phone_number_main":"","service_hours":"Mo-Fr 09:00 - 19:00 | Sa 09:00 - 18:00 | Su Closed","utc_offset":"","gplace_id":0,"gplace_url":"","dealerID":61348,"trusted":false,"image_id":"v1597283975/chrysler_RM.png","phone":"3048969900","cityStateSlug":"logan.wv","slug":"Logan.WV/thornhill+chrysler+dodge+jeep+ram","location":"37.846295,-81.988891","brandsList":["chrysler","dodge","jeep","ram"]},{"id":17124,"crm_id":999,"name":"Moses Nissan","dealerSlug":"moses+nissan","city_state_slug":"Huntington.WV","brand":"Nissan","website":"www.moses-nissan.com","address":"5200 US ROUTE 60 E","city":"Huntington","state":"WV","zip":25705,"latitude":38.412091,"longitude":-82.340931,"phone_number_service":"3047365291","phone_number_main":"","service_hours":"Mo-Fr 09:00 - 20:00\n | Sa 09:00 - 17:00\n | Su 13:00 - 17:00","utc_offset":"","gplace_id":0,"gplace_url":"","dealerID":61379,"trusted":false,"image_id":"v1597283926/nissan_RM.png","phone":"3047365291","cityStateSlug":"huntington.wv","slug":"Huntington.WV/moses+nissan","location":"38.412091,-82.340931","brandsList":["nissan"]},{"id":17315,"crm_id":999,"name":"Premier Nissan Morgantown","dealerSlug":"premier+nissan+morgantown","city_state_slug":"Morgantown.WV","brand":"Nissan","website":"www.premiernissanofwv.com","address":"5394 UNIVERSITY TOWN CTRE","city":"Morgantown","state":"WV","zip":26501,"latitude":39.6462917,"longitude":-80.0017977,"phone_number_service":"3044183200","phone_number_main":"","service_hours":"Mo-Fr 08:30 - 20:00\n | Sa 08:30 - 19:00\n | Su 11:00 - 17:00","utc_offset":"","gplace_id":0,"gplace_url":"","dealerID":61394,"trusted":false,"image_id":"v1597283926/nissan_RM.png","phone":"3044183200","cityStateSlug":"morgantown.wv","slug":"Morgantown.WV/premier+nissan+morgantown","location":"39.6462917,-80.0017977","brandsList":["nissan"]},{"id":17133,"crm_id":999,"name":"Mountaineer Ford","dealerSlug":"mountaineer+ford","city_state_slug":"Beckley.WV","brand":"Ford","website":"mountaineerford.net","address":"615 North Eisenhower Dr.","city":"Beckley","state":"WV","zip":25801,"latitude":37.792172,"longitude":-81.172426,"phone_number_service":"3042567400","phone_number_main":"","service_hours":"","utc_offset":"","gplace_id":0,"gplace_url":"","dealerID":61453,"trusted":false,"image_id":"v1597283967/ford_RM.png","phone":"3042567400","cityStateSlug":"beckley.wv","slug":"Beckley.WV/mountaineer+ford","location":"37.792172,-81.172426","brandsList":["ford"]},{"id":17851,"crm_id":999,"name":"Weston Ford","dealerSlug":"weston+ford","city_state_slug":"Weston.WV","brand":"Ford","website":"","address":"788 U.S. Highway 33 East","city":"Weston","state":"WV","zip":26452,"latitude":39.034809,"longitude":-80.446406,"phone_number_service":"3042696564","phone_number_main":"","service_hours":"","utc_offset":"","gplace_id":0,"gplace_url":"","dealerID":61573,"trusted":false,"image_id":"v1597283967/ford_RM.png","phone":"3042696564","cityStateSlug":"weston.wv","slug":"Weston.WV/weston+ford","location":"39.034809,-80.446406","brandsList":["ford"]},{"id":17693,"crm_id":999,"name":"Todd Judy Ford East","dealerSlug":"todd+judy+ford+east","city_state_slug":"Charleston.WV","brand":"Ford","website":"www.toddjudyfordeast.com","address":"7891 MacCorkle Avenue","city":"Charleston","state":"WV","zip":25315,"latitude":38.263296,"longitude":-81.574109,"phone_number_service":"3049250431","phone_number_main":"","service_hours":"Mo-Fr 09:00 - 20:00 | Sa 09:00 - 19:00 | Su Closed","utc_offset":"","gplace_id":0,"gplace_url":"","dealerID":61574,"trusted":false,"image_id":"v1597283967/ford_RM.png","phone":"3049250431","cityStateSlug":"charleston.wv","slug":"Charleston.WV/todd+judy+ford+east","location":"38.263296,-81.574109","brandsList":["ford"]},{"id":17814,"crm_id":999,"name":"Wable Ford","dealerSlug":"wable+ford","city_state_slug":"Sistersville.WV","brand":"Ford","website":"www.wableford.com","address":"820 Chelsea St","city":"Sistersville","state":"WV","zip":26175,"latitude":39.562394,"longitude":-80.99756,"phone_number_service":"3046523771","phone_number_main":"","service_hours":"Mo-Th 09:00 - 18:00 | Fr 09:00 - 16:30 | Sa 09:00 - 12:00 | Su Closed","utc_offset":"","gplace_id":0,"gplace_url":"","dealerID":61613,"trusted":false,"image_id":"v1597283967/ford_RM.png","phone":"3046523771","cityStateSlug":"sistersville.wv","slug":"Sistersville.WV/wable+ford","location":"39.562394,-80.99756","brandsList":["ford"]},{"id":16562,"crm_id":999,"name":"Hancock County Chrysler Dodge Jeep RAM","dealerSlug":"hancock+county+chrysler+dodge+jeep+ram","city_state_slug":"Newell.WV","brand":"Chrysler,Dodge,Jeep,RAM","website":"www.hancockcountychryslerdodgejeepram.com","address":"845 Washington Street","city":"Newell","state":"WV","zip":26050,"latitude":40.616662,"longitude":-80.609714,"phone_number_service":"3043873100","phone_number_main":"","service_hours":"Mo 09:00 - 20:00 | Tu-We 09:00 - 18:00 | Th 09:00 - 20:00 | Fr 09:00 - 18:00 | Sa 09:00 - 17:00 | Su Closed","utc_offset":"","gplace_id":0,"gplace_url":"","dealerID":61627,"trusted":false,"image_id":"v1597283975/chrysler_RM.png","phone":"3043873100","cityStateSlug":"newell.wv","slug":"Newell.WV/hancock+county+chrysler+dodge+jeep+ram","location":"40.616662,-80.609714","brandsList":["chrysler","dodge","jeep","ram"]},{"id":16766,"crm_id":999,"name":"Jim Robinson Ford","dealerSlug":"jim+robinson+ford","city_state_slug":"Triadelphia.WV","brand":"Ford","website":"www.jimrobinsonford.com","address":"95 Robinson Drive","city":"Triadelphia","state":"WV","zip":26059,"latitude":40.062102,"longitude":-80.586769,"phone_number_service":"3042322400","phone_number_main":"","service_hours":"Mo-Fr 08:30 - 20:00 | Sa 09:00 - 18:30 | Su Closed","utc_offset":"","gplace_id":0,"gplace_url":"","dealerID":61693,"trusted":false,"image_id":"v1597283967/ford_RM.png","phone":"3042322400","cityStateSlug":"triadelphia.wv","slug":"Triadelphia.WV/jim+robinson+ford","location":"40.062102,-80.586769","brandsList":["ford"]},{"id":17679,"crm_id":999,"name":"Thornhill Ford","dealerSlug":"thornhill+ford","city_state_slug":"Chapmanville.WV","brand":"Ford","website":"www.thornhillfordlincoln.com","address":"U.S. Route 119 North","city":"Chapmanville","state":"WV","zip":25508,"latitude":37.988072,"longitude":-81.97097,"phone_number_service":"3048558300","phone_number_main":"","service_hours":"Mo-Fr 09:00 - 19:00 | Sa 09:00 - 18:00 | Su Closed","utc_offset":"","gplace_id":0,"gplace_url":"","dealerID":61766,"trusted":false,"image_id":"v1597283967/ford_RM.png","phone":"3048558300","cityStateSlug":"chapmanville.wv","slug":"Chapmanville.WV/thornhill+ford","location":"37.988072,-81.97097","brandsList":["ford"]},{"id":12362,"crm_id":67032121,"name":"River City Subaru","dealerSlug":"river+city+subaru","city_state_slug":"Huntington.WV","brand":"Subaru","website":"www.rivercitysubaru.com","address":"5223 US-60 East","city":"Huntington","state":"WV","zip":25705,"latitude":38.4109468,"longitude":-82.3382375,"phone_number_service":"8774382189","phone_number_main":"3047367777","service_hours":"Mo-Fr 08:00 - 17:00","utc_offset":"-240","gplace_id":null,"gplace_url":"https://maps.google.com/?cid=11037508882569870614","dealerID":62788,"trusted":false,"image_id":"v1597283982/subaru_ms.png","phone":"8774382189","cityStateSlug":"huntington.wv","slug":"Huntington.WV/river+city+subaru","location":"38.4109468,-82.3382375","brandsList":["subaru"]},{"id":9936,"crm_id":67032928,"name":"Mid - State Chevrolet Buick","dealerSlug":"mid+state+chevrolet+buick","city_state_slug":"Sutton.WV","brand":"Buick,Chevrolet","website":"www.midstatechevy.com","address":"26 DAYS Dr I 79 Exit 67","city":"Sutton","state":"WV","zip":26601,"latitude":38.7005162,"longitude":-80.6626469,"phone_number_service":"8778175701","phone_number_main":"3048530508","service_hours":"Mo-Fr 07:00 - 19:00 | Sa 08:00 - 14:00","utc_offset":"-240","gplace_id":null,"gplace_url":"https://maps.google.com/?cid=18049220851224917406","dealerID":63019,"trusted":false,"image_id":"v1597283981/buick_RM.png","phone":"8778175701","cityStateSlug":"sutton.wv","slug":"Sutton.WV/mid+state+chevrolet+buick","location":"38.7005162,-80.6626469","brandsList":["buick","chevrolet"]},{"id":10344,"crm_id":67032973,"name":"Moses Honda","dealerSlug":"moses+honda","city_state_slug":"Huntington.WV","brand":"Honda","website":"www.moseshonda.com","address":"5210 US Route 60 East","city":"Huntington","state":"WV","zip":25705,"latitude":38.413134,"longitude":-82.340529,"phone_number_service":"3047365226","phone_number_main":"3047365226","service_hours":"Mo-Fr 07:30 - 17:30","utc_offset":"-240","gplace_id":null,"gplace_url":"https://maps.google.com/?cid=13023403578149078607","dealerID":63031,"trusted":false,"image_id":"v1597284047/honda_ms.png","phone":"3047365226","cityStateSlug":"huntington.wv","slug":"Huntington.WV/moses+honda","location":"38.413134,-82.340529","brandsList":["honda"]},{"id":4283,"crm_id":67035817,"name":"Dutch Miller Subaru","dealerSlug":"dutch+miller+subaru","city_state_slug":"Charleston.WV","brand":"Subaru","website":"www.dutchmillersubaru.com/","address":"1901 Patrick St Plaza","city":"Charleston","state":"WV","zip":25387,"latitude":38.3705706,"longitude":-81.6702072,"phone_number_service":"8778140471","phone_number_main":"3043404500","service_hours":"Mo-Fr 07:30 - 17:00","utc_offset":"-240","gplace_id":null,"gplace_url":"https://maps.google.com/?cid=1357456421533002926","dealerID":63813,"trusted":false,"image_id":"v1597283982/subaru_ms.png","phone":"8778140471","cityStateSlug":"charleston.wv","slug":"Charleston.WV/dutch+miller+subaru","location":"38.3705706,-81.6702072","brandsList":["subaru"]},{"id":14770,"crm_id":67037077,"name":"Urse Honda","dealerSlug":"urse+honda","city_state_slug":"Bridgeport.WV","brand":"Honda","website":"www.ursehonda.com","address":"772 Barnetts Run Rd","city":"Bridgeport","state":"WV","zip":26330,"latitude":39.31189,"longitude":-80.263321,"phone_number_service":"8883947592","phone_number_main":"3048425600","service_hours":"Mo-Fr  08:00 - 17:00","utc_offset":"-240","gplace_id":null,"gplace_url":"https://maps.google.com/?cid=7357725349953257066","dealerID":64158,"trusted":false,"image_id":"v1597284047/honda_ms.png","phone":"8883947592","cityStateSlug":"bridgeport.wv","slug":"Bridgeport.WV/urse+honda","location":"39.31189,-80.263321","brandsList":["honda"]},{"id":15317,"crm_id":67037110,"name":"Weimer Chevrolet Buick GMC Of Moorefield","dealerSlug":"weimer+chevrolet+buick+gmc+of+moorefield","city_state_slug":"Moorefield.WV","brand":"Buick,Chevrolet,GMC","website":"www.weimermoorefield.com","address":"1151 US Route 220 North","city":"Moorefield","state":"WV","zip":26836,"latitude":39.0787103,"longitude":-78.9660276,"phone_number_service":"3045309000","phone_number_main":"3045309000","service_hours":"Mo-Fr 09:00 - 18:00","utc_offset":"-240","gplace_id":null,"gplace_url":"https://maps.google.com/?cid=11340068963405878059","dealerID":64166,"trusted":false,"image_id":"v1597283981/buick_RM.png","phone":"3045309000","cityStateSlug":"moorefield.wv","slug":"Moorefield.WV/weimer+chevrolet+buick+gmc+of+moorefield","location":"39.0787103,-78.9660276","brandsList":["buick","chevrolet","gmc"]},{"id":15319,"crm_id":67037113,"name":"Weimer Chrysler Dodge Jeep RAM","dealerSlug":"weimer+chrysler+dodge+jeep+ram","city_state_slug":"Moorefield.WV","brand":"Chrysler,Dodge,Jeep,RAM","website":"www.weimercdjr.com","address":"1205 US Route 220 North","city":"Moorefield","state":"WV","zip":26836,"latitude":39.0795619,"longitude":-78.9660787,"phone_number_service":"3045646088","phone_number_main":"3045307000","service_hours":"Mo-Fr  08:00 - 17:00 | Sa 08:00 - 12:00","utc_offset":"-240","gplace_id":null,"gplace_url":"https://maps.google.com/?cid=2045663806304174348","dealerID":64167,"trusted":false,"image_id":"v1597283975/chrysler_RM.png","phone":"3045646088","cityStateSlug":"moorefield.wv","slug":"Moorefield.WV/weimer+chrysler+dodge+jeep+ram","location":"39.0795619,-78.9660787","brandsList":["chrysler","dodge","jeep","ram"]},{"id":15320,"crm_id":67037116,"name":"Weimer Ford","dealerSlug":"weimer+ford","city_state_slug":"Moorefield.WV","brand":"Ford","website":"www.weimerford.net","address":"1191 US Route 220 North","city":"Moorefield","state":"WV","zip":26836,"latitude":39.0791355,"longitude":-78.9656558,"phone_number_service":"8884829714","phone_number_main":"3045306566","service_hours":"Mo-Fr  08:00 - 17:00 | Sa 08:00 - 12:00","utc_offset":"-240","gplace_id":null,"gplace_url":"https://maps.google.com/?cid=10945351229808645061","dealerID":64168,"trusted":false,"image_id":"v1597283967/ford_RM.png","phone":"8884829714","cityStateSlug":"moorefield.wv","slug":"Moorefield.WV/weimer+ford","location":"39.0791355,-78.9656558","brandsList":["ford"]},{"id":15442,"crm_id":67037338,"name":"Wheeling Subaru","dealerSlug":"wheeling+subaru","city_state_slug":"Wheeling.WV","brand":"Subaru","website":"www.wheelingsubaru.com","address":"US Route 40 East","city":"Wheeling","state":"WV","zip":26003,"latitude":40.0482715,"longitude":-80.6784954,"phone_number_service":"8885451628","phone_number_main":"3042427313","service_hours":"Mo-Fr  08:00 - 17:00","utc_offset":"-240","gplace_id":null,"gplace_url":"https://maps.google.com/?cid=3930383335203509204","dealerID":64235,"trusted":false,"image_id":"v1597283982/subaru_ms.png","phone":"8885451628","cityStateSlug":"wheeling.wv","slug":"Wheeling.WV/wheeling+subaru","location":"40.0482715,-80.6784954","brandsList":["subaru"]},{"id":10343,"crm_id":67037527,"name":"Moses Cadillac Buick GMC Of Charleston","dealerSlug":"moses+cadillac+buick+gmc+of+charleston","city_state_slug":"Charleston.WV","brand":"Buick,Cadillac,GMC","website":"www.mosesdowntown.com","address":"1406 Washington St E","city":"Charleston","state":"WV","zip":25301,"latitude":38.3369315,"longitude":-81.6099315,"phone_number_service":"3049320945","phone_number_main":"3042059937","service_hours":"Mo-Fr 07:30 - 17:30 | Sa 08:00 - 14:00","utc_offset":"-240","gplace_id":null,"gplace_url":"https://maps.google.com/?cid=11638135307331795473","dealerID":64288,"trusted":false,"image_id":"v1597283981/buick_RM.png","phone":"3049320945","cityStateSlug":"charleston.wv","slug":"Charleston.WV/moses+cadillac+buick+gmc+of+charleston","location":"38.3369315,-81.6099315","brandsList":["buick","cadillac","gmc"]},{"id":11815,"crm_id":67038220,"name":"Premier Chevrolet Buick GMC","dealerSlug":"premier+chevrolet+buick+gmc","city_state_slug":"Morgantown.WV","brand":"Buick,Chevrolet,GMC","website":"www.premiergmofwv.com","address":"5392 University Town Centre Dr","city":"Morgantown","state":"WV","zip":26501,"latitude":39.6460764,"longitude":-80.002822,"phone_number_service":"3042929446","phone_number_main":"3042929446","service_hours":"Mo 07:00 - 18:00  | Tu 07:00 - 20:00 | We 07:00 - 20:00  | Th 07:00 - 20:00  | Fr 07:00 - 20:00  | Sa 08:00 - 17:00","utc_offset":"-240","gplace_id":null,"gplace_url":"https://maps.google.com/?cid=3831667476262592780","dealerID":64478,"trusted":false,"image_id":"v1597283981/buick_RM.png","phone":"3042929446","cityStateSlug":"morgantown.wv","slug":"Morgantown.WV/premier+chevrolet+buick+gmc","location":"39.6460764,-80.002822","brandsList":["buick","chevrolet","gmc"]},{"id":11147,"crm_id":67039051,"name":"Pantili Hyundai","dealerSlug":"pantili+hyundai","city_state_slug":"Princeton.WV","brand":"Hyundai","website":"www.pantilihyundai.com","address":"720 Oakvale Rd","city":"Princeton","state":"WV","zip":24740,"latitude":37.3622033,"longitude":-81.0587592,"phone_number_service":"8884386185","phone_number_main":"3044258203","service_hours":"Mo-Fr 08:00 - 17:00 | Sa 08:00 - 12:00","utc_offset":"-240","gplace_id":null,"gplace_url":"https://maps.google.com/?cid=5425074634738125542","dealerID":64707,"trusted":false,"image_id":"v1597283959/hyundai_RM.png","phone":"8884386185","cityStateSlug":"princeton.wv","slug":"Princeton.WV/pantili+hyundai","location":"37.3622033,-81.0587592","brandsList":["hyundai"]},{"id":3374,"crm_id":67040704,"name":"Country Club Chrysler Dodge Jeep RAM","dealerSlug":"country+club+chrysler+dodge+jeep+ram","city_state_slug":"Clarksburg.WV","brand":"Chrysler,Dodge,Jeep,RAM","website":"www.countryclubchryslerdodge.com","address":"Route 19 South","city":"Clarksburg","state":"WV","zip":26301,"latitude":39.2580822,"longitude":-80.3907724,"phone_number_service":"3047095788","phone_number_main":"3046247611","service_hours":"Mo-Fr 07:30 - 17:30 | Sa 08:00 - 13:00","utc_offset":"-240","gplace_id":null,"gplace_url":"https://maps.google.com/?cid=9485482336899069215","dealerID":65147,"trusted":false,"image_id":"v1597283975/chrysler_RM.png","phone":"3047095788","cityStateSlug":"clarksburg.wv","slug":"Clarksburg.WV/country+club+chrysler+dodge+jeep+ram","location":"39.2580822,-80.3907724","brandsList":["chrysler","dodge","jeep","ram"]},{"id":15708,"crm_id":67041037,"name":"Yes Chevrolet","dealerSlug":"yes+chevrolet","city_state_slug":"Hurricane.WV","brand":"Chevrolet","website":"www.yeschevrolet.com","address":"200 Saturn Way","city":"Hurricane","state":"WV","zip":25526,"latitude":38.4421812,"longitude":-82.0172974,"phone_number_service":"3043975277","phone_number_main":"3045623005","service_hours":"Mo-Fr 07:30 - 17:30","utc_offset":"-240","gplace_id":null,"gplace_url":"https://maps.google.com/?cid=4194291128595761267","dealerID":65242,"trusted":false,"image_id":"v1597284079/chevy_ms.png","phone":"3043975277","cityStateSlug":"hurricane.wv","slug":"Hurricane.WV/yes+chevrolet","location":"38.4421812,-82.0172974","brandsList":["chevrolet"]},{"id":10346,"crm_id":67041241,"name":"Moses Lincoln","dealerSlug":"moses+lincoln","city_state_slug":"Saint-Albans.WV","brand":"Lincoln","website":"www.moseslincoln.com","address":"2001 MacCorkle Ave","city":"Saint Albans","state":"WV","zip":25177,"latitude":38.3865237,"longitude":-81.8142923,"phone_number_service":"3047224900","phone_number_main":"3047224906","service_hours":"Mo-Fr 07:30 - 17:30","utc_offset":"-240","gplace_id":null,"gplace_url":"https://maps.google.com/?cid=11775733210219000828","dealerID":65287,"trusted":false,"image_id":"v1597283942/lincoln_RM.png","phone":"3047224900","cityStateSlug":"saint-albans.wv","slug":"Saint-Albans.WV/moses+lincoln","location":"38.3865237,-81.8142923","brandsList":["lincoln"]},{"id":4978,"crm_id":67041322,"name":"Ford Lincoln of Morgantown","dealerSlug":"ford+lincoln+of+morgantown","city_state_slug":"Morgantown.WV","brand":"Ford,Lincoln","website":"www.fordmorgantown.com","address":"501 Mary Jane Wood Circle","city":"Morgantown","state":"WV","zip":26501,"latitude":39.6390858,"longitude":-79.9961675,"phone_number_service":"3044413100","phone_number_main":"3044467000","service_hours":"Mo-Fr 07:30 - 18:00 | Sa 08:00 - 16:00","utc_offset":"-240","gplace_id":null,"gplace_url":"https://maps.google.com/?cid=15290402187040879122","dealerID":65311,"trusted":false,"image_id":"v1597283967/ford_RM.png","phone":"3044413100","cityStateSlug":"morgantown.wv","slug":"Morgantown.WV/ford+lincoln+of+morgantown","location":"39.6390858,-79.9961675","brandsList":["ford","lincoln"]},{"id":519,"crm_id":67042027,"name":"Audi Charleston","dealerSlug":"audi+charleston","city_state_slug":"Charleston.WV","brand":"Audi","website":"www.audicharlestonwv.com","address":"4 Dudley Farms Ln","city":"Charleston","state":"WV","zip":25309,"latitude":38.326809,"longitude":-81.7124461,"phone_number_service":"8885486419","phone_number_main":"3047460500","service_hours":"Mo-Fr 08:00 - 17:00","utc_offset":"-240","gplace_id":null,"gplace_url":"https://maps.google.com/?cid=988906159530637751","dealerID":65487,"trusted":false,"image_id":"v1597283985/audi_RM.png","phone":"8885486419","cityStateSlug":"charleston.wv","slug":"Charleston.WV/audi+charleston","location":"38.326809,-81.7124461","brandsList":["audi"]},{"id":13734,"crm_id":67042033,"name":"Straub Honda","dealerSlug":"straub+honda","city_state_slug":"Triadelphia.WV","brand":"Honda","website":"www.straubhonda.com","address":"200 Straub Dr","city":"Triadelphia","state":"WV","zip":26059,"latitude":40.0585408,"longitude":-80.5923256,"phone_number_service":"8339641891","phone_number_main":"8339421190","service_hours":"Mo-Fr  08:00 - 18:00 | Sa 08:00 - 15:00","utc_offset":"-240","gplace_id":null,"gplace_url":"https://maps.google.com/?cid=10008989401808939597","dealerID":65489,"trusted":false,"image_id":"v1597284047/honda_ms.png","phone":"8339641891","cityStateSlug":"triadelphia.wv","slug":"Triadelphia.WV/straub+honda","location":"40.0585408,-80.5923256","brandsList":["honda"]},{"id":11557,"crm_id":67043383,"name":"Pioneer Parkersburg Honda","dealerSlug":"pioneer+parkersburg+honda","city_state_slug":"Parkersburg.WV","brand":"Honda","website":"www.pioneerhondaparkersburg.com","address":"1710 14th St Suite 100","city":"Parkersburg","state":"WV","zip":26101,"latitude":39.2666919,"longitude":-81.5367583,"phone_number_service":"8775589454","phone_number_main":"3044855451","service_hours":"Mo-Fr 07:30 - 17:30 | Sa 08:00 - 17:00","utc_offset":"-240","gplace_id":null,"gplace_url":"https://maps.google.com/?cid=3291499295333976942","dealerID":65871,"trusted":false,"image_id":"v1597284047/honda_ms.png","phone":"8775589454","cityStateSlug":"parkersburg.wv","slug":"Parkersburg.WV/pioneer+parkersburg+honda","location":"39.2666919,-81.5367583","brandsList":["honda"]},{"id":3167,"crm_id":67043452,"name":"Cole Honda","dealerSlug":"cole+honda","city_state_slug":"Bluefield.WV","brand":"Honda","website":"www.colehonda.com","address":"Rt 460 Green Valley Rd Suite 1","city":"Bluefield","state":"WV","zip":24701,"latitude":37.3233007,"longitude":-81.1354741,"phone_number_service":"3049604317","phone_number_main":"3049604312","service_hours":"Mo-Fr  08:00 - 18:00 | Sa 09:00 - 14:00","utc_offset":"-240","gplace_id":null,"gplace_url":"https://maps.google.com/?cid=3638497345026975093","dealerID":51472,"trusted":true,"image_id":"v1597284047/honda_ms.png","phone":"3049604317","cityStateSlug":"bluefield.wv","slug":"Bluefield.WV/cole+honda","location":"37.3233007,-81.1354741","brandsList":["honda"]},{"id":12066,"crm_id":67044043,"name":"RAMey Toyota","dealerSlug":"ramey+toyota","city_state_slug":"Princeton.WV","brand":"Toyota","website":"www.rameytoyota.com","address":"127 Frazier Drive","city":"Princeton","state":"WV","zip":24740,"latitude":37.341437,"longitude":-81.1277672,"phone_number_service":"8778488572","phone_number_main":"8778488572","service_hours":"Mo-Fr 08:00 - 17:00","utc_offset":"-240","gplace_id":null,"gplace_url":"https://maps.google.com/?cid=9907624227345040624","dealerID":66053,"trusted":false,"image_id":"v1597284039/toyota_ms.png","phone":"8778488572","cityStateSlug":"princeton.wv","slug":"Princeton.WV/ramey+toyota","location":"37.341437,-81.1277672","brandsList":["toyota"]},{"id":1174,"crm_id":67044535,"name":"Beckley Buick GMC Auto Mall","dealerSlug":"beckley+buick+gmc+auto+mall","city_state_slug":"Beckley.WV","brand":"Buick,GMC","website":"www.beckleybuickgmc.com","address":"3934 Robert C Byrd Dr","city":"Beckley","state":"WV","zip":25801,"latitude":37.803694,"longitude":-81.1838099,"phone_number_service":"3042503420","phone_number_main":"3042501066","service_hours":"Mo-Fr 07:30 - 17:30","utc_offset":"-240","gplace_id":null,"gplace_url":"https://maps.google.com/?cid=3761537575219667100","dealerID":66180,"trusted":false,"image_id":"v1597283981/buick_RM.png","phone":"3042503420","cityStateSlug":"beckley.wv","slug":"Beckley.WV/beckley+buick+gmc+auto+mall","location":"37.803694,-81.1838099","brandsList":["buick","gmc"]},{"id":7299,"crm_id":67044844,"name":"Jenkins Ford","dealerSlug":"jenkins+ford","city_state_slug":"Buckhannon.WV","brand":"Ford","website":"www.jenkinsfordbuckhannon.com","address":"8 Billingsley Drive","city":"Buckhannon","state":"WV","zip":26201,"latitude":38.9999732,"longitude":-80.2542495,"phone_number_service":"8778050284","phone_number_main":"8004007770","service_hours":"Mo-Fr 08:00 - 17:00 | Sa 08:00 - 15:00","utc_offset":"-240","gplace_id":null,"gplace_url":"https://maps.google.com/?cid=9727793880922270471","dealerID":66266,"trusted":false,"image_id":"v1597283967/ford_RM.png","phone":"8778050284","cityStateSlug":"buckhannon.wv","slug":"Buckhannon.WV/jenkins+ford","location":"38.9999732,-80.2542495","brandsList":["ford"]},{"id":3168,"crm_id":67046335,"name":"Cole Kia","dealerSlug":"cole+kia","city_state_slug":"Bluefield.WV","brand":"Kia","website":"www.colekia.com","address":"Rt 460 Green Valley Suite 2","city":"Bluefield","state":"WV","zip":24701,"latitude":37.3238993,"longitude":-81.1352443,"phone_number_service":"3049604248","phone_number_main":"3049604253","service_hours":"Mo-Fr  08:00 - 18:00 | Sa 09:00 - 14:00","utc_offset":"-240","gplace_id":null,"gplace_url":"https://maps.google.com/?cid=893537574430671466","dealerID":51847,"trusted":true,"image_id":"v1597283948/kia_RM.png","phone":"3049604248","cityStateSlug":"bluefield.wv","slug":"Bluefield.WV/cole+kia","location":"37.3238993,-81.1352443","brandsList":["kia"]},{"id":12065,"crm_id":67046881,"name":"RAMey Ford Princeton","dealerSlug":"ramey+ford+princeton","city_state_slug":"Princeton.WV","brand":"Ford","website":"www.rameyfordprinceton.net","address":"498 Courthouse Rd","city":"Princeton","state":"WV","zip":24739,"latitude":37.3443502,"longitude":-81.125986,"phone_number_service":"8667962869","phone_number_main":"3044252128","service_hours":"Mo-Fr 08:00 - 17:00","utc_offset":"-240","gplace_id":null,"gplace_url":"https://maps.google.com/?cid=3958382075414343444","dealerID":66795,"trusted":false,"image_id":"v1597283967/ford_RM.png","phone":"8667962869","cityStateSlug":"princeton.wv","slug":"Princeton.WV/ramey+ford+princeton","location":"37.3443502,-81.125986","brandsList":["ford"]},{"id":9473,"crm_id":67046956,"name":"McClinton Chevrolet","dealerSlug":"mcclinton+chevrolet","city_state_slug":"Parkersburg.WV","brand":"Chevrolet","website":"www.mcclintonchevy.com","address":"1325 Seventh St","city":"Parkersburg","state":"WV","zip":26101,"latitude":39.2644406,"longitude":-81.5397408,"phone_number_service":"3044226501","phone_number_main":"3044226501","service_hours":"Mo-Fr 07:00 - 17:30","utc_offset":"-240","gplace_id":null,"gplace_url":"https://maps.google.com/?cid=3941939961896981733","dealerID":66819,"trusted":false,"image_id":"v1597284079/chevy_ms.png","phone":"3044226501","cityStateSlug":"parkersburg.wv","slug":"Parkersburg.WV/mcclinton+chevrolet","location":"39.2644406,-81.5397408","brandsList":["chevrolet"]},{"id":8650,"crm_id":67047487,"name":"Lester Raines Honda","dealerSlug":"lester+raines+honda","city_state_slug":"South-Charlestown.WV","brand":"Honda","website":"www.lesterraineshonda.com","address":"5111 Maccorkle Ave. SW","city":"South Charlestown","state":"WV","zip":25309,"latitude":38.3543655,"longitude":-81.7359475,"phone_number_service":"8773608042","phone_number_main":"3047681251","service_hours":"Mo-Fr 08:00 - 17:00","utc_offset":"-240","gplace_id":null,"gplace_url":"https://maps.google.com/?cid=13877680943639758181","dealerID":66970,"trusted":false,"image_id":"v1597284047/honda_ms.png","phone":"8773608042","cityStateSlug":"south-charlestown.wv","slug":"South-Charlestown.WV/lester+raines+honda","location":"38.3543655,-81.7359475","brandsList":["honda"]},{"id":8991,"crm_id":67048978,"name":"Louis Thomas Subaru","dealerSlug":"louis+thomas+subaru","city_state_slug":"Parkersburg.WV","brand":"Subaru","website":"www.louisthomassubaru.com","address":"636 Seventh St","city":"Parkersburg","state":"WV","zip":26101,"latitude":39.2637982,"longitude":-81.5533068,"phone_number_service":"8774635799","phone_number_main":"3044285111","service_hours":"Mo-Fr 07:00 - 17:00","utc_offset":"-240","gplace_id":null,"gplace_url":"https://maps.google.com/?cid=1339585668362674612","dealerID":67363,"trusted":false,"image_id":"v1597283982/subaru_ms.png","phone":"8774635799","cityStateSlug":"parkersburg.wv","slug":"Parkersburg.WV/louis+thomas+subaru","location":"39.2637982,-81.5533068","brandsList":["subaru"]},{"id":10855,"crm_id":67049857,"name":"Northside Chevrolet","dealerSlug":"northside+chevrolet","city_state_slug":"Summersville.WV","brand":"Buick,Chevrolet,GMC","website":"www.northsidewv.net","address":"807 Northside Dr","city":"Summersville","state":"WV","zip":26651,"latitude":38.3033687,"longitude":-80.8325589,"phone_number_service":"8007808791","phone_number_main":"3045748191","service_hours":"Temporarily Closed","utc_offset":"-240","gplace_id":null,"gplace_url":"https://maps.google.com/?cid=8167594925166289243","dealerID":67607,"trusted":false,"image_id":"v1597283981/buick_RM.png","phone":"8007808791","cityStateSlug":"summersville.wv","slug":"Summersville.WV/northside+chevrolet","location":"38.3033687,-80.8325589","brandsList":["buick","chevrolet","gmc"]},{"id":125,"crm_id":67050406,"name":"Advantage Toyota","dealerSlug":"advantage+toyota","city_state_slug":"Barboursville.WV","brand":"Toyota","website":"www.advantagetoyota.com","address":"1 Superior Way","city":"Barboursville","state":"WV","zip":25504,"latitude":38.4148518,"longitude":-82.258966,"phone_number_service":"8669791095","phone_number_main":"3047365400","service_hours":"Mo-Fr 08:00 - 17:00 | Sa 08:00 - 12:00","utc_offset":"-240","gplace_id":null,"gplace_url":"https://maps.google.com/?cid=9061597212364098590","dealerID":67765,"trusted":false,"image_id":"v1597284039/toyota_ms.png","phone":"8669791095","cityStateSlug":"barboursville.wv","slug":"Barboursville.WV/advantage+toyota","location":"38.4148518,-82.258966","brandsList":["toyota"]},{"id":9964,"crm_id":67051036,"name":"Midway Ford Incorporated","dealerSlug":"midway+ford+incorporated","city_state_slug":"Hurricane.WV","brand":"Ford","website":"www.midwayfordsvt.com","address":"201 Orchard Park Rd","city":"Hurricane","state":"WV","zip":25526,"latitude":38.4392983,"longitude":-82.0223651,"phone_number_service":"3045623315","phone_number_main":"8002926511","service_hours":"Mo-Fr 07:30 - 17:30","utc_offset":"-240","gplace_id":null,"gplace_url":"https://maps.google.com/?cid=14091507921208943971","dealerID":67933,"trusted":false,"image_id":"v1597283967/ford_RM.png","phone":"3045623315","cityStateSlug":"hurricane.wv","slug":"Hurricane.WV/midway+ford+incorporated","location":"38.4392983,-82.0223651","brandsList":["ford"]},{"id":6861,"crm_id":67051177,"name":"I-79 Honda","dealerSlug":"i+79+honda","city_state_slug":"Westover.WV","brand":"Honda","website":"www.i79hondamazda.com","address":"6100 Nancy D. Drive","city":"Westover","state":"WV","zip":26501,"latitude":39.6567441,"longitude":-80.0169951,"phone_number_service":"3049437600","phone_number_main":"8006332556","service_hours":"Mo-Fr 08:00 - 16:00","utc_offset":"-240","gplace_id":null,"gplace_url":"https://maps.google.com/?cid=13648577583037594192","dealerID":67972,"trusted":false,"image_id":"v1597284047/honda_ms.png","phone":"3049437600","cityStateSlug":"westover.wv","slug":"Westover.WV/i+79+honda","location":"39.6567441,-80.0169951","brandsList":["honda"]},{"id":10342,"crm_id":67051465,"name":"Moses Buick GMC","dealerSlug":"moses+buick+gmc","city_state_slug":"Huntington.WV","brand":"Cadillac","website":"www.moses-cadillac.com","address":"5200 Route 60 East Building A","city":"Huntington","state":"WV","zip":25705,"latitude":38.4137247,"longitude":-82.341077,"phone_number_service":"8778791032","phone_number_main":"3046910907","service_hours":"Mo-Fr 06:30 - 17:30 | Sa 08:00 - 12:00","utc_offset":"-240","gplace_id":null,"gplace_url":"https://maps.google.com/?cid=454349263918489989","dealerID":68052,"trusted":false,"image_id":"v1597283980/cadillac.png","phone":"8778791032","cityStateSlug":"huntington.wv","slug":"Huntington.WV/moses+buick+gmc","location":"38.4137247,-82.341077","brandsList":["cadillac"]},{"id":10010,"crm_id":67051966,"name":"Mike Ferrell Toyota","dealerSlug":"mike+ferrell+toyota","city_state_slug":"Chapmanville.WV","brand":"Toyota","website":"www.mikeferrelltoyotawv.com","address":"US Highway 119 Corridor G","city":"Chapmanville","state":"WV","zip":25508,"latitude":38.3487709,"longitude":-81.6526387,"phone_number_service":"8337441369","phone_number_main":"3048558200","service_hours":"Mo-Fr 08:00 - 17:00","utc_offset":"-240","gplace_id":null,"gplace_url":"https://maps.google.com/?cid=4807686975801047445","dealerID":68191,"trusted":false,"image_id":"v1597284039/toyota_ms.png","phone":"8337441369","cityStateSlug":"chapmanville.wv","slug":"Chapmanville.WV/mike+ferrell+toyota","location":"38.3487709,-81.6526387","brandsList":["toyota"]},{"id":14298,"crm_id":67053088,"name":"Todd Judy Ford Charleston","dealerSlug":"todd+judy+ford+charleston","city_state_slug":"Charleston.WV","brand":"Ford","website":"www.toddjudyfordofcharleston.com","address":"1900 Patrick St Plaza","city":"Charleston","state":"WV","zip":25387,"latitude":38.3703136,"longitude":-81.6727187,"phone_number_service":"3043407247","phone_number_main":"3043441601","service_hours":"Mo-Fr 08:00 - 17:00 | Sa 08:00 - 13:00","utc_offset":"-240","gplace_id":null,"gplace_url":"https://maps.google.com/?cid=7998587938442975086","dealerID":68497,"trusted":false,"image_id":"v1597283967/ford_RM.png","phone":"3043407247","cityStateSlug":"charleston.wv","slug":"Charleston.WV/todd+judy+ford+charleston","location":"38.3703136,-81.6727187","brandsList":["ford"]},{"id":458,"crm_id":67053373,"name":"Astorg Motor Company","dealerSlug":"astorg+motor+company","city_state_slug":"Parkersburg.WV","brand":"Mercedes-Benz","website":"www.astorgmercedesbenz.com","address":"2908 7th St","city":"Parkersburg","state":"WV","zip":26102,"latitude":39.2683839,"longitude":-81.5198575,"phone_number_service":"3044858585","phone_number_main":"3044858585","service_hours":"Mo-Fr 08:00 - 17:00","utc_offset":"-240","gplace_id":null,"gplace_url":"https://maps.google.com/?cid=1936836771817611357","dealerID":68577,"trusted":false,"image_id":"v1597283934/mercedes_RM.png","phone":"3044858585","cityStateSlug":"parkersburg.wv","slug":"Parkersburg.WV/astorg+motor+company","location":"39.2683839,-81.5198575","brandsList":["mercedes-benz"]},{"id":3172,"crm_id":67053454,"name":"Cole Nissan","dealerSlug":"cole+nissan","city_state_slug":"Bluefield.WV","brand":"Nissan","website":"www.colenissan.com","address":"Rt 460 Green Valley Suite 3","city":"Bluefield","state":"WV","zip":24701,"latitude":37.322752,"longitude":-81.1358147,"phone_number_service":"3049604307","phone_number_main":"3049604302","service_hours":"Mo-Fr  08:00 - 18:00 | Sa 09:00 - 14:00","utc_offset":"-240","gplace_id":null,"gplace_url":"https://maps.google.com/?cid=5845395380585019024","dealerID":51473,"trusted":true,"image_id":"v1597283926/nissan_RM.png","phone":"3049604307","cityStateSlug":"bluefield.wv","slug":"Bluefield.WV/cole+nissan","location":"37.322752,-81.1358147","brandsList":["nissan"]},{"id":8258,"crm_id":67054423,"name":"Land Rover Charleston","dealerSlug":"land+rover+charleston","city_state_slug":"Charleston.WV","brand":"Land Rover","website":"www.landrovercharleston.com","address":"5 Dudley Farms Ln","city":"Charleston","state":"WV","zip":25309,"latitude":38.3265472,"longitude":-81.713119,"phone_number_service":"8552885396","phone_number_main":"3047460500","service_hours":"Mo-Fr 07:30 - 17:30","utc_offset":"-240","gplace_id":null,"gplace_url":"https://maps.google.com/?cid=1706720195190130253","dealerID":68865,"trusted":false,"image_id":"v1597283945/landrover_RM.png","phone":"8552885396","cityStateSlug":"charleston.wv","slug":"Charleston.WV/land+rover+charleston","location":"38.3265472,-81.713119","brandsList":["land rover"]},{"id":7847,"crm_id":67054762,"name":"Kent Parsons Ford","dealerSlug":"kent+parsons+ford","city_state_slug":"Martinsburg.WV","brand":"Ford,Lincoln","website":"www.parsonsfordofmartinsburg.com/","address":"1400 Shepherdstown Rd","city":"Martinsburg","state":"WV","zip":25404,"latitude":39.4633993,"longitude":-77.9352454,"phone_number_service":"8888939644","phone_number_main":"3042633344","service_hours":"Mo-Fr 07:30 - 18:00 | Sa 08:00 - 12:00","utc_offset":"-240","gplace_id":null,"gplace_url":"https://maps.google.com/?cid=16039104652738090680","dealerID":68962,"trusted":false,"image_id":"v1597283967/ford_RM.png","phone":"8888939644","cityStateSlug":"martinsburg.wv","slug":"Martinsburg.WV/kent+parsons+ford","location":"39.4633993,-77.9352454","brandsList":["ford","lincoln"]},{"id":13737,"crm_id":67055068,"name":"Straub Nissan","dealerSlug":"straub+nissan","city_state_slug":"Triadelphia.WV","brand":"Nissan","website":"www.straubnissan.com","address":"205 Straub Dr","city":"Triadelphia","state":"WV","zip":26059,"latitude":40.0581882,"longitude":-80.5913703,"phone_number_service":"8339851851","phone_number_main":"8339551854","service_hours":"Mo-Fr  08:00 - 18:00 | Sa 08:00 - 15:00","utc_offset":"-240","gplace_id":null,"gplace_url":"https://maps.google.com/?cid=18095842153355903379","dealerID":69043,"trusted":false,"image_id":"v1597283926/nissan_RM.png","phone":"8339851851","cityStateSlug":"triadelphia.wv","slug":"Triadelphia.WV/straub+nissan","location":"40.0581882,-80.5913703","brandsList":["nissan"]},{"id":6860,"crm_id":67055902,"name":"I-77 Ford","dealerSlug":"i+77+ford","city_state_slug":"Ripley.WV","brand":"Ford","website":"www.i77fordripley.com","address":"3315 Charleston Rd","city":"Ripley","state":"WV","zip":25271,"latitude":38.7651346,"longitude":-81.6935939,"phone_number_service":"8887696797","phone_number_main":"3043723673","service_hours":"Mo-Fr 07:30 - 18:00","utc_offset":"-240","gplace_id":null,"gplace_url":"https://maps.google.com/?cid=2145335281255333859","dealerID":69275,"trusted":false,"image_id":"v1597283967/ford_RM.png","phone":"8887696797","cityStateSlug":"ripley.wv","slug":"Ripley.WV/i+77+ford","location":"38.7651346,-81.6935939","brandsList":["ford"]},{"id":4280,"crm_id":67056919,"name":"Dutch Miller Hyundai","dealerSlug":"dutch+miller+hyundai","city_state_slug":"Huntington.WV","brand":"Hyundai","website":"www.dutchmillerhyundai.com","address":"1202 Washington Ave","city":"Huntington","state":"WV","zip":25704,"latitude":38.4138917,"longitude":-82.4776958,"phone_number_service":"3043961676","phone_number_main":"3045292301","service_hours":"Mo-Fr 07:30 - 17:30","utc_offset":"-240","gplace_id":null,"gplace_url":"https://maps.google.com/?cid=12096630992896936827","dealerID":69548,"trusted":false,"image_id":"v1597283959/hyundai_RM.png","phone":"3043961676","cityStateSlug":"huntington.wv","slug":"Huntington.WV/dutch+miller+hyundai","location":"38.4138917,-82.4776958","brandsList":["hyundai"]},{"id":5178,"crm_id":67057090,"name":"Freedom Kia of Morgantown","dealerSlug":"freedom+kia+of+morgantown","city_state_slug":"Morgantown.WV","brand":"Kia","website":"freedomkia.net","address":"601 Mary Jane Wood Circle","city":"Morgantown","state":"WV","zip":26501,"latitude":39.6393008,"longitude":-79.9971173,"phone_number_service":"3042915090","phone_number_main":"3042915090","service_hours":"Mo-Fr 08:00 - 17:00| Sa 08:00 - 12:00","utc_offset":"-240","gplace_id":null,"gplace_url":"https://maps.google.com/?cid=13191570654302657774","dealerID":69591,"trusted":false,"image_id":"v1597283948/kia_RM.png","phone":"3042915090","cityStateSlug":"morgantown.wv","slug":"Morgantown.WV/freedom+kia+of+morgantown","location":"39.6393008,-79.9971173","brandsList":["kia"]},{"id":3161,"crm_id":67057183,"name":"Cole Chevrolet Buick GMC Cadillac","dealerSlug":"cole+chevrolet+buick+gmc+cadillac","city_state_slug":"Bluefield.WV","brand":"Buick,Cadillac,Chevrolet,GMC","website":"www.colechev.com","address":"1156 Big Laurel Highway","city":"Bluefield","state":"WV","zip":24701,"latitude":37.2443863,"longitude":-81.2222267,"phone_number_service":"8006521293","phone_number_main":"3043278116","service_hours":"Mo-Fr 07:30 - 17:30 | Sa 08:00 - 12:00","utc_offset":"-240","gplace_id":null,"gplace_url":"https://maps.google.com/?cid=7302523782098860893","dealerID":69614,"trusted":false,"image_id":"v1597283981/buick_RM.png","phone":"8006521293","cityStateSlug":"bluefield.wv","slug":"Bluefield.WV/cole+chevrolet+buick+gmc+cadillac","location":"37.2443863,-81.2222267","brandsList":["buick","cadillac","chevrolet","gmc"]},{"id":11148,"crm_id":67057210,"name":"Pantili Mitsubishi","dealerSlug":"pantili+mitsubishi","city_state_slug":"Princeton.WV","brand":"Mitsubishi","website":"www.pantilimitsubishi.com","address":"690 Oakvale Rd","city":"Princeton","state":"WV","zip":24740,"latitude":37.3622709,"longitude":-81.060588,"phone_number_service":"8559434670","phone_number_main":"3044312886","service_hours":"Mo-Fr 08:00 - 17:00 | Sa 08:00 - 12:00","utc_offset":"-240","gplace_id":null,"gplace_url":"https://maps.google.com/?cid=3447991168431068374","dealerID":69621,"trusted":false,"image_id":"v1597283928/mitsubishi.png","phone":"8559434670","cityStateSlug":"princeton.wv","slug":"Princeton.WV/pantili+mitsubishi","location":"37.3622709,-81.060588","brandsList":["mitsubishi"]},{"id":5798,"crm_id":67057216,"name":"Greenbrier Chevrolet Buick","dealerSlug":"greenbrier+chevrolet+buick","city_state_slug":"Lewisburg.WV","brand":"Buick,Chevrolet","website":"www.greenbrierchevroletbuick.com","address":"1518 Jefferson St N","city":"Lewisburg","state":"WV","zip":24901,"latitude":37.8080592,"longitude":-80.435142,"phone_number_service":"8004207129","phone_number_main":"3045200069","service_hours":"Mo-Fr 08:00 - 17:00","utc_offset":"-240","gplace_id":null,"gplace_url":"https://maps.google.com/?cid=11897021101197481310","dealerID":69623,"trusted":false,"image_id":"v1597283981/buick_RM.png","phone":"8004207129","cityStateSlug":"lewisburg.wv","slug":"Lewisburg.WV/greenbrier+chevrolet+buick","location":"37.8080592,-80.435142","brandsList":["buick","chevrolet"]},{"id":5801,"crm_id":67057219,"name":"Greenbrier Motor Co","dealerSlug":"greenbrier+motor+co","city_state_slug":"Lewisburg.WV","brand":"Chrysler,Dodge,Jeep,RAM","website":"www.greenbriermotors.com","address":"111 Seneca Trail","city":"Lewisburg","state":"WV","zip":24901,"latitude":37.7837862,"longitude":-80.457751,"phone_number_service":"8774396481","phone_number_main":"3046451010","service_hours":"Mo-Fr 06:30 - 17:30 | Sa 07:00 - 14:00","utc_offset":"-240","gplace_id":null,"gplace_url":"https://maps.google.com/?cid=3758984962214877882","dealerID":69624,"trusted":false,"image_id":"v1597283975/chrysler_RM.png","phone":"8774396481","cityStateSlug":"lewisburg.wv","slug":"Lewisburg.WV/greenbrier+motor+co","location":"37.7837862,-80.457751","brandsList":["chrysler","dodge","jeep","ram"]},{"id":5800,"crm_id":67057225,"name":"Greenbrier Ford","dealerSlug":"greenbrier+ford","city_state_slug":"Lewisburg.WV","brand":"Ford","website":"www.greenbrierford.com","address":"1686 N Jefferson St","city":"Lewisburg","state":"WV","zip":24901,"latitude":37.8087016,"longitude":-80.4334612,"phone_number_service":"8882806366","phone_number_main":"3046452244","service_hours":"Mo-Fr 08:00 - 17:00","utc_offset":"-240","gplace_id":null,"gplace_url":"https://maps.google.com/?cid=4097930751489766178","dealerID":69626,"trusted":false,"image_id":"v1597283967/ford_RM.png","phone":"8882806366","cityStateSlug":"lewisburg.wv","slug":"Lewisburg.WV/greenbrier+ford","location":"37.8087016,-80.4334612","brandsList":["ford"]},{"id":11318,"crm_id":67057228,"name":"Paul White Chevrolet","dealerSlug":"paul+white+chevrolet","city_state_slug":"Cabin-Creek.WV","brand":"Chevrolet","website":"www.paulwhitechevy.com","address":"1 James River Rd","city":"Cabin Creek","state":"WV","zip":25035,"latitude":38.1940614,"longitude":-81.4975758,"phone_number_service":"8885849415","phone_number_main":"3049492613","service_hours":"Mo-Fr 08:00 - 17:00","utc_offset":"-240","gplace_id":null,"gplace_url":"https://maps.google.com/?cid=3131685000418274493","dealerID":69627,"trusted":false,"image_id":"v1597284079/chevy_ms.png","phone":"8885849415","cityStateSlug":"cabin-creek.wv","slug":"Cabin-Creek.WV/paul+white+chevrolet","location":"38.1940614,-81.4975758","brandsList":["chevrolet"]},{"id":15179,"crm_id":67057237,"name":"Walker Chevrolet","dealerSlug":"walker+chevrolet","city_state_slug":"Nitro.WV","brand":"Chevrolet","website":"www.walkerchevroletwv.com","address":"4130 1st Ave","city":"Nitro","state":"WV","zip":25143,"latitude":38.4425479,"longitude":-81.8338834,"phone_number_service":"3047293500","phone_number_main":"3047598587","service_hours":"Mo-Fr 07:30 - 17:00","utc_offset":"-240","gplace_id":null,"gplace_url":"https://maps.google.com/?cid=17287471322097163545","dealerID":69629,"trusted":false,"image_id":"v1597284079/chevy_ms.png","phone":"3047293500","cityStateSlug":"nitro.wv","slug":"Nitro.WV/walker+chevrolet","location":"38.4425479,-81.8338834","brandsList":["chevrolet"]},{"id":10345,"crm_id":67057243,"name":"Moses Lexus","dealerSlug":"moses+lexus","city_state_slug":"Saint-Albans.WV","brand":"Lexus","website":"www.moseslexus.com","address":"1433 MacCorkle Ave","city":"Saint Albans","state":"WV","zip":25177,"latitude":38.387679,"longitude":-81.828128,"phone_number_service":"3047277777","phone_number_main":"3047277777","service_hours":"Mo-Fr 07:30 - 17:30 | Sa 08:00 - 13:00","utc_offset":"-240","gplace_id":null,"gplace_url":"https://maps.google.com/?cid=18169587669202070723","dealerID":69631,"trusted":false,"image_id":"v1597284042/lexus_ms.png","phone":"3047277777","cityStateSlug":"saint-albans.wv","slug":"Saint-Albans.WV/moses+lexus","location":"38.387679,-81.828128","brandsList":["lexus"]},{"id":10348,"crm_id":67057249,"name":"Moses Toyota","dealerSlug":"moses+toyota","city_state_slug":"Saint-Albans.WV","brand":"Toyota","website":"www.mosestoyota.com","address":"1433 Maccorkle Avenue","city":"Saint Albans","state":"WV","zip":25177,"latitude":38.3875889,"longitude":-81.8276663,"phone_number_service":"3047277777","phone_number_main":"","service_hours":"Mo-Fr 07:30 - 17:30 | Sa 08:00 - 13:00","utc_offset":"-240","gplace_id":null,"gplace_url":"https://maps.google.com/?cid=4702802304536354968","dealerID":69633,"trusted":false,"image_id":"v1597284039/toyota_ms.png","phone":"3047277777","cityStateSlug":"saint-albans.wv","slug":"Saint-Albans.WV/moses+toyota","location":"38.3875889,-81.8276663","brandsList":["toyota"]},{"id":10341,"crm_id":67057258,"name":"Moses BMW","dealerSlug":"moses+bmw","city_state_slug":"Saint-Albans.WV","brand":"BMW","website":"www.mosesbmw.com","address":"2001 MacCorkle Ave","city":"Saint Albans","state":"WV","zip":25177,"latitude":38.3862604,"longitude":-81.8134694,"phone_number_service":"3047224900","phone_number_main":"3047224900","service_hours":"Mo-Fr 07:30 - 17:30","utc_offset":"-240","gplace_id":null,"gplace_url":"https://maps.google.com/?cid=6233568884488793071","dealerID":51580,"trusted":true,"image_id":"v1597283982/bmw_RM.png","phone":"3047224900","cityStateSlug":"saint-albans.wv","slug":"Saint-Albans.WV/moses+bmw","location":"38.3862604,-81.8134694","brandsList":["bmw"]},{"id":10347,"crm_id":67057264,"name":"Moses Nissan St. Albans","dealerSlug":"moses+nissan+st+albans","city_state_slug":"Saint-Albans.WV","brand":"Nissan","website":"www.mosesnissan.com","address":"300 MacCorkle Ave","city":"Saint Albans","state":"WV","zip":25177,"latitude":38.389757,"longitude":-81.832976,"phone_number_service":"3047272921","phone_number_main":"3047272921","service_hours":"Mo-Fr 07:30 - 17:30","utc_offset":"-240","gplace_id":null,"gplace_url":"https://maps.google.com/?cid=11092155961809823842","dealerID":69638,"trusted":false,"image_id":"v1597283926/nissan_RM.png","phone":"3047272921","cityStateSlug":"saint-albans.wv","slug":"Saint-Albans.WV/moses+nissan+st+albans","location":"38.389757,-81.832976","brandsList":["nissan"]},{"id":3702,"crm_id":67057273,"name":"Daniel Chevrolet-Buick","dealerSlug":"daniel+chevrolet+buick","city_state_slug":"Whitesville.WV","brand":"Buick,Chevrolet","website":"www.danielchevroletbuick.com","address":"39553 Coal River Rd","city":"Whitesville","state":"WV","zip":25209,"latitude":37.9724926,"longitude":-81.5283806,"phone_number_service":"8664609918","phone_number_main":"3044614727","service_hours":"Mo-Fr 08:30 - 17:00 | Sa 09:00 - 12:00","utc_offset":"-240","gplace_id":null,"gplace_url":"https://maps.google.com/?cid=18270553075509036988","dealerID":69640,"trusted":false,"image_id":"v1597283981/buick_RM.png","phone":"8664609918","cityStateSlug":"whitesville.wv","slug":"Whitesville.WV/daniel+chevrolet+buick","location":"37.9724926,-81.5283806","brandsList":["buick","chevrolet"]},{"id":7041,"crm_id":67057276,"name":"Jack Garrett Ford","dealerSlug":"jack+garrett+ford","city_state_slug":"Spencer.WV","brand":"Ford","website":"www.jackgarrettford.com","address":"270 Ripley Rd","city":"Spencer","state":"WV","zip":25276,"latitude":38.804141,"longitude":-81.358709,"phone_number_service":"3042440896","phone_number_main":"8008373673","service_hours":"Mo-Fr 08:00 - 17:00| Sa 08:00 - 12:00","utc_offset":"-240","gplace_id":null,"gplace_url":"https://maps.google.com/?cid=4735259141370946214","dealerID":69641,"trusted":false,"image_id":"v1597283967/ford_RM.png","phone":"3042440896","cityStateSlug":"spencer.wv","slug":"Spencer.WV/jack+garrett+ford","location":"38.804141,-81.358709","brandsList":["ford"]},{"id":7486,"crm_id":67057291,"name":"Joe Holland Chevrolet","dealerSlug":"joe+holland+chevrolet","city_state_slug":"South-Charleston.WV","brand":"Chevrolet","website":"www.joehollandchevrolet.com","address":"210 MacCorkle Ave SW","city":"South Charleston","state":"WV","zip":25303,"latitude":38.3681249,"longitude":-81.6981242,"phone_number_service":"3047209222","phone_number_main":"3049314027","service_hours":"Mo-Fr 07:00 17:30","utc_offset":"-240","gplace_id":null,"gplace_url":"https://maps.google.com/?cid=14311420417647072433","dealerID":69643,"trusted":false,"image_id":"v1597284079/chevy_ms.png","phone":"3047209222","cityStateSlug":"south-charleston.wv","slug":"South-Charleston.WV/joe+holland+chevrolet","location":"38.3681249,-81.6981242","brandsList":["chevrolet"]},{"id":7487,"crm_id":67057297,"name":"Joe Holland Hyundai","dealerSlug":"joe+holland+hyundai","city_state_slug":"South-Charleston.WV","brand":"Hyundai","website":"www.joehollandhyundai.com","address":"150 MacCorkle Avenue","city":"South Charleston","state":"WV","zip":25303,"latitude":38.36798,"longitude":-81.699293,"phone_number_service":"8667661190","phone_number_main":"3047441561","service_hours":"Mo-Fr 07:00 - 17:30","utc_offset":"-240","gplace_id":null,"gplace_url":"https://maps.google.com/?cid=7693322348984073681","dealerID":69644,"trusted":false,"image_id":"v1597283959/hyundai_RM.png","phone":"8667661190","cityStateSlug":"south-charleston.wv","slug":"South-Charleston.WV/joe+holland+hyundai","location":"38.36798,-81.699293","brandsList":["hyundai"]},{"id":7488,"crm_id":67057300,"name":"Joe Holland Volkswagen","dealerSlug":"joe+holland+volkswagen","city_state_slug":"South-Charleston.WV","brand":"Volkswagen","website":"www.joehollandvw.com","address":"150 MacCorkle Avenue","city":"South Charleston","state":"WV","zip":25303,"latitude":38.368,"longitude":-81.6992999,"phone_number_service":"3047209222","phone_number_main":"3047441561","service_hours":"Mo-Fr 07:00 - 17:30","utc_offset":"-240","gplace_id":null,"gplace_url":"https://maps.google.com/?cid=17677580023629367385","dealerID":69645,"trusted":false,"image_id":"v1597283902/volkswagen.png","phone":"3047209222","cityStateSlug":"south-charleston.wv","slug":"South-Charleston.WV/joe+holland+volkswagen","location":"38.368,-81.6992999","brandsList":["volkswagen"]},{"id":9700,"crm_id":67057306,"name":"Mercedes-Benz of Charleston","dealerSlug":"mercedes+benz+of+charleston","city_state_slug":"Charleston.WV","brand":"Mercedes-Benz","website":"www.mercedesbenzofcharleston.com/","address":"5 Dudley Farms Ln","city":"Charleston","state":"WV","zip":25309,"latitude":38.3265695,"longitude":-81.7131827,"phone_number_service":"3047460500","phone_number_main":"3047460500","service_hours":"Mo-Fr 07:30 - 17:30","utc_offset":"-240","gplace_id":null,"gplace_url":"https://maps.google.com/?cid=4413594702816409083","dealerID":69647,"trusted":false,"image_id":"v1597283934/mercedes_RM.png","phone":"3047460500","cityStateSlug":"charleston.wv","slug":"Charleston.WV/mercedes+benz+of+charleston","location":"38.3265695,-81.7131827","brandsList":["mercedes-benz"]},{"id":15075,"crm_id":67057309,"name":"Volvo Cars Charleston","dealerSlug":"volvo+cars+charleston","city_state_slug":"Charleston.WV","brand":"Volvo","website":"www.volvocarscharlestonwv.com","address":"7 Dudley Farms Ln","city":"Charleston","state":"WV","zip":25309,"latitude":38.3260619,"longitude":-81.7135413,"phone_number_service":"8887131913","phone_number_main":"3047460700","service_hours":"Mo-Fr 07:30 - 17:30","utc_offset":"-240","gplace_id":null,"gplace_url":"https://maps.google.com/?cid=5078891748435037411","dealerID":69648,"trusted":false,"image_id":"v1597283901/volvo.jpg","phone":"8887131913","cityStateSlug":"charleston.wv","slug":"Charleston.WV/volvo+cars+charleston","location":"38.3260619,-81.7135413","brandsList":["volvo"]},{"id":8651,"crm_id":67057315,"name":"Lester Raines Mazda","dealerSlug":"lester+raines+mazda","city_state_slug":"South-Charleston.WV","brand":"Mazda","website":"lesterrainesmazda.com","address":"5035 MacCorkle Ave SW","city":"South Charleston","state":"WV","zip":25309,"latitude":38.3536535,"longitude":-81.7348306,"phone_number_service":"8882597652","phone_number_main":"3047681251","service_hours":"Mo-Fr 08:00 - 17:00","utc_offset":"-240","gplace_id":null,"gplace_url":"https://maps.google.com/?cid=12386580788845853389","dealerID":69650,"trusted":false,"image_id":"v1597283937/mazda.png","phone":"8882597652","cityStateSlug":"south-charleston.wv","slug":"South-Charleston.WV/lester+raines+mazda","location":"38.3536535,-81.7348306","brandsList":["mazda"]},{"id":7099,"crm_id":67057324,"name":"Jaguar Charleston","dealerSlug":"jaguar+charleston","city_state_slug":"Charleston.WV","brand":"Jaguar","website":"www.jaguarcharleston.com","address":"5 Dudley Farms Ln","city":"Charleston","state":"WV","zip":25309,"latitude":38.3265106,"longitude":-81.7130358,"phone_number_service":"3047460500","phone_number_main":"3047460500","service_hours":"Mo-Fr 07:30 - 17:30","utc_offset":"-240","gplace_id":null,"gplace_url":"https://maps.google.com/?cid=7533652245232110513","dealerID":69652,"trusted":false,"image_id":"v1597283954/jaguar_RM.png","phone":"3047460500","cityStateSlug":"charleston.wv","slug":"Charleston.WV/jaguar+charleston","location":"38.3265106,-81.7130358","brandsList":["jaguar"]},{"id":4279,"crm_id":67057342,"name":"Dutch Miller Chrysler Dodge Jeep RAM of Charleston","dealerSlug":"dutch+miller+chrysler+dodge+jeep+ram+of+charleston","city_state_slug":"South-Charleston.WV","brand":"Chrysler,Dodge,Jeep,RAM","website":"www.dutchmillerdodge.com","address":"339 MacCorkle Ave SW","city":"South Charleston","state":"WV","zip":25303,"latitude":38.3694847,"longitude":-81.6934521,"phone_number_service":"3042051515","phone_number_main":"3043437700","service_hours":"Mo-Fr 07:30 - 18:00 | Sa Closed","utc_offset":"-240","gplace_id":null,"gplace_url":"https://maps.google.com/?cid=10721687031760440742","dealerID":69655,"trusted":false,"image_id":"v1597283975/chrysler_RM.png","phone":"3042051515","cityStateSlug":"south-charleston.wv","slug":"South-Charleston.WV/dutch+miller+chrysler+dodge+jeep+ram+of+charleston","location":"38.3694847,-81.6934521","brandsList":["chrysler","dodge","jeep","ram"]},{"id":10095,"crm_id":67057345,"name":"Miller's Chrysler Dodge Jeep RAM","dealerSlug":"millers+chrysler+dodge+jeep+ram","city_state_slug":"Martinsburg.WV","brand":"Chrysler,Dodge,Jeep,RAM","website":"www.millerschryslerjeep.com","address":"48 Kelly Island Rd","city":"Martinsburg","state":"WV","zip":25401,"latitude":39.4361787,"longitude":-77.9616144,"phone_number_service":"3044338995","phone_number_main":"3042638821","service_hours":"Mo-Fr 07:30 - 17:00 | Sa 06:00 - 14:00","utc_offset":"-240","gplace_id":null,"gplace_url":"https://maps.google.com/?cid=15685926865136056388","dealerID":69656,"trusted":false,"image_id":"v1597283975/chrysler_RM.png","phone":"3044338995","cityStateSlug":"martinsburg.wv","slug":"Martinsburg.WV/millers+chrysler+dodge+jeep+ram","location":"39.4361787,-77.9616144","brandsList":["chrysler","dodge","jeep","ram"]},{"id":387,"crm_id":67057351,"name":"Apple Valley Toyota","dealerSlug":"apple+valley+toyota","city_state_slug":"Martinsburg.WV","brand":"Toyota","website":"www.applevalleytoyota.com","address":"650 Foxcroft Ave","city":"Martinsburg","state":"WV","zip":25401,"latitude":39.456492,"longitude":-77.986759,"phone_number_service":"8554664402","phone_number_main":"3043134010","service_hours":"Mo-Fr 07:00 - 17:00 | Sa 08:00 - 17:00","utc_offset":"-240","gplace_id":null,"gplace_url":"https://maps.google.com/?cid=12373708116534856739","dealerID":69658,"trusted":false,"image_id":"v1597284039/toyota_ms.png","phone":"8554664402","cityStateSlug":"martinsburg.wv","slug":"Martinsburg.WV/apple+valley+toyota","location":"39.456492,-77.986759","brandsList":["toyota"]},{"id":14210,"crm_id":67057360,"name":"Thomassen Ford","dealerSlug":"thomassen+ford","city_state_slug":"Charles-Town.WV","brand":"Ford","website":"www.thomassenford.net","address":"100 S West St","city":"Charles Town","state":"WV","zip":25414,"latitude":39.287455,"longitude":-77.863959,"phone_number_service":"8888043127","phone_number_main":"3047257031","service_hours":"Mo-Fr  09:00-16:00 | Sa 09:00 - 12:00","utc_offset":"-240","gplace_id":null,"gplace_url":"https://maps.google.com/?cid=12964182944262858669","dealerID":69661,"trusted":false,"image_id":"v1597283967/ford_RM.png","phone":"8888043127","cityStateSlug":"charles-town.wv","slug":"Charles-Town.WV/thomassen+ford","location":"39.287455,-77.863959","brandsList":["ford"]},{"id":5953,"crm_id":67057363,"name":"Guys Buick GMC Truck","dealerSlug":"guys+buick+gmc+truck","city_state_slug":"Ranson.WV","brand":"Buick,GMC","website":"www.guysbuickgmc.com","address":"1316 N Mildred St","city":"Ranson","state":"WV","zip":25438,"latitude":39.312442,"longitude":-77.863184,"phone_number_service":"8772751768","phone_number_main":"3047253448","service_hours":"Mo-Fr 07:30 - 17:30","utc_offset":"-240","gplace_id":null,"gplace_url":"https://maps.google.com/?cid=17784855658739828030","dealerID":69662,"trusted":false,"image_id":"v1597283981/buick_RM.png","phone":"8772751768","cityStateSlug":"ranson.wv","slug":"Ranson.WV/guys+buick+gmc+truck","location":"39.312442,-77.863184","brandsList":["buick","gmc"]},{"id":4281,"crm_id":67057372,"name":"Dutch Miller Kia of Barboursville","dealerSlug":"dutch+miller+kia+of+barboursville","city_state_slug":"Barboursville.WV","brand":"Kia","website":"www.dutchmillerkia.com","address":"6400 US Rt 60 East","city":"Barboursville","state":"WV","zip":25504,"latitude":38.4155761,"longitude":-82.3012881,"phone_number_service":"8777938905","phone_number_main":"3047362600","service_hours":"Mo-Fr 08:00 - 17:00","utc_offset":"-240","gplace_id":null,"gplace_url":"https://maps.google.com/?cid=3230188605544290174","dealerID":69664,"trusted":false,"image_id":"v1597283948/kia_RM.png","phone":"8777938905","cityStateSlug":"barboursville.wv","slug":"Barboursville.WV/dutch+miller+kia+of+barboursville","location":"38.4155761,-82.3012881","brandsList":["kia"]},{"id":14228,"crm_id":67057378,"name":"Thornhill GM Superstore","dealerSlug":"thornhill+gm+superstore","city_state_slug":"Chapmanville.WV","brand":"Buick,Chevrolet,GMC","website":"www.thornhillgmsuperstore.com","address":"US Route 119 At Trace Fork Road","city":"Chapmanville","state":"WV","zip":25508,"latitude":37.9903554,"longitude":-81.9870148,"phone_number_service":"8772079134","phone_number_main":"8772079134","service_hours":"Mo-Fr  08:00 - 18:00","utc_offset":"-240","gplace_id":null,"gplace_url":"https://maps.google.com/?cid=9682696467807639273","dealerID":69666,"trusted":false,"image_id":"v1597283981/buick_RM.png","phone":"8772079134","cityStateSlug":"chapmanville.wv","slug":"Chapmanville.WV/thornhill+gm+superstore","location":"37.9903554,-81.9870148","brandsList":["buick","chevrolet","gmc"]},{"id":15181,"crm_id":67057381,"name":"Walker Chrysler Dodge Jeep RAM","dealerSlug":"walker+chrysler+dodge+jeep+ram","city_state_slug":"Hurricane.WV","brand":"Chrysler,Dodge,Jeep,RAM","website":"www.walkercdjrwv.com","address":"102 Orchard Park Rd","city":"Hurricane","state":"WV","zip":25526,"latitude":38.4413114,"longitude":-82.0201078,"phone_number_service":"3045629011","phone_number_main":"3045629011","service_hours":"Mo-Fr 08:00 - 17:00 | Sa 07:30 - 14:30","utc_offset":"-240","gplace_id":null,"gplace_url":"https://maps.google.com/?cid=13827268143850938437","dealerID":69667,"trusted":false,"image_id":"v1597283975/chrysler_RM.png","phone":"3045629011","cityStateSlug":"hurricane.wv","slug":"Hurricane.WV/walker+chrysler+dodge+jeep+ram","location":"38.4413114,-82.0201078","brandsList":["chrysler","dodge","jeep","ram"]},{"id":10349,"crm_id":67057399,"name":"Moses Volkswagen","dealerSlug":"moses+volkswagen","city_state_slug":"Huntington.WV","brand":"Volkswagen","website":"www.mosesvolkswagen.com","address":"5210 US Rte 60 E","city":"Huntington","state":"WV","zip":25705,"latitude":38.413549,"longitude":-82.340257,"phone_number_service":"3047365226","phone_number_main":"3047365226","service_hours":"Mo-Fr 07:30 - 17:30","utc_offset":"-240","gplace_id":null,"gplace_url":"https://maps.google.com/?cid=16789720701354201309","dealerID":69670,"trusted":false,"image_id":"v1597283902/volkswagen.png","phone":"3047365226","cityStateSlug":"huntington.wv","slug":"Huntington.WV/moses+volkswagen","location":"38.413549,-82.340257","brandsList":["volkswagen"]},{"id":8663,"crm_id":67057402,"name":"Lewis Nissan","dealerSlug":"lewis+nissan","city_state_slug":"Beckley.WV","brand":"Nissan","website":"www.lewisnissan.com","address":"100 Appalachian Dr","city":"Beckley","state":"WV","zip":25801,"latitude":37.8155607,"longitude":-81.1855297,"phone_number_service":"8552010506","phone_number_main":"3042551555","service_hours":"Mo-Fr 07:30 - 17:00 | Sa 08:00 - 13:00","utc_offset":"-240","gplace_id":null,"gplace_url":"https://maps.google.com/?cid=2107713629980528514","dealerID":69671,"trusted":false,"image_id":"v1597283926/nissan_RM.png","phone":"8552010506","cityStateSlug":"beckley.wv","slug":"Beckley.WV/lewis+nissan","location":"37.8155607,-81.1855297","brandsList":["nissan"]},{"id":13137,"crm_id":67057408,"name":"Sheets Chrysler Dodge Jeep RAM","dealerSlug":"sheets+chrysler+dodge+jeep+ram","city_state_slug":"Beckley.WV","brand":"Chrysler,Dodge,Jeep,RAM","website":"www.sheetschryslerdodge.net","address":"250 Auto Plaza Dr","city":"Beckley","state":"WV","zip":25801,"latitude":37.8061724,"longitude":-81.1857569,"phone_number_service":"3042546256","phone_number_main":"3042524555","service_hours":"Mo-Fr  08:00 - 17:00","utc_offset":"-240","gplace_id":null,"gplace_url":"https://maps.google.com/?cid=2574823569785823164","dealerID":69672,"trusted":false,"image_id":"v1597283975/chrysler_RM.png","phone":"3042546256","cityStateSlug":"beckley.wv","slug":"Beckley.WV/sheets+chrysler+dodge+jeep+ram","location":"37.8061724,-81.1857569","brandsList":["chrysler","dodge","jeep","ram"]},{"id":6557,"crm_id":67057420,"name":"Hometown Subaru","dealerSlug":"hometown+subaru","city_state_slug":"Mt-Hope.WV","brand":"Subaru","website":"www.hometownsubaru.com","address":"117 Midtown Ave","city":"Mt Hope","state":"WV","zip":25880,"latitude":37.838007,"longitude":-81.1952716,"phone_number_service":"8884309174","phone_number_main":"8772176029","service_hours":"Mo-Fr 07:30 - 17:30 | Sa 07:30 - 12:00","utc_offset":"-240","gplace_id":null,"gplace_url":"https://maps.google.com/?cid=13186195054278768383","dealerID":69674,"trusted":false,"image_id":"v1597283982/subaru_ms.png","phone":"8884309174","cityStateSlug":"mt-hope.wv","slug":"Mt-Hope.WV/hometown+subaru","location":"37.838007,-81.1952716","brandsList":["subaru"]},{"id":7975,"crm_id":67057426,"name":"King Coal Chevrolet Co","dealerSlug":"king+coal+chevrolet+co","city_state_slug":"Oak-Hill.WV","brand":"Chevrolet","website":"www.kingcoalchevy.com","address":"1508 Main St E","city":"Oak Hill","state":"WV","zip":25901,"latitude":37.9892105,"longitude":-81.1329724,"phone_number_service":"3044692901","phone_number_main":"3044692901","service_hours":"Mo 08:00 - 17:30 | Tu 07:30 - 18:30 | We 08:00 - 17:30 |Th 07:30 - 18:30 | Fr 08:00 - 17:30 | Sa 08:00 - 12:00","utc_offset":"-240","gplace_id":null,"gplace_url":"https://maps.google.com/?cid=8667489029143362509","dealerID":69675,"trusted":false,"image_id":"v1597284079/chevy_ms.png","phone":"3044692901","cityStateSlug":"oak-hill.wv","slug":"Oak-Hill.WV/king+coal+chevrolet+co","location":"37.9892105,-81.1329724","brandsList":["chevrolet"]},{"id":15443,"crm_id":67057432,"name":"Wheeling Volkswagen","dealerSlug":"wheeling+volkswagen","city_state_slug":"Wheeling.WV","brand":"Volkswagen","website":"www.wheelingvw.com","address":"1 National Rd","city":"Wheeling","state":"WV","zip":26003,"latitude":40.049,"longitude":-80.6421,"phone_number_service":"8778244394","phone_number_main":"8778337635","service_hours":"Mo-Fr  08:00 - 17:00","utc_offset":"-240","gplace_id":null,"gplace_url":"https://maps.google.com/?cid=6363342641719119600","dealerID":69677,"trusted":false,"image_id":"v1597283902/volkswagen.png","phone":"8778244394","cityStateSlug":"wheeling.wv","slug":"Wheeling.WV/wheeling+volkswagen","location":"40.049,-80.6421","brandsList":["volkswagen"]},{"id":4512,"crm_id":67057438,"name":"Elm Grove Chrysler Dodge Jeep RAM","dealerSlug":"elm+grove+chrysler+dodge+jeep+ram","city_state_slug":"Wheeling.WV","brand":"Chrysler,Dodge,Jeep,RAM","website":"www.elmgrovechryslerdodgejeep.com","address":"2538 National Rd","city":"Wheeling","state":"WV","zip":26003,"latitude":40.0466096,"longitude":-80.6460367,"phone_number_service":"3049071441","phone_number_main":"3042431999","service_hours":"Mo-Fr 07:30 - 18:00 | Sa 08:00 - 15:00","utc_offset":"-240","gplace_id":null,"gplace_url":"https://maps.google.com/?cid=2919510424037378222","dealerID":69679,"trusted":false,"image_id":"v1597283975/chrysler_RM.png","phone":"3049071441","cityStateSlug":"wheeling.wv","slug":"Wheeling.WV/elm+grove+chrysler+dodge+jeep+ram","location":"40.0466096,-80.6460367","brandsList":["chrysler","dodge","jeep","ram"]},{"id":13733,"crm_id":67057447,"name":"Straub Chrysler Dodge Jeep RAM","dealerSlug":"straub+chrysler+dodge+jeep+ram","city_state_slug":"Glendale.WV","brand":"Chrysler,Dodge,Jeep,RAM","website":"www.straubcdjr.com","address":"1502 Wheeling Ave","city":"Glendale","state":"WV","zip":26038,"latitude":39.9382068,"longitude":-80.7537087,"phone_number_service":"3042059654","phone_number_main":"8339841355","service_hours":"Mo-Fr 07:30 - 18:00 | Sa 08:00-15:00","utc_offset":"-240","gplace_id":null,"gplace_url":"https://maps.google.com/?cid=8453983421260933598","dealerID":69682,"trusted":false,"image_id":"v1597283975/chrysler_RM.png","phone":"3042059654","cityStateSlug":"glendale.wv","slug":"Glendale.WV/straub+chrysler+dodge+jeep+ram","location":"39.9382068,-80.7537087","brandsList":["chrysler","dodge","jeep","ram"]},{"id":708,"crm_id":67057453,"name":"Auto Choice","dealerSlug":"auto+choice","city_state_slug":"Moundsville.WV","brand":"Buick,Chevrolet","website":"www.autochoicewv.com/","address":"1201 Lafayette Ave","city":"Moundsville","state":"WV","zip":26041,"latitude":39.91313,"longitude":-80.748027,"phone_number_service":"3048459600","phone_number_main":"3048452157","service_hours":"Mo-Fr 08:00 - 17:00 | Sa 08:00 - 13:00","utc_offset":"-240","gplace_id":null,"gplace_url":"https://maps.google.com/?cid=9900508811176896615","dealerID":69684,"trusted":false,"image_id":"v1597283981/buick_RM.png","phone":"3048459600","cityStateSlug":"moundsville.wv","slug":"Moundsville.WV/auto+choice","location":"39.91313,-80.748027","brandsList":["buick","chevrolet"]},{"id":1898,"crm_id":67057459,"name":"Bob Robinson Chevrolet Buick GMC Cadillac","dealerSlug":"bob+robinson+chevrolet+buick+gmc+cadillac","city_state_slug":"Triadelphia.WV","brand":"Buick,Cadillac,Chevrolet,GMC","website":"www.bobrobinson.com","address":"155 Robinson Dr","city":"Triadelphia","state":"WV","zip":26059,"latitude":40.0623276,"longitude":-80.5880518,"phone_number_service":"3049070023","phone_number_main":"3049070596","service_hours":"Mo-Fr 08:00 - 17:00","utc_offset":"-240","gplace_id":null,"gplace_url":"https://maps.google.com/?cid=14483586789711160658","dealerID":69686,"trusted":false,"image_id":"v1597283981/buick_RM.png","phone":"3049070023","cityStateSlug":"triadelphia.wv","slug":"Triadelphia.WV/bob+robinson+chevrolet+buick+gmc+cadillac","location":"40.0623276,-80.5880518","brandsList":["buick","cadillac","chevrolet","gmc"]},{"id":7427,"crm_id":67057468,"name":"Jim Robinson Toyota","dealerSlug":"jim+robinson+toyota","city_state_slug":"Triadelphia.WV","brand":"Toyota","website":"www.robinsontoyota.net","address":"55 Robinson Dr","city":"Triadelphia","state":"WV","zip":26059,"latitude":40.0629747,"longitude":-80.5861401,"phone_number_service":"3042321880","phone_number_main":"3042321880","service_hours":"Mo-Fr  08:00 - 17:00","utc_offset":"-240","gplace_id":null,"gplace_url":"https://maps.google.com/?cid=1197062163300525857","dealerID":69689,"trusted":false,"image_id":"v1597284039/toyota_ms.png","phone":"3042321880","cityStateSlug":"triadelphia.wv","slug":"Triadelphia.WV/jim+robinson+toyota","location":"40.0629747,-80.5861401","brandsList":["toyota"]},{"id":278,"crm_id":67057474,"name":"Allietta Ford","dealerSlug":"allietta+ford","city_state_slug":"Wellsburg.WV","brand":"Ford","website":"www.alliettafordwellsburg.com/","address":"1625 Commerce St","city":"Wellsburg","state":"WV","zip":26070,"latitude":40.280948,"longitude":-80.6088409,"phone_number_service":"8884178157","phone_number_main":"3047370211","service_hours":"Mo-Fr 08:00 - 17:00","utc_offset":"-240","gplace_id":null,"gplace_url":"https://maps.google.com/?cid=8228569907952173441","dealerID":69691,"trusted":false,"image_id":"v1597283967/ford_RM.png","phone":"8884178157","cityStateSlug":"wellsburg.wv","slug":"Wellsburg.WV/allietta+ford","location":"40.280948,-80.6088409","brandsList":["ford"]},{"id":15435,"crm_id":67057480,"name":"Wharton Cadillac","dealerSlug":"wharton+cadillac","city_state_slug":"Parkersburg.WV","brand":"Cadillac","website":"www.whartoncadillac.com","address":"1225 7th St","city":"Parkersburg","state":"WV","zip":26102,"latitude":39.2642,"longitude":-81.5416,"phone_number_service":"3043975187","phone_number_main":"3044857511","service_hours":"Mo-Fr 07:45 - 17:00","utc_offset":"-240","gplace_id":null,"gplace_url":"https://maps.google.com/?cid=14652209644693161025","dealerID":69693,"trusted":false,"image_id":"v1597283980/cadillac.png","phone":"3043975187","cityStateSlug":"parkersburg.wv","slug":"Parkersburg.WV/wharton+cadillac","location":"39.2642,-81.5416","brandsList":["cadillac"]},{"id":11558,"crm_id":67057486,"name":"Pioneer Volkswagen of Parkersburg","dealerSlug":"pioneer+volkswagen+of+parkersburg","city_state_slug":"Parkersburg.WV","brand":"Volkswagen","website":"www.pioneervwparkersburg.com","address":"1710 14th St Suite 300","city":"Parkersburg","state":"WV","zip":26101,"latitude":39.2666919,"longitude":-81.5367583,"phone_number_service":"8774638641","phone_number_main":"3044855451","service_hours":"Mo-Fr 08:00 - 17:00 | Sa 08:00 - 12:00","utc_offset":"-240","gplace_id":null,"gplace_url":"https://maps.google.com/?cid=6828783070186333969","dealerID":69695,"trusted":false,"image_id":"v1597283902/volkswagen.png","phone":"8774638641","cityStateSlug":"parkersburg.wv","slug":"Parkersburg.WV/pioneer+volkswagen+of+parkersburg","location":"39.2666919,-81.5367583","brandsList":["volkswagen"]},{"id":457,"crm_id":67057495,"name":"Astorg Ford Lincoln of Parkersburg","dealerSlug":"astorg+ford+lincoln+of+parkersburg","city_state_slug":"Parkersburg.WV","brand":"Ford,Lincoln","website":"www.astorgfordinc.com","address":"2028 7th St","city":"Parkersburg","state":"WV","zip":26101,"latitude":39.2681712,"longitude":-81.5208324,"phone_number_service":"8884753895","phone_number_main":"3044858585","service_hours":"Mo-Fr 08:00 - 17:00 | Sa 08:00 - 15:00","utc_offset":"-240","gplace_id":null,"gplace_url":"https://maps.google.com/?cid=14045358895494305728","dealerID":69698,"trusted":false,"image_id":"v1597283967/ford_RM.png","phone":"8884753895","cityStateSlug":"parkersburg.wv","slug":"Parkersburg.WV/astorg+ford+lincoln+of+parkersburg","location":"39.2681712,-81.5208324","brandsList":["ford","lincoln"]},{"id":9360,"crm_id":67057501,"name":"Matheny Motors","dealerSlug":"matheny+motors","city_state_slug":"Parkersburg.WV","brand":"Buick,GMC","website":"www.mathenyauto.com","address":"315 Ann St","city":"Parkersburg","state":"WV","zip":26101,"latitude":39.2665766,"longitude":-81.5647918,"phone_number_service":"3046991046","phone_number_main":"3049167903","service_hours":"Mo-Fr 07:30 - 17:00","utc_offset":"-240","gplace_id":null,"gplace_url":"https://maps.google.com/?cid=14043130397628256420","dealerID":69700,"trusted":false,"image_id":"v1597283981/buick_RM.png","phone":"3046991046","cityStateSlug":"parkersburg.wv","slug":"Parkersburg.WV/matheny+motors","location":"39.2665766,-81.5647918","brandsList":["buick","gmc"]},{"id":15252,"crm_id":67057504,"name":"Warner Kia","dealerSlug":"warner+kia","city_state_slug":"Parkersburg.WV","brand":"Kia","website":"www.warnerkia.com","address":"501 7th St","city":"Parkersburg","state":"WV","zip":26101,"latitude":39.2651472,"longitude":-81.5558041,"phone_number_service":"8882870705","phone_number_main":"3044223502","service_hours":"Mo-Fr  08:00 - 17:30","utc_offset":"-240","gplace_id":null,"gplace_url":"https://maps.google.com/?cid=7587344844510746256","dealerID":69701,"trusted":false,"image_id":"v1597283948/kia_RM.png","phone":"8882870705","cityStateSlug":"parkersburg.wv","slug":"Parkersburg.WV/warner+kia","location":"39.2651472,-81.5558041","brandsList":["kia"]},{"id":456,"crm_id":67057510,"name":"Astorg Chrysler Dodge Jeep RAM FIAT","dealerSlug":"astorg+chrysler+dodge+jeep+ram+fiat","city_state_slug":"Parkersburg.WV","brand":"Chrysler,Dodge,Jeep,RAM,Fiat","website":"www.astorgdodgechryslerjeep.com","address":"1501 7th St","city":"Parkersburg","state":"WV","zip":26101,"latitude":39.2659176,"longitude":-81.5359388,"phone_number_service":"3046994534","phone_number_main":"3044858585","service_hours":"Mo-Fr 08:00 - 17:00 | Sa 08:00 - 15:00","utc_offset":"-240","gplace_id":null,"gplace_url":"https://maps.google.com/?cid=7905303105425748206","dealerID":69703,"trusted":false,"image_id":"v1597283975/chrysler_RM.png","phone":"3046994534","cityStateSlug":"parkersburg.wv","slug":"Parkersburg.WV/astorg+chrysler+dodge+jeep+ram+fiat","location":"39.2659176,-81.5359388","brandsList":["chrysler","dodge","jeep","ram","fiat"]},{"id":9812,"crm_id":67057516,"name":"Mercedes-Benz of Parkersburg","dealerSlug":"mercedes+benz+of+parkersburg","city_state_slug":"Parkersburg.WV","brand":"Mercedes-Benz","website":"astorgauto.com","address":"2028 7th St","city":"Parkersburg","state":"WV","zip":26101,"latitude":39.2681063,"longitude":-81.5208123,"phone_number_service":"3044858585","phone_number_main":"3044858585","service_hours":"Mo-Fr 08:00 - 17:00","utc_offset":"-240","gplace_id":null,"gplace_url":"https://maps.google.com/?cid=13353535874374228244","dealerID":69705,"trusted":false,"image_id":"v1597283934/mercedes_RM.png","phone":"3044858585","cityStateSlug":"parkersburg.wv","slug":"Parkersburg.WV/mercedes+benz+of+parkersburg","location":"39.2681063,-81.5208123","brandsList":["mercedes-benz"]},{"id":3378,"crm_id":67057522,"name":"Country Roads Ford","dealerSlug":"country+roads+ford","city_state_slug":"New-Martinsville.WV","brand":"Ford","website":"www.countryroadsford.net","address":"1244 North State Route 2","city":"New Martinsville","state":"WV","zip":26155,"latitude":39.691355,"longitude":-80.8565111,"phone_number_service":"3044551303","phone_number_main":"3044551303","service_hours":"Mo-Fr 08:00 - 18:00 | Sa 08:00 - 17:00","utc_offset":"-240","gplace_id":null,"gplace_url":"https://maps.google.com/?cid=9313711393342949238","dealerID":69707,"trusted":false,"image_id":"v1597283967/ford_RM.png","phone":"3044551303","cityStateSlug":"new-martinsville.wv","slug":"New-Martinsville.WV/country+roads+ford","location":"39.691355,-80.8565111","brandsList":["ford"]},{"id":2259,"crm_id":67057528,"name":"Buckhannon Toyota","dealerSlug":"buckhannon+toyota","city_state_slug":"Buckhannon.WV","brand":"Toyota,Scion","website":"buckhannontoyota.com","address":"63 Brushy Fork Rd","city":"Buckhannon","state":"WV","zip":26201,"latitude":38.9985105,"longitude":-80.2533809,"phone_number_service":"8004397253","phone_number_main":"3044727200","service_hours":"Mo-Fr 08:00 - 17:00 | Sa 09:00 - 15:00","utc_offset":"-240","gplace_id":null,"gplace_url":"https://maps.google.com/?cid=5395216894240462525","dealerID":69709,"trusted":false,"image_id":"v1597284039/toyota_ms.png","phone":"8004397253","cityStateSlug":"buckhannon.wv","slug":"Buckhannon.WV/buckhannon+toyota","location":"38.9985105,-80.2533809","brandsList":["toyota","scion"]},{"id":4504,"crm_id":67057537,"name":"Elkins Fordland","dealerSlug":"elkins+fordland","city_state_slug":"Elkins.WV","brand":"Ford","website":"www.elkinsfordland.com","address":"696 Beverly Pike","city":"Elkins","state":"WV","zip":26241,"latitude":38.8970989,"longitude":-79.8479683,"phone_number_service":"3046362222","phone_number_main":"8002962486","service_hours":"Mo-Fr 08:00 - 17:00","utc_offset":"-240","gplace_id":null,"gplace_url":"https://maps.google.com/?cid=8389593202836240254","dealerID":69712,"trusted":false,"image_id":"v1597283967/ford_RM.png","phone":"3046362222","cityStateSlug":"elkins.wv","slug":"Elkins.WV/elkins+fordland","location":"38.8970989,-79.8479683","brandsList":["ford"]},{"id":528,"crm_id":67057543,"name":"Audi Clarksburg","dealerSlug":"audi+clarksburg","city_state_slug":"Clarksburg.WV","brand":"Audi","website":"www.audiclarksburg.com","address":"1 Stoneybrook Rd","city":"Clarksburg","state":"WV","zip":26301,"latitude":39.2719027,"longitude":-80.3696353,"phone_number_service":"8777906476","phone_number_main":"8777906476","service_hours":"Mo-Fr 08:00 - 17:00 | Sa 08:00 - 12:00","utc_offset":"-240","gplace_id":null,"gplace_url":"https://maps.google.com/?cid=5391932523215515033","dealerID":69713,"trusted":false,"image_id":"v1597283985/audi_RM.png","phone":"8777906476","cityStateSlug":"clarksburg.wv","slug":"Clarksburg.WV/audi+clarksburg","location":"39.2719027,-80.3696353","brandsList":["audi"]},{"id":14998,"crm_id":67057549,"name":"Volkswagen Clarksburg","dealerSlug":"volkswagen+clarksburg","city_state_slug":"Clarksburg.WV","brand":"Volkswagen","website":"www.vwclarksburg.com","address":"1 Stoneybrook Rd","city":"Clarksburg","state":"WV","zip":26301,"latitude":39.2719644,"longitude":-80.3696876,"phone_number_service":"8884216104","phone_number_main":"8777907995","service_hours":"Mo-Fr  08:00 - 17:00 | Sa 08:00 - 12:00","utc_offset":"-240","gplace_id":null,"gplace_url":"https://maps.google.com/?cid=5326048160618652656","dealerID":69715,"trusted":false,"image_id":"v1597283902/volkswagen.png","phone":"8884216104","cityStateSlug":"clarksburg.wv","slug":"Clarksburg.WV/volkswagen+clarksburg","location":"39.2719644,-80.3696876","brandsList":["volkswagen"]},{"id":2856,"crm_id":67057558,"name":"Chenoweth Ford","dealerSlug":"chenoweth+ford","city_state_slug":"Clarksburg.WV","brand":"Ford","website":"www.chenford.com","address":"1564 E Pike St","city":"Clarksburg","state":"WV","zip":26301,"latitude":39.2784004,"longitude":-80.3054962,"phone_number_service":"8773490233","phone_number_main":"8003441108","service_hours":"Mo-Fr 08:00 - 18:00","utc_offset":"-240","gplace_id":null,"gplace_url":"https://maps.google.com/?cid=2615921276369108525","dealerID":69718,"trusted":false,"image_id":"v1597283967/ford_RM.png","phone":"8773490233","cityStateSlug":"clarksburg.wv","slug":"Clarksburg.WV/chenoweth+ford","location":"39.2784004,-80.3054962","brandsList":["ford"]},{"id":6134,"crm_id":67057564,"name":"Harry Green Nissan","dealerSlug":"harry+green+nissan","city_state_slug":"Clarksburg.WV","brand":"Nissan","website":"www.harrygreennissan.com/","address":"1858 E Pike St","city":"Clarksburg","state":"WV","zip":26301,"latitude":39.2781597,"longitude":-80.2993729,"phone_number_service":"3046246304","phone_number_main":"3046246304","service_hours":"Mo-Fr  07:00 - 18:00 | Sa 08:00 - 13:00","utc_offset":"-240","gplace_id":null,"gplace_url":"https://maps.google.com/?cid=2488058116891998322","dealerID":69719,"trusted":false,"image_id":"v1597283926/nissan_RM.png","phone":"3046246304","cityStateSlug":"clarksburg.wv","slug":"Clarksburg.WV/harry+green+nissan","location":"39.2781597,-80.2993729","brandsList":["nissan"]},{"id":3669,"crm_id":67057570,"name":"Dan Cava Buick GMC Cadillac","dealerSlug":"dan+cava+buick+gmc+cadillac","city_state_slug":"Clarksburg.WV","brand":"Buick,Cadillac,GMC","website":"www.cavabuickgmc.com","address":"1366 E Pike St","city":"Clarksburg","state":"WV","zip":26301,"latitude":39.2783916,"longitude":-80.3088625,"phone_number_service":"3049314650","phone_number_main":"3046246594","service_hours":"Mo-Fr 08:00 - 17:00","utc_offset":"-240","gplace_id":null,"gplace_url":"https://maps.google.com/?cid=15131778393192252175","dealerID":69721,"trusted":false,"image_id":"v1597283981/buick_RM.png","phone":"3049314650","cityStateSlug":"clarksburg.wv","slug":"Clarksburg.WV/dan+cava+buick+gmc+cadillac","location":"39.2783916,-80.3088625","brandsList":["buick","cadillac","gmc"]},{"id":6133,"crm_id":67057576,"name":"Harry Green Chevrolet","dealerSlug":"harry+green+chevrolet","city_state_slug":"Clarksburg.WV","brand":"Chevrolet","website":"www.harrygreenchevy.com/","address":"1858 E Pike St","city":"Clarksburg","state":"WV","zip":26301,"latitude":39.2781597,"longitude":-80.2993729,"phone_number_service":"3046246304","phone_number_main":"3046246304","service_hours":"Mo-Fr  07:00 - 18:00 | Sa 08:00 - 13:00","utc_offset":"-240","gplace_id":null,"gplace_url":"https://maps.google.com/?cid=2488058116891998322","dealerID":69722,"trusted":false,"image_id":"v1597284079/chevy_ms.png","phone":"3046246304","cityStateSlug":"clarksburg.wv","slug":"Clarksburg.WV/harry+green+chevrolet","location":"39.2781597,-80.2993729","brandsList":["chevrolet"]},{"id":5964,"crm_id":67057585,"name":"H And M Motor Company","dealerSlug":"h+and+m+motor+company","city_state_slug":"Weston.WV","brand":"Chrysler,Dodge,Fiat,RAM","website":"www.handmmotor.net","address":"373 E 3rd St","city":"Weston","state":"WV","zip":26452,"latitude":39.0380556,"longitude":-80.4608333,"phone_number_service":"3044614287","phone_number_main":"3042695727","service_hours":"Mo-Fr 08:00 - 17:00 | Sa 08:00 - 14:45","utc_offset":"-240","gplace_id":null,"gplace_url":"https://maps.google.com/?cid=12687521491485690225","dealerID":69724,"trusted":false,"image_id":"v1597283975/chrysler_RM.png","phone":"3044614287","cityStateSlug":"weston.wv","slug":"Weston.WV/h+and+m+motor+company","location":"39.0380556,-80.4608333","brandsList":["chrysler","dodge","fiat","ram"]},{"id":2924,"crm_id":67057594,"name":"Chrysler Dodge Jeep RAM FIAT of Morgantown","dealerSlug":"chrysler+dodge+jeep+ram+fiat+of+morgantown","city_state_slug":"Morgantown.WV","brand":"Chrysler,Dodge,Jeep,RAM,Fiat","website":"www.cdjrmorgantown.com/","address":"1733 Mileground Rd","city":"Morgantown","state":"WV","zip":26505,"latitude":39.6451253,"longitude":-79.9296352,"phone_number_service":"6816120425","phone_number_main":"3042924823","service_hours":"Mo-Fr 07:30 - 17:30 | Sa 07:45-16:00","utc_offset":"-240","gplace_id":null,"gplace_url":"https://maps.google.com/?cid=5530149030172421631","dealerID":69727,"trusted":false,"image_id":"v1597283975/chrysler_RM.png","phone":"6816120425","cityStateSlug":"morgantown.wv","slug":"Morgantown.WV/chrysler+dodge+jeep+ram+fiat+of+morgantown","location":"39.6451253,-79.9296352","brandsList":["chrysler","dodge","jeep","ram","fiat"]},{"id":13781,"crm_id":67057603,"name":"Subaru of Morgantown","dealerSlug":"subaru+of+morgantown","city_state_slug":"Morgantown.WV","brand":"Subaru","website":"www.subarumorgantown.com/","address":"1730 Mileground Rd","city":"Morgantown","state":"WV","zip":26505,"latitude":39.64419,"longitude":-79.927065,"phone_number_service":"6812853570","phone_number_main":"8662197316","service_hours":"Mo-Fr 07:30 - 18:00 | Sa 09:00 - 15:00","utc_offset":"-240","gplace_id":null,"gplace_url":"https://maps.google.com/?cid=12972335921216820981","dealerID":69730,"trusted":false,"image_id":"v1597283982/subaru_ms.png","phone":"6812853570","cityStateSlug":"morgantown.wv","slug":"Morgantown.WV/subaru+of+morgantown","location":"39.64419,-79.927065","brandsList":["subaru"]},{"id":9781,"crm_id":67057612,"name":"Mercedes-Benz of Morgantown","dealerSlug":"mercedes+benz+of+morgantown","city_state_slug":"Morgantown.WV","brand":"Mercedes-Benz","website":"www.mbofmorgantown.com","address":"58 Don Knotts Blvd","city":"Morgantown","state":"WV","zip":26501,"latitude":39.6064791,"longitude":-79.967053,"phone_number_service":"3042969224","phone_number_main":"3042969224","service_hours":"Mo-Fr 07:30 - 17:30 | Sa 09:00 - 17:00","utc_offset":"-240","gplace_id":null,"gplace_url":"https://maps.google.com/?cid=1249778561212291277","dealerID":69731,"trusted":false,"image_id":"v1597283934/mercedes_RM.png","phone":"3042969224","cityStateSlug":"morgantown.wv","slug":"Morgantown.WV/mercedes+benz+of+morgantown","location":"39.6064791,-79.967053","brandsList":["mercedes-benz"]},{"id":10312,"crm_id":67057615,"name":"Morgantown Mitsubishi","dealerSlug":"morgantown+mitsubishi","city_state_slug":"Morgantown.WV","brand":"Mitsubishi","website":"morgantownmitsubishi.com","address":"60 Don Knotts Blvd","city":"Morgantown","state":"WV","zip":26508,"latitude":39.607775,"longitude":-79.967664,"phone_number_service":"3042444505","phone_number_main":"3042444505","service_hours":"Mo-Fr 07:30 - 17:30","utc_offset":"-240","gplace_id":null,"gplace_url":"https://maps.google.com/?cid=5064695996215038633","dealerID":69732,"trusted":false,"image_id":"v1597283928/mitsubishi.png","phone":"3042444505","cityStateSlug":"morgantown.wv","slug":"Morgantown.WV/morgantown+mitsubishi","location":"39.607775,-79.967664","brandsList":["mitsubishi"]},{"id":14757,"crm_id":67057624,"name":"University Toyota","dealerSlug":"university+toyota","city_state_slug":"Morgantown.WV","brand":"Toyota","website":"www.universitytoyota.com","address":"60 Don Knotts Blvd","city":"Morgantown","state":"WV","zip":26508,"latitude":39.607842,"longitude":-79.967618,"phone_number_service":"3042443519","phone_number_main":"3042443519","service_hours":"Mo-Fr 07:30 - 17:30 | Sa 09:00-17:00","utc_offset":"-240","gplace_id":null,"gplace_url":"https://maps.google.com/?cid=14482666255202396480","dealerID":69733,"trusted":false,"image_id":"v1597284039/toyota_ms.png","phone":"3042443519","cityStateSlug":"morgantown.wv","slug":"Morgantown.WV/university+toyota","location":"39.607842,-79.967618","brandsList":["toyota"]},{"id":14929,"crm_id":67057630,"name":"Victory Chrysler Dodge Jeep RAM","dealerSlug":"victory+chrysler+dodge+jeep+ram","city_state_slug":"Kingwood.WV","brand":"Chrysler,Dodge,Jeep,RAM","website":"www.victorykingwood.com","address":"16583 Veterans Memorial Hwy","city":"Kingwood","state":"WV","zip":26537,"latitude":39.4941991,"longitude":-79.7459008,"phone_number_service":"3047598273","phone_number_main":"3044412447","service_hours":"Mo-Fr 08:00 - 16:00","utc_offset":"-240","gplace_id":null,"gplace_url":"https://maps.google.com/?cid=5143537798740436570","dealerID":69734,"trusted":false,"image_id":"v1597283975/chrysler_RM.png","phone":"3047598273","cityStateSlug":"kingwood.wv","slug":"Kingwood.WV/victory+chrysler+dodge+jeep+ram","location":"39.4941991,-79.7459008","brandsList":["chrysler","dodge","jeep","ram"]},{"id":351,"crm_id":67057633,"name":"Anthony Chevrolet","dealerSlug":"anthony+chevrolet","city_state_slug":"Fairmont.WV","brand":"Chevrolet","website":"www.anthonychevrolet.com","address":"1229 Country Club Rd","city":"Fairmont","state":"WV","zip":26554,"latitude":39.4721516,"longitude":-80.1713858,"phone_number_service":"8775887509","phone_number_main":"3043663500","service_hours":"Mo-Fr 08:00 - 17:00","utc_offset":"-240","gplace_id":null,"gplace_url":"https://maps.google.com/?cid=15709499513586981613","dealerID":69735,"trusted":false,"image_id":"v1597284079/chevy_ms.png","phone":"8775887509","cityStateSlug":"fairmont.wv","slug":"Fairmont.WV/anthony+chevrolet","location":"39.4721516,-80.1713858","brandsList":["chevrolet"]},{"id":14769,"crm_id":67057636,"name":"Urse Dodge Chrysler Jeep RAM","dealerSlug":"urse+dodge+chrysler+jeep+ram","city_state_slug":"White-Hall.WV","brand":"Chrysler,Dodge,Jeep,RAM","website":"www.ursedodgechryslerjeep.com","address":"14 Tygart Mall Loop","city":"White Hall","state":"WV","zip":26554,"latitude":39.4253711,"longitude":-80.1888215,"phone_number_service":"3045960287","phone_number_main":"3043639300","service_hours":"Mo-Fr 07:30 - 17:30","utc_offset":"-240","gplace_id":null,"gplace_url":"https://maps.google.com/?cid=1910423573062597251","dealerID":69736,"trusted":false,"image_id":"v1597283975/chrysler_RM.png","phone":"3045960287","cityStateSlug":"white-hall.wv","slug":"White-Hall.WV/urse+dodge+chrysler+jeep+ram","location":"39.4253711,-80.1888215","brandsList":["chrysler","dodge","jeep","ram"]},{"id":3670,"crm_id":67057651,"name":"Dan Cava Toyota World","dealerSlug":"dan+cava+toyota+world","city_state_slug":"Fairmont.WV","brand":"Toyota","website":"www.cavatoyota.com","address":"2510 White Hall Blvd","city":"Fairmont","state":"WV","zip":26554,"latitude":39.433262,"longitude":-80.188709,"phone_number_service":"3043662720","phone_number_main":"3043662720","service_hours":"Mo-Fr 08:00 - 17:00 | Sa 08:00 - 13:00","utc_offset":"-240","gplace_id":null,"gplace_url":"https://maps.google.com/?cid=8882655305773109817","dealerID":69738,"trusted":false,"image_id":"v1597284039/toyota_ms.png","phone":"3043662720","cityStateSlug":"fairmont.wv","slug":"Fairmont.WV/dan+cava+toyota+world","location":"39.433262,-80.188709","brandsList":["toyota"]},{"id":3343,"crm_id":67057654,"name":"Corwin Ford Sales","dealerSlug":"corwin+ford+sales","city_state_slug":"Mannington.WV","brand":"Ford","website":"www.corwinfordsales.com","address":"5107 Husky Highway","city":"Mannington","state":"WV","zip":26582,"latitude":39.5179572,"longitude":-80.3203205,"phone_number_service":"8883281042","phone_number_main":"3049861111","service_hours":"Mo-Fr 08:00 - 17:00","utc_offset":"-240","gplace_id":null,"gplace_url":"https://maps.google.com/?cid=15182630173917935367","dealerID":69739,"trusted":false,"image_id":"v1597283967/ford_RM.png","phone":"8883281042","cityStateSlug":"mannington.wv","slug":"Mannington.WV/corwin+ford+sales","location":"39.5179572,-80.3203205","brandsList":["ford"]},{"id":9937,"crm_id":67057666,"name":"Mid - State Ford","dealerSlug":"mid+state+ford","city_state_slug":"Summersville.WV","brand":"Ford","website":"www.midstatefordwv.com","address":"1000 Arbuckle Rd","city":"Summersville","state":"WV","zip":26651,"latitude":38.278207,"longitude":-80.8465579,"phone_number_service":"3048262018","phone_number_main":"3048725555","service_hours":"Mo-Fr 08:00 - 16:00","utc_offset":"-240","gplace_id":null,"gplace_url":"https://maps.google.com/?cid=6460739087836663938","dealerID":69742,"trusted":false,"image_id":"v1597283967/ford_RM.png","phone":"3048262018","cityStateSlug":"summersville.wv","slug":"Summersville.WV/mid+state+ford","location":"38.278207,-80.8465579","brandsList":["ford"]},{"id":10857,"crm_id":67057675,"name":"Northside Chrysler Jeep Dodge RAM FIAT","dealerSlug":"northside+chrysler+jeep+dodge+ram+fiat","city_state_slug":"Summersville.WV","brand":"Chrysler,Dodge,Jeep,RAM,Fiat","website":"www.northsidechryslerjeepdodge.com","address":"812 Northside Dr","city":"Summersville","state":"WV","zip":26651,"latitude":38.304586,"longitude":-80.831407,"phone_number_service":"3045794955","phone_number_main":"3047122063","service_hours":"Mo-Fr 08:00 - 16:00","utc_offset":"-240","gplace_id":null,"gplace_url":"https://maps.google.com/?cid=9391700120363767860","dealerID":69744,"trusted":false,"image_id":"v1597283975/chrysler_RM.png","phone":"3045794955","cityStateSlug":"summersville.wv","slug":"Summersville.WV/northside+chrysler+jeep+dodge+ram+fiat","location":"38.304586,-80.831407","brandsList":["chrysler","dodge","jeep","ram","fiat"]},{"id":14277,"crm_id":67057678,"name":"Timbrook Chevrolet","dealerSlug":"timbrook+chevrolet","city_state_slug":"Keyser.WV","brand":"Chevrolet","website":"www.timbrookchevrolet.com","address":"276 New Creek Hwy","city":"Keyser","state":"WV","zip":26726,"latitude":39.4252676,"longitude":-78.995654,"phone_number_service":"8664618376","phone_number_main":"3042094360","service_hours":"Mo-Fr  08:00 - 17:00","utc_offset":"-240","gplace_id":null,"gplace_url":"https://maps.google.com/?cid=3288595238042270711","dealerID":69745,"trusted":false,"image_id":"v1597284079/chevy_ms.png","phone":"8664618376","cityStateSlug":"keyser.wv","slug":"Keyser.WV/timbrook+chevrolet","location":"39.4252676,-78.995654","brandsList":["chevrolet"]},{"id":14279,"crm_id":67057687,"name":"Timbrook Ford","dealerSlug":"timbrook+ford","city_state_slug":"Keyser.WV","brand":"Ford","website":"www.timbrookford.net","address":"968 New Creek Hwy","city":"Keyser","state":"WV","zip":26726,"latitude":39.4154737,"longitude":-79.0001908,"phone_number_service":"8772513219","phone_number_main":"3047887900","service_hours":"Mo-Fr 08:00 - 16:30","utc_offset":"-240","gplace_id":null,"gplace_url":"https://maps.google.com/?cid=12700369467581174574","dealerID":69747,"trusted":false,"image_id":"v1597283967/ford_RM.png","phone":"8772513219","cityStateSlug":"keyser.wv","slug":"Keyser.WV/timbrook+ford","location":"39.4154737,-79.0001908","brandsList":["ford"]},{"id":4278,"crm_id":67079746,"name":"Dutch Miller Chevrolet","dealerSlug":"dutch+miller+chevrolet","city_state_slug":"Huntington.WV","brand":"Chevrolet","website":"www.dutchmillerchevy.com/","address":"1100 WASHINGTON AVE","city":"Huntington","state":"WV","zip":25704,"latitude":38.4142417,"longitude":-82.4786913,"phone_number_service":"3044131329","phone_number_main":"3045292301","service_hours":"Mo-Fr 07:30 - 17:30","utc_offset":"-240","gplace_id":null,"gplace_url":"https://maps.google.com/?cid=12096630992896936827","dealerID":74862,"trusted":false,"image_id":"v1597284079/chevy_ms.png","phone":"3044131329","cityStateSlug":"huntington.wv","slug":"Huntington.WV/dutch+miller+chevrolet","location":"38.4142417,-82.4786913","brandsList":["chevrolet"]},{"id":13735,"crm_id":100815172,"name":"Straub Hyundai","dealerSlug":"straub+hyundai","city_state_slug":"Triadelphia.WV","brand":"Hyundai","website":"www.straubhyundai.com","address":"80 Straub Dr","city":"Triadelphia","state":"WV","zip":26059,"latitude":40.060307,"longitude":-80.591833,"phone_number_service":"8665134027","phone_number_main":"8882841127","service_hours":"Mo-Fr  08:00 - 18:00 | Sa 08:00 - 15:00","utc_offset":"-240","gplace_id":null,"gplace_url":"https://maps.google.com/?cid=16041047705443159561","dealerID":76544,"trusted":false,"image_id":"v1597283959/hyundai_RM.png","phone":"8665134027","cityStateSlug":"triadelphia.wv","slug":"Triadelphia.WV/straub+hyundai","location":"40.060307,-80.591833","brandsList":["hyundai"]},{"id":15321,"crm_id":100815250,"name":"Weimer Hyundai","dealerSlug":"weimer+hyundai","city_state_slug":"Morgantown.WV","brand":"Hyundai","website":"www.weimerhyundai.com","address":"401 Mary Jane Wood Circle","city":"Morgantown","state":"WV","zip":26501,"latitude":39.6398873,"longitude":-79.9970314,"phone_number_service":"8339130329","phone_number_main":"3046587800","service_hours":"Mo-Fr 08:00 - 17:00","utc_offset":"-240","gplace_id":null,"gplace_url":"https://maps.google.com/?cid=12423452063619034309","dealerID":76545,"trusted":false,"image_id":"v1597283959/hyundai_RM.png","phone":"8339130329","cityStateSlug":"morgantown.wv","slug":"Morgantown.WV/weimer+hyundai","location":"39.6398873,-79.9970314","brandsList":["hyundai"]},{"id":3173,"crm_id":105970588,"name":"Cole Subaru","dealerSlug":"cole+subaru","city_state_slug":"Bluefield.WV","brand":"Subaru","website":"www.colesubaru.com","address":"Rt 460 Suite 4","city":"Bluefield","state":"WV","zip":24701,"latitude":37.3242923,"longitude":-81.1350302,"phone_number_service":"8888470827","phone_number_main":"3049604282","service_hours":"Mo-Fr  08:00 - 18:00 | Sa 09:00 - 14:00","utc_offset":"-240","gplace_id":null,"gplace_url":"https://maps.google.com/?cid=10122288023980178513","dealerID":51836,"trusted":true,"image_id":"v1597283982/subaru_ms.png","phone":"8888470827","cityStateSlug":"bluefield.wv","slug":"Bluefield.WV/cole+subaru","location":"37.3242923,-81.1350302","brandsList":["subaru"]},{"id":7548,"crm_id":113520919,"name":"John Howerton Honda","dealerSlug":"john+howerton+honda","city_state_slug":"Beckley.WV","brand":"Honda","website":"www.howertonhonda.com","address":"252 Auto Plaza Dr","city":"Beckley","state":"WV","zip":25801,"latitude":37.807054,"longitude":-81.186199,"phone_number_service":"3042520744","phone_number_main":"3042520744","service_hours":"Mo-Fr 07:30-17:30 | Sa 08:00-13:00","utc_offset":"-240","gplace_id":null,"gplace_url":"https://maps.google.com/?cid=11342449852248902545","dealerID":76846,"trusted":false,"image_id":"v1597284047/honda_ms.png","phone":"3042520744","cityStateSlug":"beckley.wv","slug":"Beckley.WV/john+howerton+honda","location":"37.807054,-81.186199","brandsList":["honda"]},{"id":7308,"crm_id":115564232,"name":"Jenkins Subaru","dealerSlug":"jenkins+subaru","city_state_slug":"Bridgeport.WV","brand":"Subaru","website":"www.jenkinssubaruwv.com","address":"750 Lodgeville Rd","city":"Bridgeport","state":"WV","zip":26330,"latitude":39.2945358,"longitude":-80.2765554,"phone_number_service":"8887162571","phone_number_main":"3048486000","service_hours":"Mo-Fr 08:00 - 17:00 | Sa 08:00 - 15:00","utc_offset":"-240","gplace_id":null,"gplace_url":"https://maps.google.com/?cid=8179792056138019736","dealerID":77205,"trusted":false,"image_id":"v1597283982/subaru_ms.png","phone":"8887162571","cityStateSlug":"bridgeport.wv","slug":"Bridgeport.WV/jenkins+subaru","location":"39.2945358,-80.2765554","brandsList":["subaru"]}]