[{"id":16704,"crm_id":999,"name":"Jackson Hole Ford","dealerSlug":"jackson+hole+ford","city_state_slug":"Jackson.WY","brand":"Ford","website":"www.jacksonholeford.com","address":"670 W. Deer Drive","city":"Jackson","state":"WY","zip":83001,"latitude":43.424834,"longitude":-110.776512,"phone_number_service":"3072015499","phone_number_main":"","service_hours":"Mo-Fr 08:00 - 18:00 | Sa 10:00 - 16:00 | Su Closed","utc_offset":"","gplace_id":0,"gplace_url":"","dealerID":60094,"trusted":false,"image_id":"v1597283967/ford_RM.png","phone":"3072015499","cityStateSlug":"jackson.wy","slug":"Jackson.WY/jackson+hole+ford","location":"43.424834,-110.776512","brandsList":["ford"]},{"id":16705,"crm_id":999,"name":"Jackson Hole Ford","dealerSlug":"jackson+hole+ford","city_state_slug":"Alpine.WY","brand":"Ford","website":"","address":"84 Sunbeam Drive","city":"Alpine","state":"WY","zip":83001,"latitude":43.16952,"longitude":-111.01698,"phone_number_service":"3072015499","phone_number_main":"","service_hours":"","utc_offset":"","gplace_id":0,"gplace_url":"","dealerID":60095,"trusted":false,"image_id":"v1597283967/ford_RM.png","phone":"3072015499","cityStateSlug":"alpine.wy","slug":"Alpine.WY/jackson+hole+ford","location":"43.16952,-111.01698","brandsList":["ford"]},{"id":17753,"crm_id":999,"name":"Tyrrell Ford","dealerSlug":"tyrrell+ford","city_state_slug":"Laramie.WY","brand":"Ford","website":"www.tyrrellford.net","address":"3609 East Grand Avenue","city":"Laramie","state":"WY","zip":82070,"latitude":41.307149,"longitude":-105.549157,"phone_number_service":"3077457315","phone_number_main":"","service_hours":"Mo-Fr 08:30 - 19:00 | Sa 08:30 - 18:00 | Su Closed","utc_offset":"","gplace_id":0,"gplace_url":"","dealerID":60096,"trusted":false,"image_id":"v1597283967/ford_RM.png","phone":"3077457315","cityStateSlug":"laramie.wy","slug":"Laramie.WY/tyrrell+ford","location":"41.307149,-105.549157","brandsList":["ford"]},{"id":16463,"crm_id":999,"name":"Frontier Ford","dealerSlug":"frontier+ford","city_state_slug":"Diamondville.WY","brand":"Ford","website":"www.frontierfordinc.com","address":"12 Lincoln Street","city":"Diamondville","state":"WY","zip":83116,"latitude":41.772805,"longitude":-110.537892,"phone_number_service":"3078776966","phone_number_main":"","service_hours":"Mo-Fr 08:00 - 18:00 | Sa 08:00 - 14:00 | Su Closed","utc_offset":"","gplace_id":0,"gplace_url":"","dealerID":60098,"trusted":false,"image_id":"v1597283967/ford_RM.png","phone":"3078776966","cityStateSlug":"diamondville.wy","slug":"Diamondville.WY/frontier+ford","location":"41.772805,-110.537892","brandsList":["ford"]},{"id":16431,"crm_id":999,"name":"Foss Toyota","dealerSlug":"foss+toyota","city_state_slug":"Casper.WY","brand":"Toyota","website":"www.fosstoyota.com","address":"6280 E. 2nd Street","city":"Casper","state":"WY","zip":82609,"latitude":42.842358,"longitude":-106.232918,"phone_number_service":"7063352800","phone_number_main":"8335403787","service_hours":"Mo-Fr 08:00 - 18:00 | Sa 08:00 - 17:00","utc_offset":"","gplace_id":0,"gplace_url":"","dealerID":60211,"trusted":false,"image_id":"v1597284039/toyota_ms.png","phone":"7063352800","cityStateSlug":"casper.wy","slug":"Casper.WY/foss+toyota","location":"42.842358,-106.232918","brandsList":["toyota"]},{"id":17421,"crm_id":999,"name":"Rocky Mountain Yeti Evanston","dealerSlug":"rocky+mountain+yeti+evanston","city_state_slug":"Evanston.WY","brand":"Chrysler,Dodge,Jeep,RAM","website":"www.rockymountainyetievanston.com","address":"100 Wasatch Road","city":"Evanston","state":"WY","zip":82930,"latitude":41.264576,"longitude":-110.984124,"phone_number_service":"3077893151","phone_number_main":"","service_hours":"Mo-Fr 08:00 - 17:30 | Sa 08:00 - 14:00 | Su Closed","utc_offset":"","gplace_id":0,"gplace_url":"","dealerID":60393,"trusted":false,"image_id":"v1597283975/chrysler_RM.png","phone":"3077893151","cityStateSlug":"evanston.wy","slug":"Evanston.WY/rocky+mountain+yeti+evanston","location":"41.264576,-110.984124","brandsList":["chrysler","dodge","jeep","ram"]},{"id":17420,"crm_id":999,"name":"Rocky Mountain Yeti Afton","dealerSlug":"rocky+mountain+yeti+afton","city_state_slug":"Afton.WY","brand":"Chrysler,Dodge,Jeep,RAM","website":"www.rockymountainyetiafton.com","address":"1046 S. Washington Street","city":"Afton","state":"WY","zip":83110,"latitude":42.712584,"longitude":-110.934301,"phone_number_service":"3078855337","phone_number_main":"","service_hours":"Mo-Fr 10:00 - 18:00 | Sa 09:00 - 14:00 | Su Closed","utc_offset":"","gplace_id":0,"gplace_url":"","dealerID":60450,"trusted":false,"image_id":"v1597283975/chrysler_RM.png","phone":"3078855337","cityStateSlug":"afton.wy","slug":"Afton.WY/rocky+mountain+yeti+afton","location":"42.712584,-110.934301","brandsList":["chrysler","dodge","jeep","ram"]},{"id":17185,"crm_id":999,"name":"Nissan Of Casper","dealerSlug":"nissan+of+casper","city_state_slug":"Casper.WY","brand":"Nissan","website":"www.nissanofcasper.com","address":"111 SE WYOMING BLVD","city":"Casper","state":"WY","zip":82609,"latitude":42.8501225,"longitude":-106.2717361,"phone_number_service":"3074625260","phone_number_main":"","service_hours":"Mo-Sa 09:00 - 19:00\n | Su Closed","utc_offset":"","gplace_id":0,"gplace_url":"","dealerID":60496,"trusted":false,"image_id":"v1597283926/nissan_RM.png","phone":"3074625260","cityStateSlug":"casper.wy","slug":"Casper.WY/nissan+of+casper","location":"42.8501225,-106.2717361","brandsList":["nissan"]},{"id":16214,"crm_id":999,"name":"Cowboy Dodge Chrysler Jeep RAM","dealerSlug":"cowboy+dodge+chrysler+jeep+ram","city_state_slug":"Cheyenne.WY","brand":"Chrysler,Dodge,Jeep,RAM","website":"www.cowboychryslerdodgejeep.com","address":"1121 E Lincolnway","city":"Cheyenne","state":"WY","zip":72031,"latitude":41.135867,"longitude":-104.800313,"phone_number_service":"3076345887","phone_number_main":"","service_hours":"Mo-Sa 09:00 - 18:00 | Su Closed","utc_offset":"","gplace_id":0,"gplace_url":"","dealerID":60507,"trusted":false,"image_id":"v1597283975/chrysler_RM.png","phone":"3076345887","cityStateSlug":"cheyenne.wy","slug":"Cheyenne.WY/cowboy+dodge+chrysler+jeep+ram","location":"41.135867,-104.800313","brandsList":["chrysler","dodge","jeep","ram"]},{"id":16781,"crm_id":999,"name":"Johnson Auto of Laramie","dealerSlug":"johnson+auto+of+laramie","city_state_slug":"Laramie.WY","brand":"Chrysler,Dodge,Jeep,RAM","website":"www.johnsonautolaramie.com","address":"1565 N Pierce St","city":"Laramie","state":"WY","zip":82070,"latitude":41.32849,"longitude":-105.620084,"phone_number_service":"3074603990","phone_number_main":"","service_hours":"Mo-Fr 08:30 - 18:00 | Sa 09:00 - 17:00 | Su Closed","utc_offset":"","gplace_id":0,"gplace_url":"","dealerID":60690,"trusted":false,"image_id":"v1597283975/chrysler_RM.png","phone":"3074603990","cityStateSlug":"laramie.wy","slug":"Laramie.WY/johnson+auto+of+laramie","location":"41.32849,-105.620084","brandsList":["chrysler","dodge","jeep","ram"]},{"id":16243,"crm_id":999,"name":"Dallin Motors","dealerSlug":"dallin+motors","city_state_slug":"Rawlins.WY","brand":"Chrysler,Dodge,Jeep,RAM","website":"","address":"823 E Cedar St","city":"Rawlins","state":"WY","zip":82301,"latitude":41.790181,"longitude":-107.228179,"phone_number_service":"3073244525","phone_number_main":"","service_hours":"Mo-Fr 09:00 - 18:00 | Sa 09:30 - 16:00 | Su Closed","utc_offset":"","gplace_id":0,"gplace_url":"","dealerID":61617,"trusted":false,"image_id":"v1597283975/chrysler_RM.png","phone":"3073244525","cityStateSlug":"rawlins.wy","slug":"Rawlins.WY/dallin+motors","location":"41.790181,-107.228179","brandsList":["chrysler","dodge","jeep","ram"]},{"id":2181,"crm_id":66774832,"name":"Brower Brothers Nissan","dealerSlug":"brower+brothers+nissan","city_state_slug":"Rock-Springs.WY","brand":"Nissan","website":"www.browerbrothersnissan.com","address":"1525 Dewar Dr","city":"Rock Springs","state":"WY","zip":82901,"latitude":41.5736086,"longitude":-109.2412709,"phone_number_service":"3073829515","phone_number_main":"3073829515","service_hours":"Mo-Fr 08:00 - 17:30","utc_offset":"-360","gplace_id":null,"gplace_url":"https://maps.google.com/?cid=13059199868943055350","dealerID":62718,"trusted":false,"image_id":"v1597283926/nissan_RM.png","phone":"3073829515","cityStateSlug":"rock-springs.wy","slug":"Rock-Springs.WY/brower+brothers+nissan","location":"41.5736086,-109.2412709","brandsList":["nissan"]},{"id":14704,"crm_id":67034452,"name":"Tyrrell Honda","dealerSlug":"tyrrell+honda","city_state_slug":"Cheyenne.WY","brand":"Honda","website":"www.tyrrellhonda.com","address":"1919 Westland Rd","city":"Cheyenne","state":"WY","zip":82001,"latitude":41.1277003,"longitude":-104.8390086,"phone_number_service":"3072060086","phone_number_main":"3076341924","service_hours":"Mo-Fr 07:30 - 18:00 | Sa 08:30 - 14:00","utc_offset":"-360","gplace_id":null,"gplace_url":"https://maps.google.com/?cid=9345760073043643088","dealerID":63437,"trusted":false,"image_id":"v1597284047/honda_ms.png","phone":"3072060086","cityStateSlug":"cheyenne.wy","slug":"Cheyenne.WY/tyrrell+honda","location":"41.1277003,-104.8390086","brandsList":["honda"]},{"id":8406,"crm_id":67036066,"name":"Laramie Peak Motors","dealerSlug":"laramie+peak+motors","city_state_slug":"Wheatland.WY","brand":"Ford","website":"www.laramiepeakmotors.com","address":"2305 North 16th Street","city":"Wheatland","state":"WY","zip":82201,"latitude":42.0697184,"longitude":-104.9641474,"phone_number_service":"8558723601","phone_number_main":"8005642355","service_hours":"Mo-Fr 07:30 - 17:30 | Sa 08:00 - 14:00","utc_offset":"-360","gplace_id":null,"gplace_url":"https://maps.google.com/?cid=1538635862606547810","dealerID":63876,"trusted":false,"image_id":"v1597283967/ford_RM.png","phone":"8558723601","cityStateSlug":"wheatland.wy","slug":"Wheatland.WY/laramie+peak+motors","location":"42.0697184,-104.9641474","brandsList":["ford"]},{"id":15467,"crm_id":67039414,"name":"White's Mountain Subaru","dealerSlug":"whites+mountain+subaru","city_state_slug":"Casper.WY","brand":"Subaru","website":"www.whitesmountainsubaru.com","address":"2400 E Yellowstone Hwy","city":"Casper","state":"WY","zip":82609,"latitude":42.8556017,"longitude":-106.2934764,"phone_number_service":"8666458561","phone_number_main":"8887832460","service_hours":"Mo-Fr  08:00 - 16:00","utc_offset":"-360","gplace_id":null,"gplace_url":"https://maps.google.com/?cid=724040547346837798","dealerID":64803,"trusted":false,"image_id":"v1597283982/subaru_ms.png","phone":"8666458561","cityStateSlug":"casper.wy","slug":"Casper.WY/whites+mountain+subaru","location":"42.8556017,-106.2934764","brandsList":["subaru"]},{"id":5214,"crm_id":67043089,"name":"Fremont Ford Sheridan","dealerSlug":"fremont+ford+sheridan","city_state_slug":"Sheridan.WY","brand":"Ford,Lincoln","website":"www.fremontmotorsheridan.com","address":"1658 Coffeen Ave","city":"Sheridan","state":"WY","zip":82801,"latitude":44.7798973,"longitude":-106.9437964,"phone_number_service":"3072062941","phone_number_main":"3076834070","service_hours":"Mo-Fr 07:30 - 17:30 | Sa 08:00 -15:00","utc_offset":"-360","gplace_id":null,"gplace_url":"https://maps.google.com/?cid=15508476754861706496","dealerID":65789,"trusted":false,"image_id":"v1597283967/ford_RM.png","phone":"3072062941","cityStateSlug":"sheridan.wy","slug":"Sheridan.WY/fremont+ford+sheridan","location":"44.7798973,-106.9437964","brandsList":["ford","lincoln"]},{"id":15444,"crm_id":67043152,"name":"Whisler Chevrolet Cadillac","dealerSlug":"whisler+chevrolet+cadillac","city_state_slug":"Rock-Springs.WY","brand":"Cadillac,Chevrolet","website":"www.whislerchevy.com","address":"2200 Foothill Blvd","city":"Rock Springs","state":"WY","zip":82901,"latitude":41.577779,"longitude":-109.264279,"phone_number_service":"3073625677","phone_number_main":"3072128247","service_hours":"Mo-Fr 08:00 - 18:00 | Sa 09:00 - 17:00","utc_offset":"-360","gplace_id":null,"gplace_url":"https://maps.google.com/?cid=10435063628814886379","dealerID":65808,"trusted":false,"image_id":"v1597283980/cadillac.png","phone":"3073625677","cityStateSlug":"rock-springs.wy","slug":"Rock-Springs.WY/whisler+chevrolet+cadillac","location":"41.577779,-109.264279","brandsList":["cadillac","chevrolet"]},{"id":6030,"crm_id":67043377,"name":"Halladay Subaru","dealerSlug":"halladay+subaru","city_state_slug":"Cheyenne.WY","brand":"Subaru","website":"www.halladaysubaru.com","address":"1615 Westland Rd","city":"Cheyenne","state":"WY","zip":82001,"latitude":41.124324,"longitude":-104.838359,"phone_number_service":"8883552694","phone_number_main":"8886310208","service_hours":"Mo-Fr 07:00 - 18:00 | Sa 08:00 - 16:00","utc_offset":"-360","gplace_id":null,"gplace_url":"https://maps.google.com/?cid=2666702984680153062","dealerID":65869,"trusted":false,"image_id":"v1597283982/subaru_ms.png","phone":"8883552694","cityStateSlug":"cheyenne.wy","slug":"Cheyenne.WY/halladay+subaru","location":"41.124324,-104.838359","brandsList":["subaru"]},{"id":5203,"crm_id":67045291,"name":"Fremont CDJR Cody","dealerSlug":"fremont+cdjr+cody","city_state_slug":"Cody.WY","brand":"Chrysler,Dodge,Jeep,RAM","website":"www.fremontchryslerdodgejeepcody.com","address":"3127 Big Horn Ave","city":"Cody","state":"WY","zip":82414,"latitude":44.534208,"longitude":-109.027235,"phone_number_service":"3072064593","phone_number_main":"3072064599","service_hours":"Mo-Fr 07:30 - 17:30 |Sa 07:30 - 14:00","utc_offset":"-360","gplace_id":null,"gplace_url":"https://maps.google.com/?cid=3161265013054887952","dealerID":66389,"trusted":false,"image_id":"v1597283975/chrysler_RM.png","phone":"3072064593","cityStateSlug":"cody.wy","slug":"Cody.WY/fremont+cdjr+cody","location":"44.534208,-109.027235","brandsList":["chrysler","dodge","jeep","ram"]},{"id":5210,"crm_id":67045297,"name":"Fremont Ford Cody","dealerSlug":"fremont+ford+cody","city_state_slug":"Cody.WY","brand":"Ford","website":"www.fremontfordcody.com","address":"3127 Big Horn Ave","city":"Cody","state":"WY","zip":82414,"latitude":44.534208,"longitude":-109.027235,"phone_number_service":"3072062988","phone_number_main":"3075876206","service_hours":"Mo-Fr 07:30 - 17:30 | Sa 07:30 -14:00","utc_offset":"-360","gplace_id":null,"gplace_url":"https://maps.google.com/?cid=6347767870481778771","dealerID":66391,"trusted":false,"image_id":"v1597283967/ford_RM.png","phone":"3072062988","cityStateSlug":"cody.wy","slug":"Cody.WY/fremont+ford+cody","location":"44.534208,-109.027235","brandsList":["ford"]},{"id":6589,"crm_id":67047157,"name":"Honda of Casper","dealerSlug":"honda+of+casper","city_state_slug":"Casper.WY","brand":"Honda","website":"www.hondaofcasper.com","address":"3801 CY AVE.","city":"Casper","state":"WY","zip":82604,"latitude":42.8222618,"longitude":-106.3658981,"phone_number_service":"3075779333","phone_number_main":"3075779333","service_hours":"Mo-Fr 07:30 - 18:00 | Sa 07:30 - 15:00","utc_offset":"-360","gplace_id":null,"gplace_url":"https://maps.google.com/?cid=725517271484429798","dealerID":66871,"trusted":false,"image_id":"v1597284047/honda_ms.png","phone":"3075779333","cityStateSlug":"casper.wy","slug":"Casper.WY/honda+of+casper","location":"42.8222618,-106.3658981","brandsList":["honda"]},{"id":14489,"crm_id":67047232,"name":"Toyota of Laramie","dealerSlug":"toyota+of+laramie","city_state_slug":"Laramie.WY","brand":"Toyota","website":"www.toyotaoflaramie.com","address":"2310 Grand Ave","city":"Laramie","state":"WY","zip":82070,"latitude":41.309083,"longitude":-105.562938,"phone_number_service":"3077427423","phone_number_main":"3077427423","service_hours":"Mo-Fr 07:30 - 17:30 | Sa 07:30-17:00","utc_offset":"-360","gplace_id":null,"gplace_url":"https://maps.google.com/?cid=5187700678845997674","dealerID":66891,"trusted":false,"image_id":"v1597284039/toyota_ms.png","phone":"3077427423","cityStateSlug":"laramie.wy","slug":"Laramie.WY/toyota+of+laramie","location":"41.309083,-105.562938","brandsList":["toyota"]},{"id":15461,"crm_id":67047700,"name":"White's Energy Motors","dealerSlug":"whites+energy+motors","city_state_slug":"Gillette.WY","brand":"Chrysler,Dodge,Jeep,RAM","website":"www.whitesenergymotors.net","address":"203 Motor Ct","city":"Gillette","state":"WY","zip":82718,"latitude":44.2922539,"longitude":-105.535061,"phone_number_service":"8443665221","phone_number_main":"3076870499","service_hours":"Mo-Fr 07:00 - 18:00","utc_offset":"-360","gplace_id":null,"gplace_url":"https://maps.google.com/?cid=5423154434786122725","dealerID":67023,"trusted":false,"image_id":"v1597283975/chrysler_RM.png","phone":"8443665221","cityStateSlug":"gillette.wy","slug":"Gillette.WY/whites+energy+motors","location":"44.2922539,-105.535061","brandsList":["chrysler","dodge","jeep","ram"]},{"id":8405,"crm_id":67048531,"name":"Laramie GM Auto Center","dealerSlug":"laramie+gm+auto+center","city_state_slug":"Laramie.WY","brand":"Buick,Chevrolet,GMC","website":"www.laramiegm.com","address":"3600 E Grand Ave","city":"Laramie","state":"WY","zip":82070,"latitude":41.3068107,"longitude":-105.5502332,"phone_number_service":"3074141879","phone_number_main":"3077458961","service_hours":"Mo-Fr 07:30 - 20:00 | Sa 08:00 - 17:00","utc_offset":"-360","gplace_id":null,"gplace_url":"https://maps.google.com/?cid=1825628141552261221","dealerID":67242,"trusted":false,"image_id":"v1597283981/buick_RM.png","phone":"3074141879","cityStateSlug":"laramie.wy","slug":"Laramie.WY/laramie+gm+auto+center","location":"41.3068107,-105.5502332","brandsList":["buick","chevrolet","gmc"]},{"id":14148,"crm_id":67050247,"name":"Teton Motors","dealerSlug":"teton+motors","city_state_slug":"Jackson-Hole.WY","brand":"Chevrolet","website":"www.tetonmotorsgm.com/","address":"1020 W Broadway","city":"Jackson Hole","state":"WY","zip":83001,"latitude":43.4731546,"longitude":-110.7881518,"phone_number_service":"3072004698","phone_number_main":"3072406984","service_hours":"Mo-Fr 07:30 - 18:00","utc_offset":"-360","gplace_id":null,"gplace_url":"https://maps.google.com/?cid=312798350422114789","dealerID":67719,"trusted":false,"image_id":"v1597284079/chevy_ms.png","phone":"3072004698","cityStateSlug":"jackson-hole.wy","slug":"Jackson-Hole.WY/teton+motors","location":"43.4731546,-110.7881518","brandsList":["chevrolet"]},{"id":7914,"crm_id":67052593,"name":"Kia of Cheyenne","dealerSlug":"kia+of+cheyenne","city_state_slug":"Cheyenne.WY","brand":"Kia","website":"www.kiaofcheyenne.com","address":"2999 E Nationway","city":"Cheyenne","state":"WY","zip":82001,"latitude":41.1317517,"longitude":-104.7803021,"phone_number_service":"8772934094","phone_number_main":"8772687271","service_hours":"Mo-Fr 07:30 - 18:00","utc_offset":"-360","gplace_id":null,"gplace_url":"https://maps.google.com/?cid=6602529278154391856","dealerID":68358,"trusted":false,"image_id":"v1597283948/kia_RM.png","phone":"8772934094","cityStateSlug":"cheyenne.wy","slug":"Cheyenne.WY/kia+of+cheyenne","location":"41.1317517,-104.7803021","brandsList":["kia"]},{"id":14598,"crm_id":67052617,"name":"Transwest Ford","dealerSlug":"transwest+ford","city_state_slug":"Torrington.WY","brand":"Ford","website":"www.transwestfordtorrington.com","address":"1209 E M St","city":"Torrington","state":"WY","zip":82240,"latitude":42.0566747,"longitude":-104.1677126,"phone_number_service":"8884610331","phone_number_main":"3075322114","service_hours":"Mo-Fr 07:30 - 17:30 | Sa 08:00-12:00","utc_offset":"-360","gplace_id":null,"gplace_url":"https://maps.google.com/?cid=3336417541054000369","dealerID":68366,"trusted":false,"image_id":"v1597283967/ford_RM.png","phone":"8884610331","cityStateSlug":"torrington.wy","slug":"Torrington.WY/transwest+ford","location":"42.0566747,-104.1677126","brandsList":["ford"]},{"id":14149,"crm_id":67055137,"name":"Teton Motors Subaru","dealerSlug":"teton+motors+subaru","city_state_slug":"Jackson.WY","brand":"Subaru","website":"www.tetonmotorssubaru.com","address":"405 Powderhorn Ln","city":"Jackson","state":"WY","zip":83001,"latitude":43.4709472,"longitude":-110.7868083,"phone_number_service":"8772098106","phone_number_main":"3072406984","service_hours":"Mo-Fr 07:30 - 18:00","utc_offset":"-360","gplace_id":null,"gplace_url":"https://maps.google.com/?cid=312798350422114789","dealerID":69062,"trusted":false,"image_id":"v1597283982/subaru_ms.png","phone":"8772098106","cityStateSlug":"jackson.wy","slug":"Jackson.WY/teton+motors+subaru","location":"43.4709472,-110.7868083","brandsList":["subaru"]},{"id":13496,"crm_id":67055680,"name":"Spradley Barr Toyota","dealerSlug":"spradley+barr+toyota","city_state_slug":"Cheyenne.WY","brand":"Toyota","website":"www.spradleybarrtoyota.com/","address":"2300 Westland Road","city":"Cheyenne","state":"WY","zip":82001,"latitude":41.131936,"longitude":-104.8417893,"phone_number_service":"3076383335","phone_number_main":"3076383335","service_hours":"Mo-Fr 07:00 - 18:00 | Sa 08:00 - 16:00","utc_offset":"-360","gplace_id":null,"gplace_url":"https://maps.google.com/?cid=18390974571642288614","dealerID":69211,"trusted":false,"image_id":"v1597284039/toyota_ms.png","phone":"3076383335","cityStateSlug":"cheyenne.wy","slug":"Cheyenne.WY/spradley+barr+toyota","location":"41.131936,-104.8417893","brandsList":["toyota"]},{"id":14703,"crm_id":67055914,"name":"Tyrrell Chevrolet Company","dealerSlug":"tyrrell+chevrolet+company","city_state_slug":"Cheyenne.WY","brand":"Chevrolet","website":"www.tyrrellchevrolet.com","address":"2142 W Lincolnway","city":"Cheyenne","state":"WY","zip":82001,"latitude":41.1237666,"longitude":-104.8400391,"phone_number_service":"3076342540","phone_number_main":"3076342540","service_hours":"Mo-Fr 07:00 - 18:00 | Sa 08:00 - 14:00","utc_offset":"-360","gplace_id":null,"gplace_url":"https://maps.google.com/?cid=6978847142976741295","dealerID":69278,"trusted":false,"image_id":"v1597284079/chevy_ms.png","phone":"3076342540","cityStateSlug":"cheyenne.wy","slug":"Cheyenne.WY/tyrrell+chevrolet+company","location":"41.1237666,-104.8400391","brandsList":["chevrolet"]},{"id":15704,"crm_id":67055968,"name":"Yellowstone Toyota","dealerSlug":"yellowstone+toyota","city_state_slug":"Powell.WY","brand":"Toyota","website":"www.yellowstonetoyota.com","address":"1105 W Coulter Ave","city":"Powell","state":"WY","zip":82435,"latitude":44.7471194,"longitude":-108.7743991,"phone_number_service":"3076207250","phone_number_main":"3077545743","service_hours":"Mo-Fr 08:00 - 17:30","utc_offset":"-360","gplace_id":null,"gplace_url":"https://maps.google.com/?cid=10844165224850175062","dealerID":69288,"trusted":false,"image_id":"v1597284039/toyota_ms.png","phone":"3076207250","cityStateSlug":"powell.wy","slug":"Powell.WY/yellowstone+toyota","location":"44.7471194,-108.7743991","brandsList":["toyota"]},{"id":5859,"crm_id":67056760,"name":"Greiner Ford of Casper","dealerSlug":"greiner+ford+of+casper","city_state_slug":"Casper.WY","brand":"Ford","website":"www.greinerford.com","address":"3333 CY Ave","city":"Casper","state":"WY","zip":82604,"latitude":42.825062,"longitude":-106.361084,"phone_number_service":"3078777512","phone_number_main":"3074624090","service_hours":"Mo-Fr 07:00 - 18:00 | Sa 08:00 - 17:00","utc_offset":"-360","gplace_id":null,"gplace_url":"https://maps.google.com/?cid=16376759223966118115","dealerID":69500,"trusted":false,"image_id":"v1597283967/ford_RM.png","phone":"3078777512","cityStateSlug":"casper.wy","slug":"Casper.WY/greiner+ford+of+casper","location":"42.825062,-106.361084","brandsList":["ford"]},{"id":15464,"crm_id":67057255,"name":"White's Frontier Motors","dealerSlug":"whites+frontier+motors","city_state_slug":"Gillette.WY","brand":"Buick,Chevrolet,GMC","website":"www.whitesfrontier.com","address":"444 Skyline Dr","city":"Gillette","state":"WY","zip":82718,"latitude":44.290451,"longitude":-105.5338745,"phone_number_service":"3072576807","phone_number_main":"3072576024","service_hours":"Mo-Fr 07:00 - 18:00","utc_offset":"-360","gplace_id":null,"gplace_url":"https://maps.google.com/?cid=1627213983252842738","dealerID":69635,"trusted":false,"image_id":"v1597283981/buick_RM.png","phone":"3072576807","cityStateSlug":"gillette.wy","slug":"Gillette.WY/whites+frontier+motors","location":"44.290451,-105.5338745","brandsList":["buick","chevrolet","gmc"]},{"id":6028,"crm_id":67059253,"name":"Halladay Buick GMC","dealerSlug":"halladay+buick+gmc","city_state_slug":"Cheyenne.WY","brand":"Buick,GMC","website":"www.halladaybuickgmc.com/HoursAndDirections","address":"2100 Westland Rd","city":"Cheyenne","state":"WY","zip":82001,"latitude":41.1296676,"longitude":-104.8408104,"phone_number_service":"8883755829","phone_number_main":"3076341511","service_hours":"Mo-Fr 07:00 - 18:00 | Sa 08:00 - 16:00","utc_offset":"-360","gplace_id":null,"gplace_url":"https://maps.google.com/?cid=3143881252818372793","dealerID":70194,"trusted":false,"image_id":"v1597283981/buick_RM.png","phone":"8883755829","cityStateSlug":"cheyenne.wy","slug":"Cheyenne.WY/halladay+buick+gmc","location":"41.1296676,-104.8408104","brandsList":["buick","gmc"]},{"id":14241,"crm_id":67060855,"name":"Thunder Basin Ford","dealerSlug":"thunder+basin+ford","city_state_slug":"Gillette.WY","brand":"Ford","website":"www.thunderbasinford.net","address":"1100 W 2nd St","city":"Gillette","state":"WY","zip":82716,"latitude":44.293949,"longitude":-105.5181392,"phone_number_service":"8884350570","phone_number_main":"3076824735","service_hours":"Mo-Fr 07:00 - 17:30 | Sa 07:30 - 12:00","utc_offset":"-360","gplace_id":null,"gplace_url":"https://maps.google.com/?cid=1114863170561125980","dealerID":70632,"trusted":false,"image_id":"v1597283967/ford_RM.png","phone":"8884350570","cityStateSlug":"gillette.wy","slug":"Gillette.WY/thunder+basin+ford","location":"44.293949,-105.5181392","brandsList":["ford"]},{"id":12460,"crm_id":67061044,"name":"Rock Springs Honda Toyota","dealerSlug":"rock+springs+honda+toyota","city_state_slug":"Rock-Springs.WY","brand":"Toyota","website":"www.rockspringshondatoyota.com","address":"401 N Center St","city":"Rock Springs","state":"WY","zip":82901,"latitude":41.590351,"longitude":-109.225226,"phone_number_service":"3073625015","phone_number_main":"3073625015","service_hours":"Mo-Fr  08:00 - 17:00","utc_offset":"-360","gplace_id":null,"gplace_url":"https://maps.google.com/?cid=11224329365734273683","dealerID":70688,"trusted":false,"image_id":"v1597284039/toyota_ms.png","phone":"3073625015","cityStateSlug":"rock-springs.wy","slug":"Rock-Springs.WY/rock+springs+honda+toyota","location":"41.590351,-109.225226","brandsList":["toyota"]},{"id":6029,"crm_id":67076815,"name":"Halladay Nissan","dealerSlug":"halladay+nissan","city_state_slug":"Cheyenne.WY","brand":"Nissan","website":"www.halladaynissan.com","address":"1880 Westland Rd","city":"Cheyenne","state":"WY","zip":82001,"latitude":41.1270184,"longitude":-104.8407648,"phone_number_service":"8887028315","phone_number_main":"3076341511","service_hours":"Mo-Fr 07:00 - 18:00 | Sa 08:00 - 16:00","utc_offset":"-360","gplace_id":null,"gplace_url":"https://maps.google.com/?cid=2654820445411096776","dealerID":74128,"trusted":false,"image_id":"v1597283926/nissan_RM.png","phone":"8887028315","cityStateSlug":"cheyenne.wy","slug":"Cheyenne.WY/halladay+nissan","location":"41.1270184,-104.8407648","brandsList":["nissan"]},{"id":1910,"crm_id":67076821,"name":"Bob Ruwart Chevrolet","dealerSlug":"bob+ruwart+chevrolet","city_state_slug":"Wheatland.WY","brand":"Chevrolet","website":"www.bobruwartmotors.net","address":"2105 16th St","city":"Wheatland","state":"WY","zip":82201,"latitude":42.0682086,"longitude":-104.9641665,"phone_number_service":"8006182452","phone_number_main":"3072690091","service_hours":"Mo-Fr 07:30 - 17:30 | Sa 08:00 - 17:00","utc_offset":"-360","gplace_id":null,"gplace_url":"https://maps.google.com/?cid=11917338426140130084","dealerID":74129,"trusted":false,"image_id":"v1597284079/chevy_ms.png","phone":"8006182452","cityStateSlug":"wheatland.wy","slug":"Wheatland.WY/bob+ruwart+chevrolet","location":"42.0682086,-104.9641665","brandsList":["chevrolet"]},{"id":13265,"crm_id":67076824,"name":"Skyline Motors","dealerSlug":"skyline+motors","city_state_slug":"Rawlins.WY","brand":"Buick,Chevrolet,GMC","website":"www.skylinemotorswy.com","address":"911 E Cedar St","city":"Rawlins","state":"WY","zip":82301,"latitude":41.7910427,"longitude":-107.2267474,"phone_number_service":"8666406529","phone_number_main":"3074170249","service_hours":"Mo-Fr 07:00 - 17:30","utc_offset":"-360","gplace_id":null,"gplace_url":"https://maps.google.com/?cid=2647503590897703610","dealerID":74130,"trusted":false,"image_id":"v1597283981/buick_RM.png","phone":"8666406529","cityStateSlug":"rawlins.wy","slug":"Rawlins.WY/skyline+motors","location":"41.7910427,-107.2267474","brandsList":["buick","chevrolet","gmc"]},{"id":5206,"crm_id":67076833,"name":"Fremont Chevrolet Buick GMC","dealerSlug":"fremont+chevrolet+buick+gmc","city_state_slug":"Riverton.WY","brand":"Buick,Chevrolet,GMC","website":"www.fremontchevybuickgmcriverton.com","address":"1401 N Federal Blvd","city":"Riverton","state":"WY","zip":82501,"latitude":43.0387399,"longitude":-108.3794775,"phone_number_service":"3072062239","phone_number_main":"3072403110","service_hours":"Mo-Fr 07:30 - 17:30 | Sa 09:00-17:00","utc_offset":"-360","gplace_id":null,"gplace_url":"https://maps.google.com/?cid=8617340966837560505","dealerID":74131,"trusted":false,"image_id":"v1597283981/buick_RM.png","phone":"3072062239","cityStateSlug":"riverton.wy","slug":"Riverton.WY/fremont+chevrolet+buick+gmc","location":"43.0387399,-108.3794775","brandsList":["buick","chevrolet","gmc"]},{"id":5212,"crm_id":67076836,"name":"Fremont Ford Riverton","dealerSlug":"fremont+ford+riverton","city_state_slug":"Riverton.WY","brand":"Ford,Lincoln","website":"www.fremontfordriverton.com","address":"1601 N Federal Blvd","city":"Riverton","state":"WY","zip":82501,"latitude":43.0407333,"longitude":-108.3792806,"phone_number_service":"3072062788","phone_number_main":"3072403119","service_hours":"Mo-Fr 07:30 - 17:30 | Sa 09:00 -13:00","utc_offset":"-360","gplace_id":null,"gplace_url":"https://maps.google.com/?cid=2377158748104666528","dealerID":74132,"trusted":false,"image_id":"v1597283967/ford_RM.png","phone":"3072062788","cityStateSlug":"riverton.wy","slug":"Riverton.WY/fremont+ford+riverton","location":"43.0407333,-108.3792806","brandsList":["ford","lincoln"]},{"id":5219,"crm_id":67076839,"name":"Fremont Toyota Lander","dealerSlug":"fremont+toyota+lander","city_state_slug":"Lander.WY","brand":"Toyota","website":"www.fremonttoyotalander.com","address":"103 Fremont Way","city":"Lander","state":"WY","zip":82520,"latitude":42.844051,"longitude":-108.748633,"phone_number_service":"3072065455","phone_number_main":"3073353106","service_hours":"Mo-Fr 07:30 - 17:30","utc_offset":"-360","gplace_id":null,"gplace_url":"https://maps.google.com/?cid=3762618416021157288","dealerID":74133,"trusted":false,"image_id":"v1597284039/toyota_ms.png","phone":"3072065455","cityStateSlug":"lander.wy","slug":"Lander.WY/fremont+toyota+lander","location":"42.844051,-108.748633","brandsList":["toyota"]},{"id":5211,"crm_id":67076848,"name":"Fremont Ford Lander","dealerSlug":"fremont+ford+lander","city_state_slug":"Lander.WY","brand":"Ford","website":"www.fremontfordlander.com","address":"1731 W Main St","city":"Lander","state":"WY","zip":82520,"latitude":42.84509,"longitude":-108.7490647,"phone_number_service":"3072064730","phone_number_main":"3073353359","service_hours":"Mo-Fr 07:30 - 17:30 | Sa 09:00-15:00","utc_offset":"-360","gplace_id":null,"gplace_url":"https://maps.google.com/?cid=18110119054276451827","dealerID":74134,"trusted":false,"image_id":"v1597283967/ford_RM.png","phone":"3072064730","cityStateSlug":"lander.wy","slug":"Lander.WY/fremont+ford+lander","location":"42.84509,-108.7490647","brandsList":["ford"]},{"id":15466,"crm_id":67076851,"name":"White's Mountain Motors","dealerSlug":"whites+mountain+motors","city_state_slug":"Casper.WY","brand":"Chevrolet","website":"www.whitesmountainchevy.com","address":"2400 E Yellowstone Hwy","city":"Casper","state":"WY","zip":82609,"latitude":42.8552412,"longitude":-106.2938732,"phone_number_service":"3074620090","phone_number_main":"3072372438","service_hours":"Mo-Fr 07:30 - 18:00","utc_offset":"-360","gplace_id":null,"gplace_url":"https://maps.google.com/?cid=17252038363122656776","dealerID":74135,"trusted":false,"image_id":"v1597284079/chevy_ms.png","phone":"3074620090","cityStateSlug":"casper.wy","slug":"Casper.WY/whites+mountain+motors","location":"42.8552412,-106.2938732","brandsList":["chevrolet"]},{"id":5221,"crm_id":67076854,"name":"Fremont Volkswagen Casper","dealerSlug":"fremont+volkswagen+casper","city_state_slug":"Casper.WY","brand":"Volkswagen","website":"www.fremontvwcasper.com","address":"6001 E 2nd","city":"Casper","state":"WY","zip":82609,"latitude":42.8422568,"longitude":-106.2366777,"phone_number_service":"3072062694","phone_number_main":"3074625509","service_hours":"Mo-Fr 07:30 - 17:30 | Sa 09:00 - 15:00","utc_offset":"-360","gplace_id":null,"gplace_url":"https://maps.google.com/?cid=13418096101635424246","dealerID":74136,"trusted":false,"image_id":"v1597283902/volkswagen.png","phone":"3072062694","cityStateSlug":"casper.wy","slug":"Casper.WY/fremont+volkswagen+casper","location":"42.8422568,-106.2366777","brandsList":["volkswagen"]},{"id":2654,"crm_id":67076860,"name":"Casper Buick GMC Cadillac","dealerSlug":"casper+buick+gmc+cadillac","city_state_slug":"Casper.WY","brand":"Buick,Cadillac,GMC","website":"www.caspergm.com","address":"6301 E 2nd St","city":"Casper","state":"WY","zip":82609,"latitude":42.8406592,"longitude":-106.2341741,"phone_number_service":"3072244355","phone_number_main":"3075777252","service_hours":"Mo-Fr 07:00 - 18:00","utc_offset":"-360","gplace_id":null,"gplace_url":"https://maps.google.com/?cid=17175685456856790548","dealerID":74137,"trusted":false,"image_id":"v1597283981/buick_RM.png","phone":"3072244355","cityStateSlug":"casper.wy","slug":"Casper.WY/casper+buick+gmc+cadillac","location":"42.8406592,-106.2341741","brandsList":["buick","cadillac","gmc"]},{"id":10656,"crm_id":67076863,"name":"Newcastle Motors","dealerSlug":"newcastle+motors","city_state_slug":"New-Castle.WY","brand":"Buick,Chevrolet","website":"www.newcastlechevy.net","address":"2880 W Main St","city":"New Castle","state":"WY","zip":82701,"latitude":43.8503235,"longitude":-104.237682,"phone_number_service":"8776379496","phone_number_main":"3077464475","service_hours":"Mo-Fr 08:00 - 17:00","utc_offset":"-360","gplace_id":null,"gplace_url":"https://maps.google.com/?cid=1776089290889952858","dealerID":74138,"trusted":false,"image_id":"v1597283981/buick_RM.png","phone":"8776379496","cityStateSlug":"new-castle.wy","slug":"New-Castle.WY/newcastle+motors","location":"43.8503235,-104.237682","brandsList":["buick","chevrolet"]},{"id":6052,"crm_id":67076866,"name":"Hammer Chevrolet","dealerSlug":"hammer+chevrolet","city_state_slug":"Sheridan.WY","brand":"Chevrolet","website":"www.hammerchevy.com","address":"107 E Alger St","city":"Sheridan","state":"WY","zip":82801,"latitude":44.8011626,"longitude":-106.9544206,"phone_number_service":"3076746419","phone_number_main":"3076746419","service_hours":"Mo-Fr 07:30 - 17:30 | Sa 08:00 - 12:00","utc_offset":"-360","gplace_id":null,"gplace_url":"https://maps.google.com/?cid=14668769498745280663","dealerID":74139,"trusted":false,"image_id":"v1597284079/chevy_ms.png","phone":"3076746419","cityStateSlug":"sheridan.wy","slug":"Sheridan.WY/hammer+chevrolet","location":"44.8011626,-106.9544206","brandsList":["chevrolet"]},{"id":14813,"crm_id":67076869,"name":"Valley Motor Honda","dealerSlug":"valley+motor+honda","city_state_slug":"Sheridan.WY","brand":"Honda","website":"www.valleymotorhonda.com/","address":"139 E 5th St","city":"Sheridan","state":"WY","zip":82801,"latitude":44.807146,"longitude":-106.953887,"phone_number_service":"3076723492","phone_number_main":"3076723492","service_hours":"Mo-Fr  08:00 - 17:00 | Sa 08:00 - 12:00","utc_offset":"-360","gplace_id":null,"gplace_url":"https://maps.google.com/?cid=665491370271354953","dealerID":74140,"trusted":false,"image_id":"v1597284047/honda_ms.png","phone":"3076723492","cityStateSlug":"sheridan.wy","slug":"Sheridan.WY/valley+motor+honda","location":"44.807146,-106.953887","brandsList":["honda"]},{"id":5220,"crm_id":67076872,"name":"Fremont Toyota Sheridan","dealerSlug":"fremont+toyota+sheridan","city_state_slug":"Sheridan.WY","brand":"Toyota","website":"www.fremonttoyotasheridan.com/","address":"1614 Coffeen Ave","city":"Sheridan","state":"WY","zip":82801,"latitude":44.7807278,"longitude":-106.9454522,"phone_number_service":"3072062610","phone_number_main":"3076834070","service_hours":"Mo-Fr 07:30 - 17:30 | Sa 08:00 -15:00","utc_offset":"-360","gplace_id":null,"gplace_url":"https://maps.google.com/?cid=15508476754861706496","dealerID":74141,"trusted":false,"image_id":"v1597284039/toyota_ms.png","phone":"3072062610","cityStateSlug":"sheridan.wy","slug":"Sheridan.WY/fremont+toyota+sheridan","location":"44.7807278,-106.9454522","brandsList":["toyota"]},{"id":13151,"crm_id":67076875,"name":"Sheridan Motor","dealerSlug":"sheridan+motor","city_state_slug":"Sheridan.WY","brand":"Buick,GMC","website":"www.sheridanmotor.net","address":"1858 Coffeen Ave","city":"Sheridan","state":"WY","zip":82801,"latitude":44.777686,"longitude":-106.944351,"phone_number_service":"8883415315","phone_number_main":"3076723411","service_hours":"Mo-Fr 08:00 - 17:30 | Sa 09:00 - 16:00","utc_offset":"-360","gplace_id":null,"gplace_url":"https://maps.google.com/?cid=11662744283593290126","dealerID":74142,"trusted":false,"image_id":"v1597283981/buick_RM.png","phone":"8883415315","cityStateSlug":"sheridan.wy","slug":"Sheridan.WY/sheridan+motor","location":"44.777686,-106.944351","brandsList":["buick","gmc"]},{"id":4828,"crm_id":67076878,"name":"First Choice Ford","dealerSlug":"first+choice+ford","city_state_slug":"Rock-Springs.WY","brand":"Ford,Lincoln","website":"www.firstchoiceford.info","address":"1264 Dewar Dr","city":"Rock Springs","state":"WY","zip":82901,"latitude":41.5786411,"longitude":-109.2343685,"phone_number_service":"8884521894","phone_number_main":"3073822519","service_hours":"Mo-Fr 07:30 - 17:30","utc_offset":"-360","gplace_id":null,"gplace_url":"https://maps.google.com/?cid=4647785175767361642","dealerID":74143,"trusted":false,"image_id":"v1597283967/ford_RM.png","phone":"8884521894","cityStateSlug":"rock-springs.wy","slug":"Rock-Springs.WY/first+choice+ford","location":"41.5786411,-109.2343685","brandsList":["ford","lincoln"]},{"id":5204,"crm_id":67076881,"name":"Fremont CDJR Rock Springs","dealerSlug":"fremont+cdjr+rock+springs","city_state_slug":"Rock-Springs.WY","brand":"Chrysler,Dodge,Jeep,RAM","website":"www.fremontchryslerdodgejeeprocksprings.com","address":"1900 Foothill Blvd","city":"Rock Springs","state":"WY","zip":82901,"latitude":41.5762755,"longitude":-109.2670346,"phone_number_service":"3072062890","phone_number_main":"3072282091","service_hours":"Mo-Fr 07:30 - 17:30 | Sa 09:00 -17:00","utc_offset":"-360","gplace_id":null,"gplace_url":"https://maps.google.com/?cid=145322231691922116","dealerID":74144,"trusted":false,"image_id":"v1597283975/chrysler_RM.png","phone":"3072062890","cityStateSlug":"rock-springs.wy","slug":"Rock-Springs.WY/fremont+cdjr+rock+springs","location":"41.5762755,-109.2670346","brandsList":["chrysler","dodge","jeep","ram"]},{"id":12478,"crm_id":67076890,"name":"Rocky Mountain Yet Pinedale","dealerSlug":"rocky+mountain+yet+pinedale","city_state_slug":"Pinedale.WY","brand":"Chrysler,Dodge,Jeep,RAM","website":"rockymountainyetipinedale.com","address":"153 S Entertainment Ln","city":"Pinedale","state":"WY","zip":82941,"latitude":42.8650699,"longitude":-109.8742394,"phone_number_service":"3074389172","phone_number_main":"3075431189","service_hours":"Mo-Fr 08:00 - 17:30","utc_offset":"-360","gplace_id":null,"gplace_url":"https://maps.google.com/?cid=1719422779028177579","dealerID":74145,"trusted":false,"image_id":"v1597283975/chrysler_RM.png","phone":"3074389172","cityStateSlug":"pinedale.wy","slug":"Pinedale.WY/rocky+mountain+yet+pinedale","location":"42.8650699,-109.8742394","brandsList":["chrysler","dodge","jeep","ram"]},{"id":12479,"crm_id":67076893,"name":"Rocky Mountain Yeti Jackson","dealerSlug":"rocky+mountain+yeti+jackson","city_state_slug":"Jackson.WY","brand":"Chrysler,Dodge,Jeep,RAM","website":"www.rockymountainyetijacksonhole.com","address":"665 W Elk Ave","city":"Jackson","state":"WY","zip":83001,"latitude":43.4237659,"longitude":-110.7760527,"phone_number_service":"3074389070","phone_number_main":"3072034329","service_hours":"Mo-Fr  08:00 - 17:30","utc_offset":"-360","gplace_id":null,"gplace_url":"https://maps.google.com/?cid=9729720593070229994","dealerID":74146,"trusted":false,"image_id":"v1597283975/chrysler_RM.png","phone":"3074389070","cityStateSlug":"jackson.wy","slug":"Jackson.WY/rocky+mountain+yeti+jackson","location":"43.4237659,-110.7760527","brandsList":["chrysler","dodge","jeep","ram"]},{"id":5216,"crm_id":101323060,"name":"Fremont Motor Casper","dealerSlug":"fremont+motor+casper","city_state_slug":"Casper.WY","brand":"Chrysler,Dodge,Jeep,RAM","website":"www.fremontchryslerdodgejeepcasper.com","address":"6101 E 2nd St","city":"Casper","state":"WY","zip":82609,"latitude":42.841517,"longitude":-106.235288,"phone_number_service":"3072062736","phone_number_main":"3074625508","service_hours":"Mo-Fr 07:00 - 18:00 | Sa 08:00-17:00","utc_offset":"-360","gplace_id":null,"gplace_url":"https://maps.google.com/?cid=1920860778896614590","dealerID":76573,"trusted":false,"image_id":"v1597283975/chrysler_RM.png","phone":"3072062736","cityStateSlug":"casper.wy","slug":"Casper.WY/fremont+motor+casper","location":"42.841517,-106.235288","brandsList":["chrysler","dodge","jeep","ram"]}]